[{"country_code": "MW", "postal_code": "209100", "place_name": "Dedza Township", "latitude": "-14.2627", "longitude": "34.1856"}, {"country_code": "MW", "postal_code": "209101", "place_name": "Tambala", "latitude": "-14.0333", "longitude": "34.2333"}, {"country_code": "MW", "postal_code": "209102", "place_name": "Chauma", "latitude": "-14.2627", "longitude": "34.1856"}, {"country_code": "MW", "postal_code": "209103", "place_name": "Kasumbu", "latitude": "-14.3", "longitude": "34.35"}, {"country_code": "MW", "postal_code": "209104", "place_name": "Kachindamoto", "latitude": "-14.3606", "longitude": "34.2637"}, {"country_code": "MW", "postal_code": "209105", "place_name": "Kamenya Gwaza", "latitude": "-14.3667", "longitude": "34.45"}, {"country_code": "MW", "postal_code": "209106", "place_name": "Kaphuka", "latitude": "-14.15", "longitude": "34.1667"}, {"country_code": "MW", "postal_code": "209107", "place_name": "Chilikumwendo", "latitude": "-14.2167", "longitude": "33.95"}, {"country_code": "MW", "postal_code": "209108", "place_name": "Kachere", "latitude": "-14.4167", "longitude": "34.1167"}, {"country_code": "MW", "postal_code": "204100", "place_name": "Dowa BOMA", "latitude": "-13.601", "longitude": "33.8238"}, {"country_code": "MW", "postal_code": "204101", "place_name": "Chakhaza", "latitude": "-13.65", "longitude": "33.7333"}, {"country_code": "MW", "postal_code": "204102", "place_name": "Dzoole", "latitude": "-13.5791", "longitude": "33.6588"}, {"country_code": "MW", "postal_code": "204103", "place_name": "Kayembe", "latitude": "-13.6331", "longitude": "33.6001"}, {"country_code": "MW", "postal_code": "204104", "place_name": "Mponela", "latitude": "-13.5319", "longitude": "33.7401"}, {"country_code": "MW", "postal_code": "204105", "place_name": "Mponela Township", "latitude": "-13.601", "longitude": "33.8238"}, {"country_code": "MW", "postal_code": "204106", "place_name": "Msakambewa", "latitude": "-13.5357", "longitude": "33.9178"}, {"country_code": "MW", "postal_code": "204107", "place_name": "Mkukula", "latitude": "-13.7545", "longitude": "33.8265"}, {"country_code": "MW", "postal_code": "204108", "place_name": "Lumbadzi Township", "latitude": "-13.601", "longitude": "33.8238"}, {"country_code": "MW", "postal_code": "204109", "place_name": "Chiwere", "latitude": "-13.7667", "longitude": "34.1333"}, {"country_code": "MW", "postal_code": "201100", "place_name": "Chisikwa", "latitude": "-14", "longitude": "33.4833"}, {"country_code": "MW", "postal_code": "201101", "place_name": "Kaluluma", "latitude": "-12.5783", "longitude": "33.5196"}, {"country_code": "MW", "postal_code": "201102", "place_name": "Chisinga", "latitude": "-13", "longitude": "33.4167"}, {"country_code": "MW", "postal_code": "201103", "place_name": "Chisemphere", "latitude": "-13.2333", "longitude": "33.4667"}, {"country_code": "MW", "postal_code": "201104", "place_name": "Chulu", "latitude": "-12.82", "longitude": "33.3086"}, {"country_code": "MW", "postal_code": "201105", "place_name": "M\u2019nyanja", "latitude": "-13", "longitude": "33.4167"}, {"country_code": "MW", "postal_code": "201106", "place_name": "Simlemba", "latitude": "-12.7444", "longitude": "33.6745"}, {"country_code": "MW", "postal_code": "201107", "place_name": "Mphomwa", "latitude": "-12.8075", "longitude": "33.4334"}, {"country_code": "MW", "postal_code": "201108", "place_name": "Kaphaizi", "latitude": "-13", "longitude": "33.4167"}, {"country_code": "MW", "postal_code": "201109", "place_name": "Mwase", "latitude": "-13.0667", "longitude": "33.4333"}, {"country_code": "MW", "postal_code": "201110", "place_name": "Kaomba", "latitude": "-13.1", "longitude": "33.5"}, {"country_code": "MW", "postal_code": "201111", "place_name": "Wimbe", "latitude": "-12.9765", "longitude": "33.6837"}, {"country_code": "MW", "postal_code": "201112", "place_name": "Kapelula", "latitude": "-12.9062", "longitude": "33.8019"}, {"country_code": "MW", "postal_code": "201113", "place_name": "Kapichira", "latitude": "-12.8833", "longitude": "33.9333"}, {"country_code": "MW", "postal_code": "201114", "place_name": "Mdunga", "latitude": "-12.9863", "longitude": "33.8332"}, {"country_code": "MW", "postal_code": "201115", "place_name": "Chilowamatambe", "latitude": "-13", "longitude": "33.4167"}, {"country_code": "MW", "postal_code": "201116", "place_name": "Chambwe", "latitude": "-13.2", "longitude": "33.65"}, {"country_code": "MW", "postal_code": "201117", "place_name": "Mangwazu", "latitude": "-13", "longitude": "33.4167"}, {"country_code": "MW", "postal_code": "201118", "place_name": "Mawawa", "latitude": "-13.1", "longitude": "33.3833"}, {"country_code": "MW", "postal_code": "201119", "place_name": "Lukwa", "latitude": "-13.1", "longitude": "33.45"}, {"country_code": "MW", "postal_code": "201120", "place_name": "Njombwa", "latitude": "-13.3", "longitude": "33.5167"}, {"country_code": "MW", "postal_code": "201121", "place_name": "Kawamba", "latitude": "-13.2969", "longitude": "33.341"}, {"country_code": "MW", "postal_code": "201122", "place_name": "Nthunduwala", "latitude": "-13", "longitude": "33.4167"}, {"country_code": "MW", "postal_code": "201123", "place_name": "Chaima", "latitude": "-13.3167", "longitude": "33.4833"}, {"country_code": "MW", "postal_code": "201124", "place_name": "Chidzuma", "latitude": "-13", "longitude": "33.4167"}, {"country_code": "MW", "postal_code": "201125", "place_name": "Santhe", "latitude": "-13.467", "longitude": "33.3838"}, {"country_code": "MW", "postal_code": "201126", "place_name": "Kasungu National Park", "latitude": "-13", "longitude": "33.4167"}, {"country_code": "MW", "postal_code": "201300", "place_name": "Kasungu Central Township", "latitude": "-13", "longitude": "33.4167"}, {"country_code": "MW", "postal_code": "201301", "place_name": "Chipala", "latitude": "-13", "longitude": "33.4167"}, {"country_code": "MW", "postal_code": "201302", "place_name": "Mponda", "latitude": "-13.6333", "longitude": "33.45"}, {"country_code": "MW", "postal_code": "201303", "place_name": "Bunda", "latitude": "-13", "longitude": "33.4167"}, {"country_code": "MW", "postal_code": "201304", "place_name": "Belele", "latitude": "-13", "longitude": "33.4167"}, {"country_code": "MW", "postal_code": "201305", "place_name": "Chankhanga", "latitude": "-13", "longitude": "33.4167"}, {"country_code": "MW", "postal_code": "201306", "place_name": "Kasalika", "latitude": "-13.0333", "longitude": "33.5"}, {"country_code": "MW", "postal_code": "201307", "place_name": "Kapalankhwazi", "latitude": "-13", "longitude": "33.4167"}, {"country_code": "MW", "postal_code": "201308", "place_name": "Chitete", "latitude": "-13.4167", "longitude": "33.8333"}, {"country_code": "MW", "postal_code": "201309", "place_name": "Kamvunguti", "latitude": "-13", "longitude": "33.4167"}, {"country_code": "MW", "postal_code": "201310", "place_name": "Chimbuna", "latitude": "-13", "longitude": "33.4167"}, {"country_code": "MW", "postal_code": "201311", "place_name": "Gundani", "latitude": "-13.05", "longitude": "33.5"}, {"country_code": "MW", "postal_code": "206101", "place_name": "Khongoni", "latitude": "-13.8528", "longitude": "33.3737"}, {"country_code": "MW", "postal_code": "206102", "place_name": "Kabudula", "latitude": "-13.6667", "longitude": "33.4167"}, {"country_code": "MW", "postal_code": "206103", "place_name": "Mtema", "latitude": "-13.8167", "longitude": "33.6667"}, {"country_code": "MW", "postal_code": "206104", "place_name": "Mbang\u2019ombe", "latitude": "-14.0196", "longitude": "33.6841"}, {"country_code": "MW", "postal_code": "206105", "place_name": "Chitukula", "latitude": "-13.7819", "longitude": "33.7493"}, {"country_code": "MW", "postal_code": "206106", "place_name": "Chimutu", "latitude": "-14.0667", "longitude": "33.8167"}, {"country_code": "MW", "postal_code": "206107", "place_name": "Chitekwele", "latitude": "-14.0196", "longitude": "33.6841"}, {"country_code": "MW", "postal_code": "206108", "place_name": "Mazengera", "latitude": "-14.0667", "longitude": "33.9667"}, {"country_code": "MW", "postal_code": "206109", "place_name": "Kalumbu", "latitude": "-14.1351", "longitude": "33.9471"}, {"country_code": "MW", "postal_code": "206110", "place_name": "Chadza", "latitude": "-14.157", "longitude": "33.8429"}, {"country_code": "MW", "postal_code": "206111", "place_name": "Kalumba", "latitude": "-14.0833", "longitude": "33.8167"}, {"country_code": "MW", "postal_code": "206112", "place_name": "Tsabango", "latitude": "-14.0196", "longitude": "33.6841"}, {"country_code": "MW", "postal_code": "206113", "place_name": "Njewa", "latitude": "-13.9833", "longitude": "33.7167"}, {"country_code": "MW", "postal_code": "206114", "place_name": "Malili", "latitude": "-14.0784", "longitude": "33.6959"}, {"country_code": "MW", "postal_code": "206115", "place_name": "Kalolo", "latitude": "-14", "longitude": "33.3833"}, {"country_code": "MW", "postal_code": "206116", "place_name": "Masumbankhunda", "latitude": "-14.0196", "longitude": "33.6841"}, {"country_code": "MW", "postal_code": "206117", "place_name": "Chiseka", "latitude": "-14.0196", "longitude": "33.6841"}, {"country_code": "MW", "postal_code": "206118", "place_name": "Masula", "latitude": "-14.1597", "longitude": "33.6943"}, {"country_code": "MW", "postal_code": "207201", "place_name": "Area 1", "latitude": "-14.0012", "longitude": "33.7727"}, {"country_code": "MW", "postal_code": "207202", "place_name": "Area 2", "latitude": "-14.0196", "longitude": "33.6841"}, {"country_code": "MW", "postal_code": "207203", "place_name": "Area 3", "latitude": "-14.0196", "longitude": "33.6841"}, {"country_code": "MW", "postal_code": "207204", "place_name": "Area 4", "latitude": "-14.0196", "longitude": "33.6841"}, {"country_code": "MW", "postal_code": "207205", "place_name": "Area 5", "latitude": "-14.0196", "longitude": "33.6841"}, {"country_code": "MW", "postal_code": "207206", "place_name": "Area 6", "latitude": "-14.0196", "longitude": "33.6841"}, {"country_code": "MW", "postal_code": "207207", "place_name": "Area 7", "latitude": "-13.987", "longitude": "33.798"}, {"country_code": "MW", "postal_code": "207208", "place_name": "Area 8", "latitude": "-14.0196", "longitude": "33.6841"}, {"country_code": "MW", "postal_code": "207209", "place_name": "Area 9", "latitude": "-14.0196", "longitude": "33.6841"}, {"country_code": "MW", "postal_code": "207210", "place_name": "Area 10", "latitude": "-14.0196", "longitude": "33.6841"}, {"country_code": "MW", "postal_code": "207211", "place_name": "Area 11", "latitude": "-14.0196", "longitude": "33.6841"}, {"country_code": "MW", "postal_code": "207212", "place_name": "Area 12", "latitude": "-14.0196", "longitude": "33.6841"}, {"country_code": "MW", "postal_code": "207213", "place_name": "Area 13", "latitude": "-14.0196", "longitude": "33.6841"}, {"country_code": "MW", "postal_code": "207214", "place_name": "Area 14", "latitude": "-14.0196", "longitude": "33.6841"}, {"country_code": "MW", "postal_code": "207215", "place_name": "Area 15", "latitude": "-14.0196", "longitude": "33.6841"}, {"country_code": "MW", "postal_code": "207216", "place_name": "Area 16", "latitude": "-14.0196", "longitude": "33.6841"}, {"country_code": "MW", "postal_code": "207217", "place_name": "Area 17", "latitude": "-14.0196", "longitude": "33.6841"}, {"country_code": "MW", "postal_code": "207218", "place_name": "Area 18", "latitude": "-13.9417", "longitude": "33.766"}, {"country_code": "MW", "postal_code": "207219", "place_name": "Area 19", "latitude": "-14.0196", "longitude": "33.6841"}, {"country_code": "MW", "postal_code": "207220", "place_name": "Area 20", "latitude": "-14.0196", "longitude": "33.6841"}, {"country_code": "MW", "postal_code": "207221", "place_name": "Area 21", "latitude": "-13.9937", "longitude": "33.8112"}, {"country_code": "MW", "postal_code": "207222", "place_name": "Area 22", "latitude": "-14.0116", "longitude": "33.7991"}, {"country_code": "MW", "postal_code": "207223", "place_name": "Area 23", "latitude": "-14.0168", "longitude": "33.7941"}, {"country_code": "MW", "postal_code": "207224", "place_name": "Area 24", "latitude": "-14.026", "longitude": "33.7956"}, {"country_code": "MW", "postal_code": "207225", "place_name": "Area 25", "latitude": "-13.8795", "longitude": "33.7242"}, {"country_code": "MW", "postal_code": "207226", "place_name": "Area 26", "latitude": "-14.0196", "longitude": "33.6841"}, {"country_code": "MW", "postal_code": "207227", "place_name": "Area 27", "latitude": "-14.0196", "longitude": "33.6841"}, {"country_code": "MW", "postal_code": "207228", "place_name": "Area 28", "latitude": "-14.0196", "longitude": "33.6841"}, {"country_code": "MW", "postal_code": "207229", "place_name": "Area 29", "latitude": "-14.0196", "longitude": "33.6841"}, {"country_code": "MW", "postal_code": "207230", "place_name": "Area 30", "latitude": "-14.0196", "longitude": "33.6841"}, {"country_code": "MW", "postal_code": "207231", "place_name": "Area 31", "latitude": "-14.0196", "longitude": "33.6841"}, {"country_code": "MW", "postal_code": "207232", "place_name": "Area 32", "latitude": "-14.0196", "longitude": "33.6841"}, {"country_code": "MW", "postal_code": "207233", "place_name": "Area 33", "latitude": "-14.0196", "longitude": "33.6841"}, {"country_code": "MW", "postal_code": "207234", "place_name": "Area 34", "latitude": "-14.0196", "longitude": "33.6841"}, {"country_code": "MW", "postal_code": "207235", "place_name": "Area 35", "latitude": "-14.0196", "longitude": "33.6841"}, {"country_code": "MW", "postal_code": "207236", "place_name": "Area 36", "latitude": "-14.0226", "longitude": "33.7847"}, {"country_code": "MW", "postal_code": "207237", "place_name": "Area 37", "latitude": "-14.0196", "longitude": "33.6841"}, {"country_code": "MW", "postal_code": "207238", "place_name": "Area 38", "latitude": "-14.0196", "longitude": "33.6841"}, {"country_code": "MW", "postal_code": "207239", "place_name": "Area 39", "latitude": "-14.0196", "longitude": "33.6841"}, {"country_code": "MW", "postal_code": "207240", "place_name": "Area 40", "latitude": "-14.0196", "longitude": "33.6841"}, {"country_code": "MW", "postal_code": "207241", "place_name": "Area 41", "latitude": "-14.0196", "longitude": "33.6841"}, {"country_code": "MW", "postal_code": "207242", "place_name": "Area 42", "latitude": "-14.0196", "longitude": "33.6841"}, {"country_code": "MW", "postal_code": "207243", "place_name": "Area 43", "latitude": "-14.0196", "longitude": "33.6841"}, {"country_code": "MW", "postal_code": "207244", "place_name": "Area 44", "latitude": "-13.9607", "longitude": "33.8526"}, {"country_code": "MW", "postal_code": "207245", "place_name": "Area 45", "latitude": "-14.0196", "longitude": "33.6841"}, {"country_code": "MW", "postal_code": "207246", "place_name": "Area 46", "latitude": "-14.0196", "longitude": "33.6841"}, {"country_code": "MW", "postal_code": "207247", "place_name": "Area 47", "latitude": "-13.9581", "longitude": "33.7548"}, {"country_code": "MW", "postal_code": "207248", "place_name": "Area 48", "latitude": "-14.0196", "longitude": "33.6841"}, {"country_code": "MW", "postal_code": "207249", "place_name": "Area 49", "latitude": "-13.9209", "longitude": "33.7467"}, {"country_code": "MW", "postal_code": "207250", "place_name": "Area 50", "latitude": "-13.9096", "longitude": "33.7701"}, {"country_code": "MW", "postal_code": "207251", "place_name": "Area 51", "latitude": "-14.0196", "longitude": "33.6841"}, {"country_code": "MW", "postal_code": "207252", "place_name": "Area 52", "latitude": "-14.0196", "longitude": "33.6841"}, {"country_code": "MW", "postal_code": "207253", "place_name": "Area 53", "latitude": "-14.0196", "longitude": "33.6841"}, {"country_code": "MW", "postal_code": "207254", "place_name": "Area 54", "latitude": "-14.0196", "longitude": "33.6841"}, {"country_code": "MW", "postal_code": "207255", "place_name": "Area 55", "latitude": "-13.8343", "longitude": "33.7631"}, {"country_code": "MW", "postal_code": "207256", "place_name": "Area 56", "latitude": "-14.0196", "longitude": "33.6841"}, {"country_code": "MW", "postal_code": "207257", "place_name": "Area 57", "latitude": "-14.0106", "longitude": "33.7022"}, {"country_code": "MW", "postal_code": "207258", "place_name": "Area 58", "latitude": "-14.0196", "longitude": "33.6841"}, {"country_code": "MW", "postal_code": "205100", "place_name": "Mchinji BOMA", "latitude": "-13.7623", "longitude": "33.08"}, {"country_code": "MW", "postal_code": "205101", "place_name": "Gumba", "latitude": "-13.424", "longitude": "33.1102"}, {"country_code": "MW", "postal_code": "205102", "place_name": "Mkanda", "latitude": "-13.5147", "longitude": "32.9597"}, {"country_code": "MW", "postal_code": "205103", "place_name": "Dambe", "latitude": "-13.7623", "longitude": "33.08"}, {"country_code": "MW", "postal_code": "205104", "place_name": "Pitala", "latitude": "-13.7623", "longitude": "33.08"}, {"country_code": "MW", "postal_code": "205105", "place_name": "Kazyozyo", "latitude": "-13.5676", "longitude": "32.8613"}, {"country_code": "MW", "postal_code": "205106", "place_name": "Kapunula", "latitude": "-13.5874", "longitude": "32.7819"}, {"country_code": "MW", "postal_code": "205107", "place_name": "Kapondo", "latitude": "-13.7623", "longitude": "33.08"}, {"country_code": "MW", "postal_code": "205108", "place_name": "Mduwa", "latitude": "-13.7211", "longitude": "33.0853"}, {"country_code": "MW", "postal_code": "205109", "place_name": "Nyoka", "latitude": "-13.7004", "longitude": "32.9056"}, {"country_code": "MW", "postal_code": "205110", "place_name": "Mlonyeni", "latitude": "-13.8582", "longitude": "33.026"}, {"country_code": "MW", "postal_code": "205111", "place_name": "Zulu", "latitude": "-13.8147", "longitude": "32.9688"}, {"country_code": "MW", "postal_code": "205112", "place_name": "Simphasi", "latitude": "-13.7623", "longitude": "33.08"}, {"country_code": "MW", "postal_code": "205113", "place_name": "Mavwere", "latitude": "-13.7623", "longitude": "33.08"}, {"country_code": "MW", "postal_code": "210100", "place_name": "Ntcheu BOMA", "latitude": "-14.75", "longitude": "34.75"}, {"country_code": "MW", "postal_code": "210101", "place_name": "Masasa", "latitude": "-14.4359", "longitude": "34.4332"}, {"country_code": "MW", "postal_code": "210102", "place_name": "Chakhumbira", "latitude": "-14.5667", "longitude": "34.7"}, {"country_code": "MW", "postal_code": "210103", "place_name": "Goodson Ganya", "latitude": "-14.75", "longitude": "34.75"}, {"country_code": "MW", "postal_code": "210104", "place_name": "Njolomole", "latitude": "-14.6493", "longitude": "34.5579"}, {"country_code": "MW", "postal_code": "210105", "place_name": "Kwataine", "latitude": "-14.8333", "longitude": "34.6833"}, {"country_code": "MW", "postal_code": "210106", "place_name": "Makwangwala", "latitude": "-14.8", "longitude": "34.7667"}, {"country_code": "MW", "postal_code": "210107", "place_name": "Mkutumula", "latitude": "-14.846", "longitude": "34.8927"}, {"country_code": "MW", "postal_code": "210108", "place_name": "Champiti", "latitude": "-14.75", "longitude": "34.75"}, {"country_code": "MW", "postal_code": "210109", "place_name": "Mpando", "latitude": "-13.4333", "longitude": "33.85"}, {"country_code": "MW", "postal_code": "210110", "place_name": "Phambala", "latitude": "-14.1167", "longitude": "33.9667"}, {"country_code": "MW", "postal_code": "210111", "place_name": "Tsikulamowa", "latitude": "-14.75", "longitude": "34.75"}, {"country_code": "MW", "postal_code": "202100", "place_name": "Nkhotakota BOMA", "latitude": "-12.8042", "longitude": "34.083"}, {"country_code": "MW", "postal_code": "202101", "place_name": "Kafuzila", "latitude": "-12.3", "longitude": "34.0333"}, {"country_code": "MW", "postal_code": "202102", "place_name": "Kanyenda", "latitude": "-12.4676", "longitude": "34.0893"}, {"country_code": "MW", "postal_code": "202103", "place_name": "Dwangwa Township", "latitude": "-12.8042", "longitude": "34.083"}, {"country_code": "MW", "postal_code": "202104", "place_name": "Mphonde", "latitude": "-12.8011", "longitude": "34.2245"}, {"country_code": "MW", "postal_code": "202105", "place_name": "Malenga Chanzi", "latitude": "-12.8042", "longitude": "34.083"}, {"country_code": "MW", "postal_code": "202106", "place_name": "Kalimanjira", "latitude": "-12.8042", "longitude": "34.083"}, {"country_code": "MW", "postal_code": "202107", "place_name": "Mwadzama", "latitude": "-13.4116", "longitude": "34.2848"}, {"country_code": "MW", "postal_code": "202108", "place_name": "Mwansambo", "latitude": "-13.3093", "longitude": "34.1178"}, {"country_code": "MW", "postal_code": "202109", "place_name": "Nkhotakota Game Reserve", "latitude": "-12.8042", "longitude": "34.083"}, {"country_code": "MW", "postal_code": "203100", "place_name": "Ntchisi BOMA", "latitude": "-13.5277", "longitude": "33.9149"}, {"country_code": "MW", "postal_code": "203101", "place_name": "Chilooko", "latitude": "-13.2957", "longitude": "33.908"}, {"country_code": "MW", "postal_code": "203102", "place_name": "Nthondo", "latitude": "-13.25", "longitude": "34.0167"}, {"country_code": "MW", "postal_code": "203103", "place_name": "Malenga", "latitude": "-13.3337", "longitude": "33.8904"}, {"country_code": "MW", "postal_code": "203104", "place_name": "Kasakula", "latitude": "-13.35", "longitude": "34.0833"}, {"country_code": "MW", "postal_code": "203105", "place_name": "Kalumo", "latitude": "-13.2957", "longitude": "33.908"}, {"country_code": "MW", "postal_code": "203106", "place_name": "Vuso Jere", "latitude": "-13.2957", "longitude": "33.908"}, {"country_code": "MW", "postal_code": "203107", "place_name": "Chikho", "latitude": "-13.3839", "longitude": "34.0834"}, {"country_code": "MW", "postal_code": "208100", "place_name": "Salima Township", "latitude": "-13.7196", "longitude": "34.4018"}, {"country_code": "MW", "postal_code": "208101", "place_name": "Msosa", "latitude": "-13.7196", "longitude": "34.4018"}, {"country_code": "MW", "postal_code": "208102", "place_name": "Khombedza", "latitude": "-13.7196", "longitude": "34.4018"}, {"country_code": "MW", "postal_code": "208103", "place_name": "Mwanza", "latitude": "-13.6", "longitude": "33.4667"}, {"country_code": "MW", "postal_code": "208104", "place_name": "Kuluunda", "latitude": "-13.7196", "longitude": "34.4018"}, {"country_code": "MW", "postal_code": "208105", "place_name": "Karonga", "latitude": "-13.7707", "longitude": "34.4405"}, {"country_code": "MW", "postal_code": "208106", "place_name": "Maganga", "latitude": "-13.875", "longitude": "34.5778"}, {"country_code": "MW", "postal_code": "208107", "place_name": "Kambwiri", "latitude": "-13.7955", "longitude": "34.4081"}, {"country_code": "MW", "postal_code": "208108", "place_name": "Pemba", "latitude": "-13.8199", "longitude": "34.5126"}, {"country_code": "MW", "postal_code": "208109", "place_name": "Ndindi", "latitude": "-13.9725", "longitude": "34.5132"}, {"country_code": "MW", "postal_code": "208110", "place_name": "Chipoka Township", "latitude": "-13.7196", "longitude": "34.4018"}, {"country_code": "MW", "postal_code": "208111", "place_name": "Kambalame", "latitude": "-13.7196", "longitude": "34.4018"}, {"country_code": "MW", "postal_code": "101100", "place_name": "Chitipa BOMA", "latitude": "-9.9273", "longitude": "33.4254"}, {"country_code": "MW", "postal_code": "101101", "place_name": "Kameme", "latitude": "-9.5667", "longitude": "33.0833"}, {"country_code": "MW", "postal_code": "101102", "place_name": "Bulambya Songwe", "latitude": "-9.9273", "longitude": "33.4254"}, {"country_code": "MW", "postal_code": "101103", "place_name": "Mwabulambya", "latitude": "-9.9273", "longitude": "33.4254"}, {"country_code": "MW", "postal_code": "101104", "place_name": "Mwenemisuku", "latitude": "-9.9273", "longitude": "33.4254"}, {"country_code": "MW", "postal_code": "101105", "place_name": "Lwangwa", "latitude": "-9.9273", "longitude": "33.4254"}, {"country_code": "MW", "postal_code": "101106", "place_name": "Mwenewenya", "latitude": "-10.1121", "longitude": "33.5742"}, {"country_code": "MW", "postal_code": "101107", "place_name": "Nthengatenga", "latitude": "-9.9273", "longitude": "33.4254"}, {"country_code": "MW", "postal_code": "101108", "place_name": "Nthalire", "latitude": "-10.3349", "longitude": "33.6257"}, {"country_code": "MW", "postal_code": "101109", "place_name": "Wavikaza", "latitude": "-9.9273", "longitude": "33.4254"}, {"country_code": "MW", "postal_code": "102100", "place_name": "Karonga", "latitude": "-9.9333", "longitude": "33.9333"}, {"country_code": "MW", "postal_code": "102101", "place_name": "Songwe", "latitude": "-10.1115", "longitude": "33.8815"}, {"country_code": "MW", "postal_code": "102102", "place_name": "Mwakaboko", "latitude": "-10.1115", "longitude": "33.8815"}, {"country_code": "MW", "postal_code": "102103", "place_name": "Kilupula", "latitude": "-10.1115", "longitude": "33.8815"}, {"country_code": "MW", "postal_code": "102104", "place_name": "Kyungu", "latitude": "-10.1115", "longitude": "33.8815"}, {"country_code": "MW", "postal_code": "102105", "place_name": "Mwirang\u2019ombe", "latitude": "-10.1115", "longitude": "33.8815"}, {"country_code": "MW", "postal_code": "102106", "place_name": "Wasambo", "latitude": "-10.1115", "longitude": "33.8815"}, {"country_code": "MW", "postal_code": "104100", "place_name": "Mzimba BOMA", "latitude": "-11.8543", "longitude": "33.6078"}, {"country_code": "MW", "postal_code": "104101", "place_name": "Jaravikuba Munthali", "latitude": "-11.8543", "longitude": "33.6078"}, {"country_code": "MW", "postal_code": "104102", "place_name": "Mtwalo", "latitude": "-11.3833", "longitude": "33.75"}, {"country_code": "MW", "postal_code": "104103", "place_name": "Ekwendeni Township", "latitude": "-11.8543", "longitude": "33.6078"}, {"country_code": "MW", "postal_code": "104104", "place_name": "Mpherembe", "latitude": "-11.2833", "longitude": "33.6"}, {"country_code": "MW", "postal_code": "104105", "place_name": "Chindi", "latitude": "-11.45", "longitude": "33.4167"}, {"country_code": "MW", "postal_code": "104106", "place_name": "Kampingo Sibande", "latitude": "-11.4833", "longitude": "33.8"}, {"country_code": "MW", "postal_code": "104107", "place_name": "M\u2019mbelwa", "latitude": "-11.6264", "longitude": "33.6159"}, {"country_code": "MW", "postal_code": "104108", "place_name": "Mzukuzuku", "latitude": "-11.8543", "longitude": "33.6078"}, {"country_code": "MW", "postal_code": "104109", "place_name": "Mzikubola", "latitude": "-11.8543", "longitude": "33.6078"}, {"country_code": "MW", "postal_code": "104110", "place_name": "Levi Jere", "latitude": "-12.351", "longitude": "33.5664"}, {"country_code": "MW", "postal_code": "104111", "place_name": "Jenda Township", "latitude": "-11.8543", "longitude": "33.6078"}, {"country_code": "MW", "postal_code": "104112", "place_name": "Mabulabo", "latitude": "-12.5954", "longitude": "33.6011"}, {"country_code": "MW", "postal_code": "104113", "place_name": "Khosolo Gwaza Jere", "latitude": "-11.8543", "longitude": "33.6078"}, {"country_code": "MW", "postal_code": "104114", "place_name": "Vwaza Marsh Reserve", "latitude": "-11.8543", "longitude": "33.6078"}, {"country_code": "MW", "postal_code": "105200", "place_name": "Mzuzu CBD", "latitude": "-11.8543", "longitude": "33.6078"}, {"country_code": "MW", "postal_code": "105201", "place_name": "Khorongo", "latitude": "-11.8543", "longitude": "33.6078"}, {"country_code": "MW", "postal_code": "105202", "place_name": "Lupaso", "latitude": "-11.8543", "longitude": "33.6078"}, {"country_code": "MW", "postal_code": "105203", "place_name": "Luwinga", "latitude": "-11.8543", "longitude": "33.6078"}, {"country_code": "MW", "postal_code": "105204", "place_name": "Mchengautuwa", "latitude": "-11.8543", "longitude": "33.6078"}, {"country_code": "MW", "postal_code": "105205", "place_name": "Chibanja", "latitude": "-11.8543", "longitude": "33.6078"}, {"country_code": "MW", "postal_code": "105206", "place_name": "Katoto", "latitude": "-11.4592", "longitude": "34.0096"}, {"country_code": "MW", "postal_code": "105207", "place_name": "Zolozolo", "latitude": "-11.8543", "longitude": "33.6078"}, {"country_code": "MW", "postal_code": "105208", "place_name": "Hilltop", "latitude": "-11.8543", "longitude": "33.6078"}, {"country_code": "MW", "postal_code": "105209", "place_name": "Chiputula", "latitude": "-11.4415", "longitude": "34.0165"}, {"country_code": "MW", "postal_code": "105210", "place_name": "Mzilawaingwe", "latitude": "-11.8543", "longitude": "33.6078"}, {"country_code": "MW", "postal_code": "105211", "place_name": "Katawa", "latitude": "-10.9333", "longitude": "34.0167"}, {"country_code": "MW", "postal_code": "105212", "place_name": "Chasefu", "latitude": "-11.8543", "longitude": "33.6078"}, {"country_code": "MW", "postal_code": "105213", "place_name": "Lunyangwa", "latitude": "-11.8543", "longitude": "33.6078"}, {"country_code": "MW", "postal_code": "105214", "place_name": "Kaning\u00edna", "latitude": "-11.4656", "longitude": "34.0207"}, {"country_code": "MW", "postal_code": "105215", "place_name": "Masasa", "latitude": "-12.0167", "longitude": "34.6167"}, {"country_code": "MW", "postal_code": "105216", "place_name": "Msongwe", "latitude": "-11.8543", "longitude": "33.6078"}, {"country_code": "MW", "postal_code": "106100", "place_name": "Nkhata Bay BOMA", "latitude": "-11.653", "longitude": "34.0532"}, {"country_code": "MW", "postal_code": "106101", "place_name": "Mkondowe", "latitude": "-11.0417", "longitude": "34.2127"}, {"country_code": "MW", "postal_code": "106102", "place_name": "Boghoyo", "latitude": "-11.1023", "longitude": "34.2252"}, {"country_code": "MW", "postal_code": "106103", "place_name": "M\u2019bwana", "latitude": "-11.653", "longitude": "34.0532"}, {"country_code": "MW", "postal_code": "106104", "place_name": "Nyaluwanga", "latitude": "-11.653", "longitude": "34.0532"}, {"country_code": "MW", "postal_code": "106105", "place_name": "Timbiri", "latitude": "-11.5428", "longitude": "34.192"}, {"country_code": "MW", "postal_code": "106106", "place_name": "Mkumbira", "latitude": "-11.653", "longitude": "34.0532"}, {"country_code": "MW", "postal_code": "106107", "place_name": "Mankhambira", "latitude": "-11.7206", "longitude": "34.2958"}, {"country_code": "MW", "postal_code": "106108", "place_name": "Fukamalaza", "latitude": "-11.75", "longitude": "34.2333"}, {"country_code": "MW", "postal_code": "106109", "place_name": "Malanda", "latitude": "-11.8667", "longitude": "34.1667"}, {"country_code": "MW", "postal_code": "106110", "place_name": "Kabunduli", "latitude": "-11.7333", "longitude": "34.0667"}, {"country_code": "MW", "postal_code": "106111", "place_name": "Malenga Mzoma", "latitude": "-11.9323", "longitude": "34.1334"}, {"country_code": "MW", "postal_code": "106112", "place_name": "Fukamapiri", "latitude": "-11.952", "longitude": "34.1163"}, {"country_code": "MW", "postal_code": "106113", "place_name": "Zilakoma", "latitude": "-12.0905", "longitude": "34.0557"}, {"country_code": "MW", "postal_code": "103100", "place_name": "Rumphi BOMA", "latitude": "-11.0186", "longitude": "33.8575"}, {"country_code": "MW", "postal_code": "103101", "place_name": "Mwalweni", "latitude": "-10.8029", "longitude": "33.8052"}, {"country_code": "MW", "postal_code": "103102", "place_name": "Kachulu", "latitude": "-10.8029", "longitude": "33.8052"}, {"country_code": "MW", "postal_code": "103103", "place_name": "Njikula", "latitude": "-10.8029", "longitude": "33.8052"}, {"country_code": "MW", "postal_code": "103104", "place_name": "Mwamlowe", "latitude": "-10.8029", "longitude": "33.8052"}, {"country_code": "MW", "postal_code": "103105", "place_name": "Chapinduka", "latitude": "-10.8029", "longitude": "33.8052"}, {"country_code": "MW", "postal_code": "103106", "place_name": "Mwankhunikira", "latitude": "-10.8029", "longitude": "33.8052"}, {"country_code": "MW", "postal_code": "103107", "place_name": "Mwahenga", "latitude": "-10.9167", "longitude": "33.9833"}, {"country_code": "MW", "postal_code": "103108", "place_name": "Chisovya", "latitude": "-10.8029", "longitude": "33.8052"}, {"country_code": "MW", "postal_code": "103109", "place_name": "Chikulamayembe", "latitude": "-10.8029", "longitude": "33.8052"}, {"country_code": "MW", "postal_code": "103110", "place_name": "Katumbi", "latitude": "-10.8125", "longitude": "33.5227"}, {"country_code": "MW", "postal_code": "103111", "place_name": "Zolekere", "latitude": "-10.8029", "longitude": "33.8052"}, {"country_code": "MW", "postal_code": "103112", "place_name": "Nyika National Park", "latitude": "-10.8029", "longitude": "33.8052"}, {"country_code": "MW", "postal_code": "107100", "place_name": "Likoma BOMA", "latitude": "-12.0607", "longitude": "34.7361"}, {"country_code": "MW", "postal_code": "107101", "place_name": "Mkumpha", "latitude": "-12.0607", "longitude": "34.7361"}, {"country_code": "MW", "postal_code": "315100", "place_name": "Chikwawa BOMA", "latitude": "-16.1667", "longitude": "34.75"}, {"country_code": "MW", "postal_code": "315101", "place_name": "Chapananga", "latitude": "-16.0528", "longitude": "34.7777"}, {"country_code": "MW", "postal_code": "315102", "place_name": "Kasisi", "latitude": "-15.9577", "longitude": "34.7718"}, {"country_code": "MW", "postal_code": "315103", "place_name": "Mlilima", "latitude": "-16.1667", "longitude": "34.75"}, {"country_code": "MW", "postal_code": "315104", "place_name": "Katunga", "latitude": "-16.073", "longitude": "34.8196"}, {"country_code": "MW", "postal_code": "315105", "place_name": "Maseya", "latitude": "-16.1667", "longitude": "34.75"}, {"country_code": "MW", "postal_code": "315106", "place_name": "Ndakwela", "latitude": "-16.1667", "longitude": "34.75"}, {"country_code": "MW", "postal_code": "315107", "place_name": "Lundu", "latitude": "-15.9841", "longitude": "34.4487"}, {"country_code": "MW", "postal_code": "315108", "place_name": "Nchalo Township", "latitude": "-16.1667", "longitude": "34.75"}, {"country_code": "MW", "postal_code": "315109", "place_name": "Makhwira", "latitude": "-16.1667", "longitude": "34.75"}, {"country_code": "MW", "postal_code": "315110", "place_name": "Ngabu", "latitude": "-16.4943", "longitude": "34.9115"}, {"country_code": "MW", "postal_code": "315111", "place_name": "Ngabu Township", "latitude": "-16.1667", "longitude": "34.75"}, {"country_code": "MW", "postal_code": "315112", "place_name": "Ngowe", "latitude": "-16.1667", "longitude": "34.75"}, {"country_code": "MW", "postal_code": "315113", "place_name": "Masache", "latitude": "-16.5667", "longitude": "34.95"}, {"country_code": "MW", "postal_code": "315114", "place_name": "Lengwe National Park", "latitude": "-16.1667", "longitude": "34.75"}, {"country_code": "MW", "postal_code": "315115", "place_name": "Majete Game Reserve", "latitude": "-16.1667", "longitude": "34.75"}, {"country_code": "MW", "postal_code": "306100", "place_name": "Chiradzulu BOMA", "latitude": "-15.6746", "longitude": "35.1407"}, {"country_code": "MW", "postal_code": "306101", "place_name": "Chitera", "latitude": "-15.7527", "longitude": "35.2158"}, {"country_code": "MW", "postal_code": "306102", "place_name": "Mpama", "latitude": "-14.6077", "longitude": "35.469"}, {"country_code": "MW", "postal_code": "306103", "place_name": "Nchema", "latitude": "-15.7527", "longitude": "35.2158"}, {"country_code": "MW", "postal_code": "306104", "place_name": "Sandaraki", "latitude": "-15.7527", "longitude": "35.2158"}, {"country_code": "MW", "postal_code": "306105", "place_name": "Kadewere", "latitude": "-15.5", "longitude": "35.3833"}, {"country_code": "MW", "postal_code": "306106", "place_name": "Onga", "latitude": "-15.35", "longitude": "35.3833"}, {"country_code": "MW", "postal_code": "306107", "place_name": "Likoswe", "latitude": "-15.7527", "longitude": "35.2158"}, {"country_code": "MW", "postal_code": "306108", "place_name": "Mpunga", "latitude": "-14.8", "longitude": "35.5833"}, {"country_code": "MW", "postal_code": "306109", "place_name": "Nkalo", "latitude": "-15.7527", "longitude": "35.2158"}, {"country_code": "MW", "postal_code": "309300", "place_name": "Luchenza Township", "latitude": "-16.1058", "longitude": "35.1506"}, {"country_code": "MW", "postal_code": "310100", "place_name": "Thyolo BOMA", "latitude": "-16.1058", "longitude": "35.1506"}, {"country_code": "MW", "postal_code": "310101", "place_name": "Bvumbwe", "latitude": "-15.9167", "longitude": "35.0667"}, {"country_code": "MW", "postal_code": "310102", "place_name": "Thomas", "latitude": "-16.0833", "longitude": "34.55"}, {"country_code": "MW", "postal_code": "310103", "place_name": "Mphuka", "latitude": "-16.2333", "longitude": "34.6833"}, {"country_code": "MW", "postal_code": "310104", "place_name": "Boyidi", "latitude": "-16.1058", "longitude": "35.1506"}, {"country_code": "MW", "postal_code": "310105", "place_name": "Chimaliro", "latitude": "-16.1058", "longitude": "35.1506"}, {"country_code": "MW", "postal_code": "310106", "place_name": "Ngolongoliwa", "latitude": "-16.1058", "longitude": "35.1506"}, {"country_code": "MW", "postal_code": "310107", "place_name": "Nanseta", "latitude": "-16.1058", "longitude": "35.1506"}, {"country_code": "MW", "postal_code": "310108", "place_name": "Ndalama", "latitude": "-16.1058", "longitude": "35.1506"}, {"country_code": "MW", "postal_code": "310109", "place_name": "Nchilamwela", "latitude": "-16.1058", "longitude": "35.1506"}, {"country_code": "MW", "postal_code": "310110", "place_name": "Kapichi", "latitude": "-16.1058", "longitude": "35.1506"}, {"country_code": "MW", "postal_code": "310111", "place_name": "Kwethemule", "latitude": "-16.1058", "longitude": "35.1506"}, {"country_code": "MW", "postal_code": "310112", "place_name": "Changata", "latitude": "-16.1058", "longitude": "35.1506"}, {"country_code": "MW", "postal_code": "310113", "place_name": "Mbawela", "latitude": "-16.1058", "longitude": "35.1506"}, {"country_code": "MW", "postal_code": "310114", "place_name": "Nsabwe", "latitude": "-16.3333", "longitude": "35.2167"}, {"country_code": "MW", "postal_code": "310115", "place_name": "Thukuta", "latitude": "-16.1058", "longitude": "35.1506"}, {"country_code": "MW", "postal_code": "301100", "place_name": "Lulanga", "latitude": "-14.7833", "longitude": "35.6833"}, {"country_code": "MW", "postal_code": "301101", "place_name": "Makanjila", "latitude": "-13.7088", "longitude": "35.0448"}, {"country_code": "MW", "postal_code": "301102", "place_name": "Namabvi", "latitude": "-14.393", "longitude": "35.3466"}, {"country_code": "MW", "postal_code": "301103", "place_name": "Katuli", "latitude": "-14.393", "longitude": "35.3466"}, {"country_code": "MW", "postal_code": "301104", "place_name": "Chowe", "latitude": "-14.393", "longitude": "35.3466"}, {"country_code": "MW", "postal_code": "301105", "place_name": "Jalasi", "latitude": "-14.3635", "longitude": "35.4454"}, {"country_code": "MW", "postal_code": "301106", "place_name": "Mbwana Nyambi", "latitude": "-14.393", "longitude": "35.3466"}, {"country_code": "MW", "postal_code": "301107", "place_name": "Chiunda", "latitude": "-14.7595", "longitude": "35.3817"}, {"country_code": "MW", "postal_code": "301108", "place_name": "Nankumba", "latitude": "-14.3645", "longitude": "34.8227"}, {"country_code": "MW", "postal_code": "301109", "place_name": "Monkey Bay Township", "latitude": "-14.393", "longitude": "35.3466"}, {"country_code": "MW", "postal_code": "301110", "place_name": "Mponda", "latitude": "-14.4781", "longitude": "35.2645"}, {"country_code": "MW", "postal_code": "301111", "place_name": "Ntonda", "latitude": "-14.5239", "longitude": "35.3744"}, {"country_code": "MW", "postal_code": "301112", "place_name": "Chilipa", "latitude": "-14.698", "longitude": "34.9779"}, {"country_code": "MW", "postal_code": "301113", "place_name": "Chimwala", "latitude": "-14.6386", "longitude": "35.1833"}, {"country_code": "MW", "postal_code": "301114", "place_name": "Lake Malawi National Park", "latitude": "-14.393", "longitude": "35.3466"}, {"country_code": "MW", "postal_code": "301400", "place_name": "Mangochi Central Township", "latitude": "-14.393", "longitude": "35.3466"}, {"country_code": "MW", "postal_code": "301401", "place_name": "Koche", "latitude": "-14.393", "longitude": "35.3466"}, {"country_code": "MW", "postal_code": "301402", "place_name": "Thundu", "latitude": "-14.393", "longitude": "35.3466"}, {"country_code": "MW", "postal_code": "301403", "place_name": "Chigawe", "latitude": "-14.393", "longitude": "35.3466"}, {"country_code": "MW", "postal_code": "301404", "place_name": "Mikomwa", "latitude": "-14.393", "longitude": "35.3466"}, {"country_code": "MW", "postal_code": "301405", "place_name": "Nkanamwano", "latitude": "-14.393", "longitude": "35.3466"}, {"country_code": "MW", "postal_code": "301406", "place_name": "Kalungu", "latitude": "-14.393", "longitude": "35.3466"}, {"country_code": "MW", "postal_code": "301407", "place_name": "Msukamwere", "latitude": "-14.393", "longitude": "35.3466"}, {"country_code": "MW", "postal_code": "301408", "place_name": "Mtumbwasi", "latitude": "-14.393", "longitude": "35.3466"}, {"country_code": "MW", "postal_code": "301409", "place_name": "Mwasa", "latitude": "-14.393", "longitude": "35.3466"}, {"country_code": "MW", "postal_code": "301410", "place_name": "Ndege", "latitude": "-14.393", "longitude": "35.3466"}, {"country_code": "MW", "postal_code": "301411", "place_name": "Chikole", "latitude": "-14.393", "longitude": "35.3466"}, {"country_code": "MW", "postal_code": "301412", "place_name": "Msikisi", "latitude": "-14.393", "longitude": "35.3466"}, {"country_code": "MW", "postal_code": "316100", "place_name": "Nsanje BOMA", "latitude": "-16.75", "longitude": "35.1667"}, {"country_code": "MW", "postal_code": "316101", "place_name": "Mlolo", "latitude": "-16.75", "longitude": "35.1667"}, {"country_code": "MW", "postal_code": "316102", "place_name": "Mbenje", "latitude": "-16.9804", "longitude": "35.2135"}, {"country_code": "MW", "postal_code": "316103", "place_name": "Bangula Township", "latitude": "-16.75", "longitude": "35.1667"}, {"country_code": "MW", "postal_code": "316104", "place_name": "Tengani", "latitude": "-16.7333", "longitude": "35.2667"}, {"country_code": "MW", "postal_code": "316105", "place_name": "Malemia", "latitude": "-16.45", "longitude": "34.8833"}, {"country_code": "MW", "postal_code": "316106", "place_name": "Ngabu", "latitude": "-16.9654", "longitude": "35.2166"}, {"country_code": "MW", "postal_code": "316107", "place_name": "Makoko", "latitude": "-17.0022", "longitude": "35.1912"}, {"country_code": "MW", "postal_code": "316108", "place_name": "Chimombo", "latitude": "-17.0167", "longitude": "35.2333"}, {"country_code": "MW", "postal_code": "316109", "place_name": "Nyachikadza", "latitude": "-17.1167", "longitude": "35.3"}, {"country_code": "MW", "postal_code": "316110", "place_name": "Ndamera", "latitude": "-17.0958", "longitude": "35.219"}, {"country_code": "MW", "postal_code": "316111", "place_name": "Mwabvi Game Reserve", "latitude": "-16.75", "longitude": "35.1667"}, {"country_code": "MW", "postal_code": "304101", "place_name": "Nkapita", "latitude": "-15.4301", "longitude": "35.4183"}, {"country_code": "MW", "postal_code": "304102", "place_name": "Malemia", "latitude": "-15.2667", "longitude": "35.3667"}, {"country_code": "MW", "postal_code": "304103", "place_name": "Kuntumanji", "latitude": "-15.4301", "longitude": "35.4183"}, {"country_code": "MW", "postal_code": "304104", "place_name": "Mkumbira", "latitude": "-15.4301", "longitude": "35.4183"}, {"country_code": "MW", "postal_code": "304105", "place_name": "Nkagula", "latitude": "-15.4301", "longitude": "35.4183"}, {"country_code": "MW", "postal_code": "304106", "place_name": "Mlumbe", "latitude": "-15.4301", "longitude": "35.4183"}, {"country_code": "MW", "postal_code": "304107", "place_name": "Ntholowa", "latitude": "-15.4301", "longitude": "35.4183"}, {"country_code": "MW", "postal_code": "304108", "place_name": "Chikowi", "latitude": "-15.4167", "longitude": "35.3"}, {"country_code": "MW", "postal_code": "304109", "place_name": "Mwambo", "latitude": "-15.4356", "longitude": "35.5144"}, {"country_code": "MW", "postal_code": "304110", "place_name": "Ngwelero", "latitude": "-15.4301", "longitude": "35.4183"}, {"country_code": "MW", "postal_code": "304111", "place_name": "Mbiza", "latitude": "-15.4301", "longitude": "35.4183"}, {"country_code": "MW", "postal_code": "304112", "place_name": "Zomba Mountain Reserve", "latitude": "-15.4301", "longitude": "35.4183"}, {"country_code": "MW", "postal_code": "305200", "place_name": "Zomba CBD", "latitude": "-15.4301", "longitude": "35.4183"}, {"country_code": "MW", "postal_code": "305201", "place_name": "Ndola", "latitude": "-15.4301", "longitude": "35.4183"}, {"country_code": "MW", "postal_code": "305202", "place_name": "Zakazaka", "latitude": "-15.4301", "longitude": "35.4183"}, {"country_code": "MW", "postal_code": "305203", "place_name": "St Mary", "latitude": "-15.4301", "longitude": "35.4183"}, {"country_code": "MW", "postal_code": "305204", "place_name": "Nandolo", "latitude": "-15.4301", "longitude": "35.4183"}, {"country_code": "MW", "postal_code": "305205", "place_name": "Chirunga", "latitude": "-15.4301", "longitude": "35.4183"}, {"country_code": "MW", "postal_code": "305206", "place_name": "Masongola", "latitude": "-15.4301", "longitude": "35.4183"}, {"country_code": "MW", "postal_code": "305207", "place_name": "Mangasanja", "latitude": "-15.4301", "longitude": "35.4183"}, {"country_code": "MW", "postal_code": "305208", "place_name": "Mulunguzi", "latitude": "-15.4301", "longitude": "35.4183"}, {"country_code": "MW", "postal_code": "305209", "place_name": "Old Naisi", "latitude": "-15.4301", "longitude": "35.4183"}, {"country_code": "MW", "postal_code": "305210", "place_name": "Malonje", "latitude": "-15.3667", "longitude": "35.35"}, {"country_code": "MW", "postal_code": "305211", "place_name": "Chinamwali", "latitude": "-15.4301", "longitude": "35.4183"}, {"country_code": "MW", "postal_code": "305212", "place_name": "Matawale", "latitude": "-15.4301", "longitude": "35.4183"}, {"country_code": "MW", "postal_code": "305213", "place_name": "Thom Allan", "latitude": "-15.4301", "longitude": "35.4183"}, {"country_code": "MW", "postal_code": "305214", "place_name": "Mpunga", "latitude": "-14.8", "longitude": "35.5833"}, {"country_code": "MW", "postal_code": "305215", "place_name": "Sadzi", "latitude": "-15.4301", "longitude": "35.4183"}, {"country_code": "MW", "postal_code": "305216", "place_name": "Mponda Bwino", "latitude": "-15.4301", "longitude": "35.4183"}, {"country_code": "MW", "postal_code": "305217", "place_name": "Three Miles", "latitude": "-15.4301", "longitude": "35.4183"}, {"country_code": "MW", "postal_code": "305218", "place_name": "Mtiya", "latitude": "-15.4301", "longitude": "35.4183"}, {"country_code": "MW", "postal_code": "305219", "place_name": "Cobbe", "latitude": "-15.4301", "longitude": "35.4183"}, {"country_code": "MW", "postal_code": "311101", "place_name": "Chigaru", "latitude": "-15.3626", "longitude": "34.9397"}, {"country_code": "MW", "postal_code": "311102", "place_name": "Lundu", "latitude": "-15.3833", "longitude": "34.9833"}, {"country_code": "MW", "postal_code": "311103", "place_name": "Kunthembwe", "latitude": "-15.6473", "longitude": "34.9396"}, {"country_code": "MW", "postal_code": "311104", "place_name": "Kuntaja", "latitude": "-15.513", "longitude": "34.4933"}, {"country_code": "MW", "postal_code": "311105", "place_name": "Chileka", "latitude": "-15.6679", "longitude": "34.9376"}, {"country_code": "MW", "postal_code": "311106", "place_name": "Kapeni", "latitude": "-15.785", "longitude": "35.0085"}, {"country_code": "MW", "postal_code": "311107", "place_name": "Lunzu Township", "latitude": "-15.6473", "longitude": "34.9396"}, {"country_code": "MW", "postal_code": "311108", "place_name": "Makata", "latitude": "-15.7872", "longitude": "35.0305"}, {"country_code": "MW", "postal_code": "311109", "place_name": "Machinjiri", "latitude": "-15.2325", "longitude": "35.4146"}, {"country_code": "MW", "postal_code": "311110", "place_name": "Somba", "latitude": "-15.8667", "longitude": "34.9667"}, {"country_code": "MW", "postal_code": "311111", "place_name": "Mpemba", "latitude": "-15.8833", "longitude": "34.95"}, {"country_code": "MW", "postal_code": "312200", "place_name": "Blantyre CBD", "latitude": "-15.6473", "longitude": "34.9396"}, {"country_code": "MW", "postal_code": "312201", "place_name": "Mapanga", "latitude": "-15.6473", "longitude": "34.9396"}, {"country_code": "MW", "postal_code": "312202", "place_name": "Kachere", "latitude": "-15.8074", "longitude": "35.0233"}, {"country_code": "MW", "postal_code": "312203", "place_name": "Maone", "latitude": "-15.6473", "longitude": "34.9396"}, {"country_code": "MW", "postal_code": "312204", "place_name": "Nkolokoti", "latitude": "-15.6473", "longitude": "34.9396"}, {"country_code": "MW", "postal_code": "312205", "place_name": "Ndirande", "latitude": "-15.7697", "longitude": "35.0416"}, {"country_code": "MW", "postal_code": "312206", "place_name": "South Lunzu", "latitude": "-15.6473", "longitude": "34.9396"}, {"country_code": "MW", "postal_code": "312207", "place_name": "Kameza", "latitude": "-15.6473", "longitude": "34.9396"}, {"country_code": "MW", "postal_code": "312208", "place_name": "Chirimba", "latitude": "-15.6473", "longitude": "34.9396"}, {"country_code": "MW", "postal_code": "312209", "place_name": "Chemusa", "latitude": "-15.6473", "longitude": "34.9396"}, {"country_code": "MW", "postal_code": "312210", "place_name": "Mbayani", "latitude": "-15.7717", "longitude": "35.003"}, {"country_code": "MW", "postal_code": "312211", "place_name": "Nyambadwe", "latitude": "-15.7737", "longitude": "35.022"}, {"country_code": "MW", "postal_code": "312212", "place_name": "Chilomoni", "latitude": "-15.7793", "longitude": "34.9824"}, {"country_code": "MW", "postal_code": "312213", "place_name": "Namiwawa", "latitude": "-15.6473", "longitude": "34.9396"}, {"country_code": "MW", "postal_code": "312214", "place_name": "Sunnyside", "latitude": "-15.7973", "longitude": "34.9955"}, {"country_code": "MW", "postal_code": "312215", "place_name": "Nancholi", "latitude": "-15.6473", "longitude": "34.9396"}, {"country_code": "MW", "postal_code": "312216", "place_name": "Zingwangwa", "latitude": "-15.8186", "longitude": "35.0154"}, {"country_code": "MW", "postal_code": "312217", "place_name": "Chilobwe", "latitude": "-15.8301", "longitude": "35.0069"}, {"country_code": "MW", "postal_code": "312218", "place_name": "Chimwankhunda", "latitude": "-15.6473", "longitude": "34.9396"}, {"country_code": "MW", "postal_code": "312219", "place_name": "Manja", "latitude": "-15.6473", "longitude": "34.9396"}, {"country_code": "MW", "postal_code": "312220", "place_name": "Nkolokosa", "latitude": "-15.8143", "longitude": "35.0031"}, {"country_code": "MW", "postal_code": "312221", "place_name": "Chitawira", "latitude": "-15.6473", "longitude": "34.9396"}, {"country_code": "MW", "postal_code": "312222", "place_name": "Naperi", "latitude": "-15.6473", "longitude": "34.9396"}, {"country_code": "MW", "postal_code": "312223", "place_name": "Mount Pleasant", "latitude": "-15.7984", "longitude": "35.0149"}, {"country_code": "MW", "postal_code": "312224", "place_name": "Mandala", "latitude": "-15.7937", "longitude": "35.0059"}, {"country_code": "MW", "postal_code": "312225", "place_name": "Chichiri", "latitude": "-15.8025", "longitude": "35.0475"}, {"country_code": "MW", "postal_code": "312226", "place_name": "Chinyonga", "latitude": "-15.6473", "longitude": "34.9396"}, {"country_code": "MW", "postal_code": "312227", "place_name": "Kanjedza", "latitude": "-15.8175", "longitude": "35.0474"}, {"country_code": "MW", "postal_code": "312228", "place_name": "Mudi", "latitude": "-15.8012", "longitude": "35.0727"}, {"country_code": "MW", "postal_code": "312229", "place_name": "Limbe", "latitude": "-15.809", "longitude": "35.0602"}, {"country_code": "MW", "postal_code": "312230", "place_name": "Mpingwe", "latitude": "-15.8106", "longitude": "35.0713"}, {"country_code": "MW", "postal_code": "312231", "place_name": "Bangwe", "latitude": "-15.8226", "longitude": "35.1006"}, {"country_code": "MW", "postal_code": "312232", "place_name": "Namiyango", "latitude": "-15.6473", "longitude": "34.9396"}, {"country_code": "MW", "postal_code": "312233", "place_name": "BCA", "latitude": "-15.6473", "longitude": "34.9396"}, {"country_code": "MW", "postal_code": "312234", "place_name": "Misesa", "latitude": "-15.6473", "longitude": "34.9396"}, {"country_code": "MW", "postal_code": "312235", "place_name": "Chiwembe", "latitude": "-15.8344", "longitude": "35.0509"}, {"country_code": "MW", "postal_code": "312236", "place_name": "Angelogothere", "latitude": "-15.6473", "longitude": "34.9396"}, {"country_code": "MW", "postal_code": "312237", "place_name": "Che Somba", "latitude": "-15.6473", "longitude": "34.9396"}, {"country_code": "MW", "postal_code": "312238", "place_name": "Chigumula", "latitude": "-15.916", "longitude": "35.0554"}, {"country_code": "MW", "postal_code": "314100", "place_name": "Mwanza BOMA", "latitude": "-15.6334", "longitude": "34.5168"}, {"country_code": "MW", "postal_code": "314101", "place_name": "Kanduku", "latitude": "-15.5617", "longitude": "34.5026"}, {"country_code": "MW", "postal_code": "314102", "place_name": "Nthache", "latitude": "-15.6334", "longitude": "34.5168"}, {"country_code": "MW", "postal_code": "314103", "place_name": "Govati", "latitude": "-15.6334", "longitude": "34.5168"}, {"country_code": "MW", "postal_code": "302100", "place_name": "Balaka", "latitude": "-14.9793", "longitude": "34.9557"}, {"country_code": "MW", "postal_code": "302101", "place_name": "Kachenga", "latitude": "-15.0484", "longitude": "35.0591"}, {"country_code": "MW", "postal_code": "302102", "place_name": "Kalembo", "latitude": "-14.8446", "longitude": "35.1692"}, {"country_code": "MW", "postal_code": "302103", "place_name": "Amidu", "latitude": "-15.0484", "longitude": "35.0591"}, {"country_code": "MW", "postal_code": "302104", "place_name": "Toleza", "latitude": "-14.9319", "longitude": "35.0084"}, {"country_code": "MW", "postal_code": "302105", "place_name": "Matola", "latitude": "-14.9473", "longitude": "34.965"}, {"country_code": "MW", "postal_code": "302106", "place_name": "Sawali", "latitude": "-15.0484", "longitude": "35.0591"}, {"country_code": "MW", "postal_code": "302107", "place_name": "Msamala", "latitude": "-15.0484", "longitude": "35.0591"}, {"country_code": "MW", "postal_code": "302108", "place_name": "Chanthunya", "latitude": "-15.0484", "longitude": "35.0591"}, {"country_code": "MW", "postal_code": "302109", "place_name": "Phalula", "latitude": "-15.2244", "longitude": "34.8903"}, {"country_code": "MW", "postal_code": "302110", "place_name": "Nkaya", "latitude": "-15.1282", "longitude": "35.0298"}, {"country_code": "MW", "postal_code": "303100", "place_name": "Machinja BOMA", "latitude": "-14.9458", "longitude": "35.5737"}, {"country_code": "MW", "postal_code": "303101", "place_name": "Liwonde Township", "latitude": "-14.9458", "longitude": "35.5737"}, {"country_code": "MW", "postal_code": "303102", "place_name": "Nyambi", "latitude": "-14.6597", "longitude": "35.6276"}, {"country_code": "MW", "postal_code": "303103", "place_name": "Chesale", "latitude": "-14.9458", "longitude": "35.5737"}, {"country_code": "MW", "postal_code": "303104", "place_name": "Ngokwe", "latitude": "-14.75", "longitude": "35.6167"}, {"country_code": "MW", "postal_code": "303105", "place_name": "Chikweo", "latitude": "-14.7648", "longitude": "35.6691"}, {"country_code": "MW", "postal_code": "303106", "place_name": "Nchinguza", "latitude": "-14.9458", "longitude": "35.5737"}, {"country_code": "MW", "postal_code": "303107", "place_name": "Kapoloma", "latitude": "-14.7333", "longitude": "35.5667"}, {"country_code": "MW", "postal_code": "303108", "place_name": "Nkoola", "latitude": "-14.9458", "longitude": "35.5737"}, {"country_code": "MW", "postal_code": "303109", "place_name": "Chiwalo", "latitude": "-14.7333", "longitude": "35.5333"}, {"country_code": "MW", "postal_code": "303110", "place_name": "Liwonde", "latitude": "-15.0667", "longitude": "35.2254"}, {"country_code": "MW", "postal_code": "303111", "place_name": "Kawinga", "latitude": "-14.85", "longitude": "35.55"}, {"country_code": "MW", "postal_code": "303112", "place_name": "Mlomba", "latitude": "-15.0379", "longitude": "35.4639"}, {"country_code": "MW", "postal_code": "303113", "place_name": "Nsanama", "latitude": "-14.9667", "longitude": "35.5167"}, {"country_code": "MW", "postal_code": "303114", "place_name": "Mposa", "latitude": "-15.1667", "longitude": "35.5167"}, {"country_code": "MW", "postal_code": "303115", "place_name": "Chamba", "latitude": "-14.7775", "longitude": "35.3963"}, {"country_code": "MW", "postal_code": "303116", "place_name": "Sitola", "latitude": "-14.9458", "longitude": "35.5737"}, {"country_code": "MW", "postal_code": "303117", "place_name": "Mkula", "latitude": "-15.1723", "longitude": "35.3115"}, {"country_code": "MW", "postal_code": "303118", "place_name": "Liwonde National Park", "latitude": "-14.9458", "longitude": "35.5737"}, {"country_code": "MW", "postal_code": "308100", "place_name": "Mulanje BOMA", "latitude": "-16.0316", "longitude": "35.5"}, {"country_code": "MW", "postal_code": "308101", "place_name": "Juma", "latitude": "-14.6167", "longitude": "35.6"}, {"country_code": "MW", "postal_code": "308102", "place_name": "Nkanda", "latitude": "-15.9344", "longitude": "35.4999"}, {"country_code": "MW", "postal_code": "308103", "place_name": "Nthiramanja", "latitude": "-15.9344", "longitude": "35.4999"}, {"country_code": "MW", "postal_code": "308104", "place_name": "Chikumbu", "latitude": "-15.4667", "longitude": "35.35"}, {"country_code": "MW", "postal_code": "308105", "place_name": "Tombondiya", "latitude": "-15.9344", "longitude": "35.4999"}, {"country_code": "MW", "postal_code": "308106", "place_name": "Mabuka", "latitude": "-15.9344", "longitude": "35.4999"}, {"country_code": "MW", "postal_code": "308107", "place_name": "Sunganinzeru", "latitude": "-15.9344", "longitude": "35.4999"}, {"country_code": "MW", "postal_code": "308108", "place_name": "Laston Njema", "latitude": "-15.9344", "longitude": "35.4999"}, {"country_code": "MW", "postal_code": "308109", "place_name": "Mulanje Mountain Reserve", "latitude": "-15.9344", "longitude": "35.4999"}, {"country_code": "MW", "postal_code": "307100", "place_name": "Phalombe BOMA", "latitude": "-15.6667", "longitude": "35.6667"}, {"country_code": "MW", "postal_code": "307101", "place_name": "Migowi Township", "latitude": "-15.6667", "longitude": "35.6667"}, {"country_code": "MW", "postal_code": "307102", "place_name": "Chiwalo", "latitude": "-14.7333", "longitude": "35.5333"}, {"country_code": "MW", "postal_code": "307103", "place_name": "Jenala", "latitude": "-15.6667", "longitude": "35.6667"}, {"country_code": "MW", "postal_code": "307104", "place_name": "Mkhumba", "latitude": "-15.6667", "longitude": "35.6667"}, {"country_code": "MW", "postal_code": "307105", "place_name": "Kaduya", "latitude": "-15.6667", "longitude": "35.6667"}, {"country_code": "MW", "postal_code": "307106", "place_name": "Nazombe", "latitude": "-15.6667", "longitude": "35.6667"}, {"country_code": "MW", "postal_code": "307107", "place_name": "Nkhulambe", "latitude": "-15.6667", "longitude": "35.6667"}, {"country_code": "MW", "postal_code": "313100", "place_name": "Neno BOMA", "latitude": "-15.4505", "longitude": "34.7003"}, {"country_code": "MW", "postal_code": "313101", "place_name": "Dambe", "latitude": "-15.3819", "longitude": "34.5709"}, {"country_code": "MW", "postal_code": "313102", "place_name": "Chekucheku", "latitude": "-15.4505", "longitude": "34.7003"}, {"country_code": "MW", "postal_code": "313103", "place_name": "Symon Likongwe", "latitude": "-15.4505", "longitude": "34.7003"}, {"country_code": "MW", "postal_code": "313104", "place_name": "Zalewa Township", "latitude": "-15.4505", "longitude": "34.7003"}, {"country_code": "MW", "postal_code": "313105", "place_name": "Mlauli", "latitude": "-15.4761", "longitude": "34.6363"}]