[{"country_code": "TH", "postal_code": "10100", "place_name": "Samphanthawong", "latitude": "13.7333", "longitude": "100.5"}, {"country_code": "TH", "postal_code": "10100", "place_name": "Pom Prap Sattru Phai", "latitude": "13.7333", "longitude": "100.5"}, {"country_code": "TH", "postal_code": "10110", "place_name": "Wattana", "latitude": "13.7083", "longitude": "100.4562"}, {"country_code": "TH", "postal_code": "10120", "place_name": "Bang Kholame", "latitude": "13.7083", "longitude": "100.4562"}, {"country_code": "TH", "postal_code": "10120", "place_name": "Yannawa", "latitude": "13.7083", "longitude": "100.4562"}, {"country_code": "TH", "postal_code": "10140", "place_name": "Thung Khru", "latitude": "13.6833", "longitude": "100.5"}, {"country_code": "TH", "postal_code": "10140", "place_name": "Rat Burana", "latitude": "13.6833", "longitude": "100.5"}, {"country_code": "TH", "postal_code": "10150", "place_name": "Bang Bon", "latitude": "13.7", "longitude": "100.4667"}, {"country_code": "TH", "postal_code": "10150", "place_name": "Bang Khun Thian", "latitude": "13.7", "longitude": "100.4667"}, {"country_code": "TH", "postal_code": "10160", "place_name": "Nong Khaem", "latitude": "13.6833", "longitude": "100.35"}, {"country_code": "TH", "postal_code": "10160", "place_name": "Phasi Charoen", "latitude": "13.7167", "longitude": "100.4333"}, {"country_code": "TH", "postal_code": "10160", "place_name": "Bang Khae", "latitude": "13.7167", "longitude": "100.4167"}, {"country_code": "TH", "postal_code": "10170", "place_name": "Taling Chan", "latitude": "13.7667", "longitude": "100.45"}, {"country_code": "TH", "postal_code": "10170", "place_name": "Thawi Wattana", "latitude": "13.7667", "longitude": "100.45"}, {"country_code": "TH", "postal_code": "10200", "place_name": "Phra Nakhon", "latitude": "13.75", "longitude": "100.5167"}, {"country_code": "TH", "postal_code": "10210", "place_name": "Lak Si", "latitude": "14.1833", "longitude": "100.2833"}, {"country_code": "TH", "postal_code": "10220", "place_name": "Bang Khen", "latitude": "13.8667", "longitude": "100.6"}, {"country_code": "TH", "postal_code": "10220", "place_name": "Sai Mai", "latitude": "13.8667", "longitude": "100.6"}, {"country_code": "TH", "postal_code": "10230", "place_name": "Lat Phrao", "latitude": "14.3333", "longitude": "99.9167"}, {"country_code": "TH", "postal_code": "10230", "place_name": "Khanna Yao", "latitude": "14.3333", "longitude": "99.9167"}, {"country_code": "TH", "postal_code": "10240", "place_name": "Bung Kum", "latitude": "13.7667", "longitude": "100.65"}, {"country_code": "TH", "postal_code": "10240", "place_name": "Bang Kapi", "latitude": "13.7667", "longitude": "100.65"}, {"country_code": "TH", "postal_code": "10240", "place_name": "Saphan Sung B39", "latitude": "13.7667", "longitude": "100.65"}, {"country_code": "TH", "postal_code": "10250", "place_name": "Pra Vet", "latitude": "13.8583", "longitude": "100.4688"}, {"country_code": "TH", "postal_code": "10250", "place_name": "Suang Luang", "latitude": "13.8583", "longitude": "100.4688"}, {"country_code": "TH", "postal_code": "10260", "place_name": "Bang Na", "latitude": "13.6667", "longitude": "100.5833"}, {"country_code": "TH", "postal_code": "10260", "place_name": "Phra Khanong", "latitude": "13.7", "longitude": "100.6"}, {"country_code": "TH", "postal_code": "10300", "place_name": "Dusit", "latitude": "13.7833", "longitude": "100.5167"}, {"country_code": "TH", "postal_code": "10310", "place_name": "Wangthong Lang", "latitude": "13.7833", "longitude": "100.5167"}, {"country_code": "TH", "postal_code": "10320", "place_name": "Huai Khwang", "latitude": "13.7833", "longitude": "100.5167"}, {"country_code": "TH", "postal_code": "10330", "place_name": "Pahtum Wan", "latitude": "13.7833", "longitude": "100.5167"}, {"country_code": "TH", "postal_code": "10400", "place_name": "Ding Daeng", "latitude": "13.7625", "longitude": "100.531"}, {"country_code": "TH", "postal_code": "10400", "place_name": "Phaya Thai", "latitude": "13.7625", "longitude": "100.531"}, {"country_code": "TH", "postal_code": "10500", "place_name": "Bang Rak", "latitude": "13.7333", "longitude": "100.5333"}, {"country_code": "TH", "postal_code": "10510", "place_name": "Khlong Samwa", "latitude": "13.8167", "longitude": "100.75"}, {"country_code": "TH", "postal_code": "10510", "place_name": "Min Buri", "latitude": "13.8167", "longitude": "100.75"}, {"country_code": "TH", "postal_code": "10520", "place_name": "Lat Krabang", "latitude": "13.7167", "longitude": "100.7833"}, {"country_code": "TH", "postal_code": "10530", "place_name": "Nong Chok", "latitude": "13.85", "longitude": "100.8667"}, {"country_code": "TH", "postal_code": "10600", "place_name": "Khlong San", "latitude": "13.7333", "longitude": "100.5"}, {"country_code": "TH", "postal_code": "10600", "place_name": "Thon Buri", "latitude": "13.7167", "longitude": "100.4833"}, {"country_code": "TH", "postal_code": "10600", "place_name": "Bangkok Yai", "latitude": "13.7333", "longitude": "100.4833"}, {"country_code": "TH", "postal_code": "10700", "place_name": "Bangkok Noi", "latitude": "13.75", "longitude": "100.4833"}, {"country_code": "TH", "postal_code": "10700", "place_name": "Bang Plat", "latitude": "13.75", "longitude": "100.4833"}, {"country_code": "TH", "postal_code": "10800", "place_name": "Bang Su", "latitude": "13.8", "longitude": "100.5333"}, {"country_code": "TH", "postal_code": "10130", "place_name": "Phra Pradaeng", "latitude": "13.6667", "longitude": "100.5333"}, {"country_code": "TH", "postal_code": "10270", "place_name": "Muang Samut Prakan", "latitude": "13.6", "longitude": "100.6"}, {"country_code": "TH", "postal_code": "10290", "place_name": "Phra Samut Chedi", "latitude": "13.8583", "longitude": "100.4688"}, {"country_code": "TH", "postal_code": "10540", "place_name": "Bang Phli", "latitude": "13.6", "longitude": "100.7167"}, {"country_code": "TH", "postal_code": "10540", "place_name": "Bang Saotong", "latitude": "13.6", "longitude": "100.7167"}, {"country_code": "TH", "postal_code": "10560", "place_name": "Bang Bo", "latitude": "13.5833", "longitude": "100.8167"}, {"country_code": "TH", "postal_code": "11000", "place_name": "Muang Nonthaburi", "latitude": "13.89", "longitude": "100.4333"}, {"country_code": "TH", "postal_code": "11110", "place_name": "Bang Bua Thong", "latitude": "13.9167", "longitude": "100.4333"}, {"country_code": "TH", "postal_code": "11120", "place_name": "Pak Kret", "latitude": "13.9167", "longitude": "100.5"}, {"country_code": "TH", "postal_code": "11130", "place_name": "Bang Kruai", "latitude": "13.8", "longitude": "100.4833"}, {"country_code": "TH", "postal_code": "11140", "place_name": "Bang Yai", "latitude": "13.85", "longitude": "100.4333"}, {"country_code": "TH", "postal_code": "11150", "place_name": "Sai Noi", "latitude": "13.9667", "longitude": "100.3167"}, {"country_code": "TH", "postal_code": "12000", "place_name": "Muang Pathum Thani", "latitude": "14.0433", "longitude": "100.64"}, {"country_code": "TH", "postal_code": "12110", "place_name": "Thanyaburi", "latitude": "14.0433", "longitude": "100.64"}, {"country_code": "TH", "postal_code": "12120", "place_name": "Khlong Luang", "latitude": "14.0667", "longitude": "100.65"}, {"country_code": "TH", "postal_code": "12140", "place_name": "Lat Lum Kaeo", "latitude": "14.0333", "longitude": "100.4167"}, {"country_code": "TH", "postal_code": "12150", "place_name": "Lam Luk Ka", "latitude": "13.9333", "longitude": "100.75"}, {"country_code": "TH", "postal_code": "12160", "place_name": "Sam Khok", "latitude": "14.05", "longitude": "100.55"}, {"country_code": "TH", "postal_code": "12170", "place_name": "Nong Sua", "latitude": "14.1333", "longitude": "100.8333"}, {"country_code": "TH", "postal_code": "13000", "place_name": "Pharnakhon Si Ayutthaya", "latitude": "14.3738", "longitude": "100.5631"}, {"country_code": "TH", "postal_code": "13110", "place_name": "Sena", "latitude": "14.3167", "longitude": "100.4"}, {"country_code": "TH", "postal_code": "13120", "place_name": "Pak Hai", "latitude": "14.3619", "longitude": "100.6"}, {"country_code": "TH", "postal_code": "13130", "place_name": "Tha Rua", "latitude": "14.5667", "longitude": "100.7333"}, {"country_code": "TH", "postal_code": "13140", "place_name": "Phachi", "latitude": "14.45", "longitude": "100.7167"}, {"country_code": "TH", "postal_code": "13150", "place_name": "Maha Rat", "latitude": "14.5333", "longitude": "100.5333"}, {"country_code": "TH", "postal_code": "13160", "place_name": "Bang Pa-In", "latitude": "14.2333", "longitude": "100.5833"}, {"country_code": "TH", "postal_code": "13170", "place_name": "Wang Noi", "latitude": "14.2167", "longitude": "100.7333"}, {"country_code": "TH", "postal_code": "13190", "place_name": "Bang Sai", "latitude": "14.2167", "longitude": "100.5"}, {"country_code": "TH", "postal_code": "13210", "place_name": "Uthai", "latitude": "14.3667", "longitude": "100.6667"}, {"country_code": "TH", "postal_code": "13220", "place_name": "Bang Pahan", "latitude": "14.45", "longitude": "100.55"}, {"country_code": "TH", "postal_code": "13230", "place_name": "Lat Bua Luang", "latitude": "14.1667", "longitude": "100.3167"}, {"country_code": "TH", "postal_code": "13240", "place_name": "Ban Phraek", "latitude": "14.6333", "longitude": "100.5667"}, {"country_code": "TH", "postal_code": "13250", "place_name": "Bang Ban", "latitude": "14.4167", "longitude": "100.4667"}, {"country_code": "TH", "postal_code": "13260", "place_name": "Nakhon Luang", "latitude": "14.45", "longitude": "100.6167"}, {"country_code": "TH", "postal_code": "13270", "place_name": "Bang Sai", "latitude": "14.2167", "longitude": "100.5"}, {"country_code": "TH", "postal_code": "14000", "place_name": "Muang ANG THONG", "latitude": "14.5833", "longitude": "100.45"}, {"country_code": "TH", "postal_code": "14110", "place_name": "Wiset Chai Chan", "latitude": "14.5833", "longitude": "100.35"}, {"country_code": "TH", "postal_code": "14120", "place_name": "Pho Thong", "latitude": "14.6667", "longitude": "100.4167"}, {"country_code": "TH", "postal_code": "14130", "place_name": "Pa Mok", "latitude": "14.4833", "longitude": "100.45"}, {"country_code": "TH", "postal_code": "14140", "place_name": "Chaiyo", "latitude": "14.65", "longitude": "100.4667"}, {"country_code": "TH", "postal_code": "14150", "place_name": "Sawaengha", "latitude": "14.5958", "longitude": "100.4208"}, {"country_code": "TH", "postal_code": "14160", "place_name": "Samko", "latitude": "14.5958", "longitude": "100.4208"}, {"country_code": "TH", "postal_code": "15000", "place_name": "Muang Lopburi", "latitude": "14.8", "longitude": "100.6167"}, {"country_code": "TH", "postal_code": "15110", "place_name": "Ban Mi", "latitude": "15.0436", "longitude": "100.5661"}, {"country_code": "TH", "postal_code": "15120", "place_name": "Khok Samrong", "latitude": "15.0644", "longitude": "100.7228"}, {"country_code": "TH", "postal_code": "15130", "place_name": "Tha Luang", "latitude": "14.9833", "longitude": "101.0167"}, {"country_code": "TH", "postal_code": "15130", "place_name": "Chai Badan", "latitude": "15.2", "longitude": "101.1333"}, {"country_code": "TH", "postal_code": "15140", "place_name": "Phattana Nikhom", "latitude": "15.0216", "longitude": "100.7911"}, {"country_code": "TH", "postal_code": "15150", "place_name": "Tha Wung", "latitude": "14.8167", "longitude": "100.5167"}, {"country_code": "TH", "postal_code": "15170", "place_name": "Nong Muang", "latitude": "15.0216", "longitude": "100.7911"}, {"country_code": "TH", "postal_code": "15190", "place_name": "Lum Sunthi", "latitude": "15.0216", "longitude": "100.7911"}, {"country_code": "TH", "postal_code": "15240", "place_name": "Sa Bot", "latitude": "15.35", "longitude": "100.8167"}, {"country_code": "TH", "postal_code": "15250", "place_name": "Khok Charoen", "latitude": "15.35", "longitude": "100.8167"}, {"country_code": "TH", "postal_code": "16000", "place_name": "Muang Sing Buri", "latitude": "14.8708", "longitude": "100.375"}, {"country_code": "TH", "postal_code": "16110", "place_name": "In Buri", "latitude": "15", "longitude": "100.3333"}, {"country_code": "TH", "postal_code": "16120", "place_name": "Phrom Buri", "latitude": "14.8333", "longitude": "100.45"}, {"country_code": "TH", "postal_code": "16130", "place_name": "Bang Rachan", "latitude": "14.8833", "longitude": "100.3167"}, {"country_code": "TH", "postal_code": "16140", "place_name": "Tha Chang", "latitude": "14.7667", "longitude": "100.4"}, {"country_code": "TH", "postal_code": "16150", "place_name": "Khai Bang Rachan", "latitude": "14.8708", "longitude": "100.375"}, {"country_code": "TH", "postal_code": "17000", "place_name": "Muang Chainat", "latitude": "15.1833", "longitude": "100.1333"}, {"country_code": "TH", "postal_code": "17100", "place_name": "Nong Mamong", "latitude": "15.2775", "longitude": "99.8769"}, {"country_code": "TH", "postal_code": "17110", "place_name": "Manorom", "latitude": "15.3167", "longitude": "100.0833"}, {"country_code": "TH", "postal_code": "17120", "place_name": "Wat Sing", "latitude": "15.2667", "longitude": "100.05"}, {"country_code": "TH", "postal_code": "17130", "place_name": "Hankha", "latitude": "14.9833", "longitude": "100.0167"}, {"country_code": "TH", "postal_code": "17130", "place_name": "Non Kham", "latitude": "14.9833", "longitude": "100.0167"}, {"country_code": "TH", "postal_code": "17140", "place_name": "Sankhaburi", "latitude": "15.05", "longitude": "100.1667"}, {"country_code": "TH", "postal_code": "17150", "place_name": "Sanphaya", "latitude": "15.1333", "longitude": "100.25"}, {"country_code": "TH", "postal_code": "18000", "place_name": "Chaloem Phakiat", "latitude": "14.5521", "longitude": "100.9003"}, {"country_code": "TH", "postal_code": "18000", "place_name": "Muang Saraburi", "latitude": "14.5521", "longitude": "100.9003"}, {"country_code": "TH", "postal_code": "18110", "place_name": "Kaeng Khoi", "latitude": "14.5881", "longitude": "101.0031"}, {"country_code": "TH", "postal_code": "18120", "place_name": "Phra Phutthabat", "latitude": "14.7167", "longitude": "100.8"}, {"country_code": "TH", "postal_code": "18130", "place_name": "Ban Mo", "latitude": "14.6167", "longitude": "100.7333"}, {"country_code": "TH", "postal_code": "18140", "place_name": "Nong Khae", "latitude": "14.3333", "longitude": "100.8667"}, {"country_code": "TH", "postal_code": "18150", "place_name": "Wihan Daeng", "latitude": "14.35", "longitude": "101"}, {"country_code": "TH", "postal_code": "18160", "place_name": "Sao Hai", "latitude": "14.55", "longitude": "100.85"}, {"country_code": "TH", "postal_code": "18170", "place_name": "Nong Saeng", "latitude": "14.4833", "longitude": "100.7833"}, {"country_code": "TH", "postal_code": "18180", "place_name": "Muak Lek", "latitude": "14.5833", "longitude": "101.2167"}, {"country_code": "TH", "postal_code": "18190", "place_name": "Nong Doan", "latitude": "14.5277", "longitude": "100.9066"}, {"country_code": "TH", "postal_code": "18210", "place_name": "Don Phut", "latitude": "14.5833", "longitude": "100.6667"}, {"country_code": "TH", "postal_code": "18220", "place_name": "Wang Muang", "latitude": "14.7167", "longitude": "101.0833"}, {"country_code": "TH", "postal_code": "20000", "place_name": "Muang Chonburi", "latitude": "13.1604", "longitude": "101.1083"}, {"country_code": "TH", "postal_code": "20110", "place_name": "Si Racha", "latitude": "13.1667", "longitude": "100.9333"}, {"country_code": "TH", "postal_code": "20120", "place_name": "Ko Sichang", "latitude": "13.1452", "longitude": "101.0619"}, {"country_code": "TH", "postal_code": "20140", "place_name": "Phanat Nikhom", "latitude": "13.45", "longitude": "101.1833"}, {"country_code": "TH", "postal_code": "20150", "place_name": "Bang Lamung", "latitude": "13.05", "longitude": "100.9333"}, {"country_code": "TH", "postal_code": "20160", "place_name": "Phan Thong", "latitude": "13.4667", "longitude": "101.1"}, {"country_code": "TH", "postal_code": "20170", "place_name": "Ban Bung", "latitude": "13.0667", "longitude": "101"}, {"country_code": "TH", "postal_code": "20180", "place_name": "Sattahip", "latitude": "12.6667", "longitude": "100.9"}, {"country_code": "TH", "postal_code": "20190", "place_name": "Nong Yai", "latitude": "13.15", "longitude": "101.3833"}, {"country_code": "TH", "postal_code": "20240", "place_name": "Ko Chan", "latitude": "13.2667", "longitude": "101.4333"}, {"country_code": "TH", "postal_code": "20270", "place_name": "Bo Thong", "latitude": "13.2667", "longitude": "101.4333"}, {"country_code": "TH", "postal_code": "21000", "place_name": "Muang Rayong", "latitude": "12.6667", "longitude": "101.2833"}, {"country_code": "TH", "postal_code": "21110", "place_name": "Khao Chamao", "latitude": "12.7833", "longitude": "101.65"}, {"country_code": "TH", "postal_code": "21110", "place_name": "Klaeng", "latitude": "12.7833", "longitude": "101.65"}, {"country_code": "TH", "postal_code": "21120", "place_name": "Ban Khai", "latitude": "12.7833", "longitude": "101.3"}, {"country_code": "TH", "postal_code": "21130", "place_name": "Ban Chang", "latitude": "12.7167", "longitude": "101.0667"}, {"country_code": "TH", "postal_code": "21140", "place_name": "Pluak Daeng", "latitude": "12.9667", "longitude": "101.2167"}, {"country_code": "TH", "postal_code": "21180", "place_name": "Nikhom Pattana", "latitude": "12.8125", "longitude": "101.3083"}, {"country_code": "TH", "postal_code": "21210", "place_name": "Wang Chan", "latitude": "12.9333", "longitude": "101.5167"}, {"country_code": "TH", "postal_code": "22000", "place_name": "Muang Chanthaburi", "latitude": "12.6528", "longitude": "102.1222"}, {"country_code": "TH", "postal_code": "22110", "place_name": "Khlung", "latitude": "12.45", "longitude": "102.2333"}, {"country_code": "TH", "postal_code": "22120", "place_name": "Tha Mai", "latitude": "12.6167", "longitude": "102.0167"}, {"country_code": "TH", "postal_code": "22130", "place_name": "Laem Sing", "latitude": "12.4833", "longitude": "102.0667"}, {"country_code": "TH", "postal_code": "22140", "place_name": "Pong Nam Ron", "latitude": "12.9167", "longitude": "102.3833"}, {"country_code": "TH", "postal_code": "22150", "place_name": "Makham", "latitude": "12.6667", "longitude": "102.2"}, {"country_code": "TH", "postal_code": "22160", "place_name": "Na Yai Am", "latitude": "12.7833", "longitude": "101.8333"}, {"country_code": "TH", "postal_code": "22160", "place_name": "Kaeng Hang Maew", "latitude": "12.7833", "longitude": "101.8333"}, {"country_code": "TH", "postal_code": "22180", "place_name": "Soi Dao", "latitude": "12.6528", "longitude": "102.1222"}, {"country_code": "TH", "postal_code": "22210", "place_name": "Khao Kitchakut", "latitude": "12.6528", "longitude": "102.1222"}, {"country_code": "TH", "postal_code": "23000", "place_name": "Muang Trat", "latitude": "12.2131", "longitude": "102.5776"}, {"country_code": "TH", "postal_code": "23000", "place_name": "Ko Kud", "latitude": "12.2131", "longitude": "102.5776"}, {"country_code": "TH", "postal_code": "23110", "place_name": "Khlong Yai", "latitude": "11.7667", "longitude": "102.9"}, {"country_code": "TH", "postal_code": "23120", "place_name": "Laem Ngob", "latitude": "12.1667", "longitude": "102.4333"}, {"country_code": "TH", "postal_code": "23120", "place_name": "Ko Chang", "latitude": "12.1667", "longitude": "102.4333"}, {"country_code": "TH", "postal_code": "23130", "place_name": "Khao Saming", "latitude": "12.35", "longitude": "102.45"}, {"country_code": "TH", "postal_code": "23140", "place_name": "Bo Rai", "latitude": "12.5692", "longitude": "102.5272"}, {"country_code": "TH", "postal_code": "24000", "place_name": "Khlong Kaen", "latitude": "13.6861", "longitude": "101.1944"}, {"country_code": "TH", "postal_code": "24000", "place_name": "Muang Chachoengsao", "latitude": "13.6861", "longitude": "101.1944"}, {"country_code": "TH", "postal_code": "24110", "place_name": "Bang Khla", "latitude": "13.7167", "longitude": "101.2167"}, {"country_code": "TH", "postal_code": "24120", "place_name": "Phanom Sarakham", "latitude": "13.75", "longitude": "101.35"}, {"country_code": "TH", "postal_code": "24120", "place_name": "Rachsan", "latitude": "13.75", "longitude": "101.35"}, {"country_code": "TH", "postal_code": "24130", "place_name": "Bang Pakong", "latitude": "13.55", "longitude": "101"}, {"country_code": "TH", "postal_code": "24140", "place_name": "Ban Pho", "latitude": "13.6", "longitude": "101.0833"}, {"country_code": "TH", "postal_code": "24150", "place_name": "Bang Nam Prieo", "latitude": "13.85", "longitude": "101.0667"}, {"country_code": "TH", "postal_code": "24160", "place_name": "Sanam Chai Khet", "latitude": "13.65", "longitude": "101.45"}, {"country_code": "TH", "postal_code": "24160", "place_name": "Ta Takiab", "latitude": "13.65", "longitude": "101.45"}, {"country_code": "TH", "postal_code": "24190", "place_name": "Paeng Yao", "latitude": "13.6861", "longitude": "101.1944"}, {"country_code": "TH", "postal_code": "25000", "place_name": "Muang Prachinburi", "latitude": "14.0048", "longitude": "101.5198"}, {"country_code": "TH", "postal_code": "25110", "place_name": "Kabin Buri", "latitude": "13.9833", "longitude": "101.7167"}, {"country_code": "TH", "postal_code": "25130", "place_name": "Prachantakham", "latitude": "14.0619", "longitude": "101.5186"}, {"country_code": "TH", "postal_code": "25140", "place_name": "Si Maha Phot", "latitude": "13.9667", "longitude": "101.5167"}, {"country_code": "TH", "postal_code": "25150", "place_name": "Ban Sang", "latitude": "14", "longitude": "101.2333"}, {"country_code": "TH", "postal_code": "25190", "place_name": "Khok Pip", "latitude": "13.8833", "longitude": "101.4"}, {"country_code": "TH", "postal_code": "25190", "place_name": "Si Mahosot", "latitude": "13.8833", "longitude": "101.4"}, {"country_code": "TH", "postal_code": "25220", "place_name": "Na Di", "latitude": "14.1333", "longitude": "101.7333"}, {"country_code": "TH", "postal_code": "26000", "place_name": "Muang Nakhon Nayok", "latitude": "14.2031", "longitude": "101.2147"}, {"country_code": "TH", "postal_code": "26110", "place_name": "Ban Na", "latitude": "14.2592", "longitude": "101.0683"}, {"country_code": "TH", "postal_code": "26120", "place_name": "Ongkarak", "latitude": "14.2114", "longitude": "101.1653"}, {"country_code": "TH", "postal_code": "26130", "place_name": "Pak Phli", "latitude": "14.1636", "longitude": "101.2622"}, {"country_code": "TH", "postal_code": "27000", "place_name": "Muang Sa Kaeo", "latitude": "13.8442", "longitude": "102.6536"}, {"country_code": "TH", "postal_code": "27000", "place_name": "Khao Chakhun", "latitude": "13.8442", "longitude": "102.6536"}, {"country_code": "TH", "postal_code": "27120", "place_name": "Wang Nam Yen", "latitude": "13.6833", "longitude": "102.5"}, {"country_code": "TH", "postal_code": "27120", "place_name": "Aranyaprathet", "latitude": "13.6833", "longitude": "102.5"}, {"country_code": "TH", "postal_code": "27120", "place_name": "Khok Sung", "latitude": "13.6833", "longitude": "102.5"}, {"country_code": "TH", "postal_code": "27160", "place_name": "Wattana Nakhon", "latitude": "13.8442", "longitude": "102.6536"}, {"country_code": "TH", "postal_code": "27180", "place_name": "Ta Phraya", "latitude": "14.005", "longitude": "102.8072"}, {"country_code": "TH", "postal_code": "27250", "place_name": "Wang Sombun", "latitude": "13.8442", "longitude": "102.6536"}, {"country_code": "TH", "postal_code": "27260", "place_name": "Khlong Hat", "latitude": "13.8442", "longitude": "102.6536"}, {"country_code": "TH", "postal_code": "30000", "place_name": "Muang Nakhon Ratchasima", "latitude": "15.0555", "longitude": "102.2148"}, {"country_code": "TH", "postal_code": "30110", "place_name": "Phimai", "latitude": "15.2167", "longitude": "102.5"}, {"country_code": "TH", "postal_code": "30120", "place_name": "Bua Yai", "latitude": "15.5833", "longitude": "102.4167"}, {"country_code": "TH", "postal_code": "30120", "place_name": "Bua Lai", "latitude": "15.5833", "longitude": "102.4167"}, {"country_code": "TH", "postal_code": "30130", "place_name": "Pak Chong", "latitude": "14.7042", "longitude": "101.4131"}, {"country_code": "TH", "postal_code": "30140", "place_name": "Sikhiu", "latitude": "14.8994", "longitude": "101.7083"}, {"country_code": "TH", "postal_code": "30150", "place_name": "Pak Thong Chai", "latitude": "14.7453", "longitude": "102.0283"}, {"country_code": "TH", "postal_code": "30160", "place_name": "Non Sung", "latitude": "15.1833", "longitude": "102.2667"}, {"country_code": "TH", "postal_code": "30170", "place_name": "Sung Noen", "latitude": "14.8989", "longitude": "101.8139"}, {"country_code": "TH", "postal_code": "30180", "place_name": "Prathai", "latitude": "15.5167", "longitude": "102.8"}, {"country_code": "TH", "postal_code": "30190", "place_name": "Chok Chai", "latitude": "14.7333", "longitude": "102.1667"}, {"country_code": "TH", "postal_code": "30210", "place_name": "Dan Khun Thot", "latitude": "15.2064", "longitude": "101.8058"}, {"country_code": "TH", "postal_code": "30210", "place_name": "Theparak", "latitude": "15.2064", "longitude": "101.8058"}, {"country_code": "TH", "postal_code": "30220", "place_name": "Non Thai", "latitude": "15.2", "longitude": "102.0667"}, {"country_code": "TH", "postal_code": "30220", "place_name": "Phra Thomgkom", "latitude": "15.2", "longitude": "102.0667"}, {"country_code": "TH", "postal_code": "30230", "place_name": "Cheleam Phakiat", "latitude": "15", "longitude": "102.2667"}, {"country_code": "TH", "postal_code": "30230", "place_name": "Chakkarat", "latitude": "15", "longitude": "102.2667"}, {"country_code": "TH", "postal_code": "30240", "place_name": "Huai Thalaeng", "latitude": "15.0028", "longitude": "102.6556"}, {"country_code": "TH", "postal_code": "30250", "place_name": "Khon Buri", "latitude": "14.5167", "longitude": "102.25"}, {"country_code": "TH", "postal_code": "30260", "place_name": "Khong", "latitude": "15.4333", "longitude": "102.3333"}, {"country_code": "TH", "postal_code": "30270", "place_name": "Muang Yang", "latitude": "15.3167", "longitude": "102.7667"}, {"country_code": "TH", "postal_code": "30270", "place_name": "Lum Thamenchai", "latitude": "15.3167", "longitude": "102.7667"}, {"country_code": "TH", "postal_code": "30270", "place_name": "Chum Phuang", "latitude": "15.3167", "longitude": "102.7667"}, {"country_code": "TH", "postal_code": "30280", "place_name": "Kham Thale So", "latitude": "14.9747", "longitude": "101.985"}, {"country_code": "TH", "postal_code": "30290", "place_name": "Kham Sakae Saeng", "latitude": "15.3333", "longitude": "102.1833"}, {"country_code": "TH", "postal_code": "30330", "place_name": "Soeng Sang", "latitude": "14.4167", "longitude": "102.4833"}, {"country_code": "TH", "postal_code": "30350", "place_name": "Ban Luam", "latitude": "15.5833", "longitude": "102.15"}, {"country_code": "TH", "postal_code": "30360", "place_name": "Non Daeng", "latitude": "15", "longitude": "102.3167"}, {"country_code": "TH", "postal_code": "30370", "place_name": "Wang Nam Khyo", "latitude": "15", "longitude": "102.3167"}, {"country_code": "TH", "postal_code": "30410", "place_name": "Nong Bunnak", "latitude": "14.7", "longitude": "102.45"}, {"country_code": "TH", "postal_code": "30430", "place_name": "Sida", "latitude": "14.7", "longitude": "102.45"}, {"country_code": "TH", "postal_code": "30440", "place_name": "Kang Sanam Nang", "latitude": "14.7", "longitude": "102.45"}, {"country_code": "TH", "postal_code": "31000", "place_name": "Ban Dan", "latitude": "13.9167", "longitude": "102.0167"}, {"country_code": "TH", "postal_code": "31000", "place_name": "Huai Ratch", "latitude": "13.9167", "longitude": "102.0167"}, {"country_code": "TH", "postal_code": "31000", "place_name": "Muang Buri Ram", "latitude": "13.9167", "longitude": "102.0167"}, {"country_code": "TH", "postal_code": "31110", "place_name": "Nang Rong", "latitude": "14.6333", "longitude": "102.8"}, {"country_code": "TH", "postal_code": "31110", "place_name": "Cham Ni", "latitude": "14.6083", "longitude": "102.6917"}, {"country_code": "TH", "postal_code": "31110", "place_name": "Chaloem Phrakhiat", "latitude": "14.6083", "longitude": "102.6917"}, {"country_code": "TH", "postal_code": "31110", "place_name": "Non Suwan", "latitude": "14.5833", "longitude": "102.5833"}, {"country_code": "TH", "postal_code": "31120", "place_name": "Phutthaisong", "latitude": "15.4167", "longitude": "102.9"}, {"country_code": "TH", "postal_code": "31120", "place_name": "Banmai Chaiphot", "latitude": "15.4167", "longitude": "102.9"}, {"country_code": "TH", "postal_code": "31130", "place_name": "Lam Phai Mat", "latitude": "14.9088", "longitude": "102.9959"}, {"country_code": "TH", "postal_code": "31140", "place_name": "Prakhon Chai", "latitude": "14.6167", "longitude": "103.0833"}, {"country_code": "TH", "postal_code": "31150", "place_name": "Kandong", "latitude": "15.3", "longitude": "103.3"}, {"country_code": "TH", "postal_code": "31150", "place_name": "Satuk", "latitude": "15.3", "longitude": "103.3"}, {"country_code": "TH", "postal_code": "31160", "place_name": "Krasang", "latitude": "14.9167", "longitude": "103.3"}, {"country_code": "TH", "postal_code": "31170", "place_name": "Lahan Sai", "latitude": "14.4167", "longitude": "102.8667"}, {"country_code": "TH", "postal_code": "31180", "place_name": "Ban Kruat", "latitude": "15.0128", "longitude": "103.0967"}, {"country_code": "TH", "postal_code": "31190", "place_name": "Khu Muang", "latitude": "15.2833", "longitude": "103.0333"}, {"country_code": "TH", "postal_code": "31210", "place_name": "Nong Ki", "latitude": "14.6667", "longitude": "102.5333"}, {"country_code": "TH", "postal_code": "31220", "place_name": "Pak Kam", "latitude": "14.9625", "longitude": "102.5917"}, {"country_code": "TH", "postal_code": "31230", "place_name": "Na Pho", "latitude": "15.6333", "longitude": "102.95"}, {"country_code": "TH", "postal_code": "31240", "place_name": "Nong Hong", "latitude": "14.8333", "longitude": "102.7333"}, {"country_code": "TH", "postal_code": "31250", "place_name": "Ban Phlapphla", "latitude": "14.7167", "longitude": "102.15"}, {"country_code": "TH", "postal_code": "31260", "place_name": "Non Dindaeng", "latitude": "14.9625", "longitude": "102.5917"}, {"country_code": "TH", "postal_code": "33000", "place_name": "Muang Sisaket", "latitude": "15.1167", "longitude": "104.3333"}, {"country_code": "TH", "postal_code": "33110", "place_name": "Kantharalak", "latitude": "14.65", "longitude": "104.65"}, {"country_code": "TH", "postal_code": "33110", "place_name": "Benchalak", "latitude": "14.65", "longitude": "104.65"}, {"country_code": "TH", "postal_code": "33120", "place_name": "Muang Chan", "latitude": "15.1133", "longitude": "104.1408"}, {"country_code": "TH", "postal_code": "33120", "place_name": "Po Sri Suwan", "latitude": "15.1133", "longitude": "104.1408"}, {"country_code": "TH", "postal_code": "33120", "place_name": "Uthumphon Phisai", "latitude": "15.1133", "longitude": "104.1408"}, {"country_code": "TH", "postal_code": "33130", "place_name": "Nam Kliang", "latitude": "14.9", "longitude": "104.55"}, {"country_code": "TH", "postal_code": "33130", "place_name": "Kanthararom", "latitude": "15.1", "longitude": "104.5833"}, {"country_code": "TH", "postal_code": "33140", "place_name": "Pu Sing", "latitude": "15.1167", "longitude": "104.3333"}, {"country_code": "TH", "postal_code": "33140", "place_name": "Khukhan", "latitude": "15.1167", "longitude": "104.3333"}, {"country_code": "TH", "postal_code": "33150", "place_name": "Khun Han", "latitude": "14.6333", "longitude": "104.3667"}, {"country_code": "TH", "postal_code": "33160", "place_name": "Silalad", "latitude": "15.3333", "longitude": "104.15"}, {"country_code": "TH", "postal_code": "33160", "place_name": "Rasi Salai", "latitude": "15.3333", "longitude": "104.15"}, {"country_code": "TH", "postal_code": "33170", "place_name": "Prang Ku", "latitude": "14.85", "longitude": "104.0333"}, {"country_code": "TH", "postal_code": "33180", "place_name": "Phrai Bung", "latitude": "14.75", "longitude": "104.35"}, {"country_code": "TH", "postal_code": "33190", "place_name": "Yang Chum Noi", "latitude": "15.2667", "longitude": "104.35"}, {"country_code": "TH", "postal_code": "33210", "place_name": "Huai Thap Than", "latitude": "15.05", "longitude": "104.0333"}, {"country_code": "TH", "postal_code": "33220", "place_name": "Bung Bun", "latitude": "15.3214", "longitude": "104.0572"}, {"country_code": "TH", "postal_code": "33230", "place_name": "Phayu", "latitude": "14.9809", "longitude": "104.3381"}, {"country_code": "TH", "postal_code": "33240", "place_name": "Si Rattana", "latitude": "14.7333", "longitude": "104.5833"}, {"country_code": "TH", "postal_code": "33250", "place_name": "Non Khun", "latitude": "14.9167", "longitude": "104.7333"}, {"country_code": "TH", "postal_code": "33270", "place_name": "Wang Hin", "latitude": "14.8833", "longitude": "104.2833"}, {"country_code": "TH", "postal_code": "34000", "place_name": "Muang Ubon Ratchathani", "latitude": "14.7861", "longitude": "103.9111"}, {"country_code": "TH", "postal_code": "34000", "place_name": "Don Moddang", "latitude": "14.7861", "longitude": "103.9111"}, {"country_code": "TH", "postal_code": "34110", "place_name": "Phibun Mangsahan", "latitude": "15.2333", "longitude": "105.2333"}, {"country_code": "TH", "postal_code": "34130", "place_name": "Trakan Puetphon", "latitude": "15.6417", "longitude": "105.225"}, {"country_code": "TH", "postal_code": "34140", "place_name": "Muang Samsib", "latitude": "15.6417", "longitude": "105.225"}, {"country_code": "TH", "postal_code": "34150", "place_name": "Khuang Nai", "latitude": "15.6417", "longitude": "105.225"}, {"country_code": "TH", "postal_code": "34160", "place_name": "Na Year", "latitude": "15.6417", "longitude": "105.225"}, {"country_code": "TH", "postal_code": "34160", "place_name": "Det Udom", "latitude": "15.6417", "longitude": "105.225"}, {"country_code": "TH", "postal_code": "34160", "place_name": "Thung Sriudom", "latitude": "15.6417", "longitude": "105.225"}, {"country_code": "TH", "postal_code": "34170", "place_name": "Khemarat", "latitude": "16.05", "longitude": "105.2167"}, {"country_code": "TH", "postal_code": "34190", "place_name": "Sawang Werarong", "latitude": "15.6417", "longitude": "105.225"}, {"country_code": "TH", "postal_code": "34190", "place_name": "Warin Chamrabp", "latitude": "15.6417", "longitude": "105.225"}, {"country_code": "TH", "postal_code": "34220", "place_name": "Khong Chiam", "latitude": "14.2", "longitude": "103.6583"}, {"country_code": "TH", "postal_code": "34230", "place_name": "Buntharik", "latitude": "14.2", "longitude": "103.6583"}, {"country_code": "TH", "postal_code": "34250", "place_name": "Si Muang Mai", "latitude": "15.4833", "longitude": "105.2833"}, {"country_code": "TH", "postal_code": "34260", "place_name": "Nam Yuen", "latitude": "12.9167", "longitude": "102.0333"}, {"country_code": "TH", "postal_code": "34260", "place_name": "Nam Khun", "latitude": "12.9167", "longitude": "102.0333"}, {"country_code": "TH", "postal_code": "34270", "place_name": "Kut Khaopun", "latitude": "14.2", "longitude": "103.6583"}, {"country_code": "TH", "postal_code": "34280", "place_name": "Na Chaluai", "latitude": "14.2", "longitude": "103.6583"}, {"country_code": "TH", "postal_code": "34330", "place_name": "Tan Sum", "latitude": "15.3833", "longitude": "105.1167"}, {"country_code": "TH", "postal_code": "34340", "place_name": "Po Sai", "latitude": "14.5167", "longitude": "102.85"}, {"country_code": "TH", "postal_code": "34350", "place_name": "Sirinhon", "latitude": "14.5167", "longitude": "102.85"}, {"country_code": "TH", "postal_code": "34360", "place_name": "Samrong", "latitude": "13.65", "longitude": "100.5833"}, {"country_code": "TH", "postal_code": "35000", "place_name": "Muang Yasothon", "latitude": "15.7953", "longitude": "104.1494"}, {"country_code": "TH", "postal_code": "35110", "place_name": "Kham Khuan Kaeo", "latitude": "15.65", "longitude": "104.3167"}, {"country_code": "TH", "postal_code": "35120", "place_name": "Thai Chaloen", "latitude": "15.6633", "longitude": "104.3067"}, {"country_code": "TH", "postal_code": "35120", "place_name": "Loeng Nok Tha", "latitude": "15.6633", "longitude": "104.3067"}, {"country_code": "TH", "postal_code": "35130", "place_name": "Maha Chana Chai", "latitude": "15.5333", "longitude": "104.25"}, {"country_code": "TH", "postal_code": "35140", "place_name": "Kud Chum", "latitude": "15.6633", "longitude": "104.3067"}, {"country_code": "TH", "postal_code": "35150", "place_name": "Pa Tiu", "latitude": "15.8333", "longitude": "104.3833"}, {"country_code": "TH", "postal_code": "35160", "place_name": "Kho Wang", "latitude": "15.35", "longitude": "104.3667"}, {"country_code": "TH", "postal_code": "35170", "place_name": "Sai Mun", "latitude": "15.95", "longitude": "104.2167"}, {"country_code": "TH", "postal_code": "36000", "place_name": "Muang Chaiyaphum", "latitude": "16.0085", "longitude": "101.9828"}, {"country_code": "TH", "postal_code": "36110", "place_name": "Phu Khieo", "latitude": "16.3667", "longitude": "102.1333"}, {"country_code": "TH", "postal_code": "36120", "place_name": "Kaset Sombun", "latitude": "16.2833", "longitude": "101.95"}, {"country_code": "TH", "postal_code": "36130", "place_name": "Noen Sa Nga", "latitude": "15.5647", "longitude": "101.8414"}, {"country_code": "TH", "postal_code": "36130", "place_name": "Sub Yai", "latitude": "15.5647", "longitude": "101.8414"}, {"country_code": "TH", "postal_code": "36130", "place_name": "Chaturat", "latitude": "15.5647", "longitude": "101.8414"}, {"country_code": "TH", "postal_code": "36140", "place_name": "Khon Sawan", "latitude": "15.9333", "longitude": "102.2833"}, {"country_code": "TH", "postal_code": "36150", "place_name": "Kaeng Khro", "latitude": "16.1", "longitude": "102.2667"}, {"country_code": "TH", "postal_code": "36160", "place_name": "Bamnet Narong", "latitude": "15.4992", "longitude": "101.6897"}, {"country_code": "TH", "postal_code": "36170", "place_name": "Ban Khwao", "latitude": "15.7633", "longitude": "101.9131"}, {"country_code": "TH", "postal_code": "36180", "place_name": "Khon San", "latitude": "16.35", "longitude": "101.8333"}, {"country_code": "TH", "postal_code": "36190", "place_name": "Ban Thaen", "latitude": "16.4", "longitude": "102.3333"}, {"country_code": "TH", "postal_code": "36210", "place_name": "Nong Bua Daeng", "latitude": "16.0833", "longitude": "101.8"}, {"country_code": "TH", "postal_code": "36230", "place_name": "Thep Satthit", "latitude": "15.9167", "longitude": "101.7833"}, {"country_code": "TH", "postal_code": "36250", "place_name": "Nong Bua Rawe", "latitude": "15.75", "longitude": "101.7667"}, {"country_code": "TH", "postal_code": "36260", "place_name": "Phakdi Chumpon", "latitude": "15.9167", "longitude": "101.7833"}, {"country_code": "TH", "postal_code": "37000", "place_name": "Lua Amnart", "latitude": "15.7075", "longitude": "104.6797"}, {"country_code": "TH", "postal_code": "37000", "place_name": "Muang Amnat Charoen", "latitude": "15.7075", "longitude": "104.6797"}, {"country_code": "TH", "postal_code": "37110", "place_name": "Phathumratvongsa", "latitude": "15.6983", "longitude": "104.8928"}, {"country_code": "TH", "postal_code": "37180", "place_name": "Phana", "latitude": "15.6983", "longitude": "104.8928"}, {"country_code": "TH", "postal_code": "37210", "place_name": "Chanunman", "latitude": "15.7167", "longitude": "104.4667"}, {"country_code": "TH", "postal_code": "37240", "place_name": "Hua Taphan", "latitude": "15.7167", "longitude": "104.4667"}, {"country_code": "TH", "postal_code": "37290", "place_name": "Senangkhanikhorn", "latitude": "15.7167", "longitude": "104.4667"}, {"country_code": "TH", "postal_code": "39000", "place_name": "Muang Nong Bua Lam Phu", "latitude": "17.0409", "longitude": "102.3544"}, {"country_code": "TH", "postal_code": "39140", "place_name": "Non Sang", "latitude": "16.8667", "longitude": "102.5667"}, {"country_code": "TH", "postal_code": "39140", "place_name": "Nong Sang", "latitude": "16.8667", "longitude": "102.5667"}, {"country_code": "TH", "postal_code": "39170", "place_name": "Nawang", "latitude": "17.2894", "longitude": "102.2133"}, {"country_code": "TH", "postal_code": "39170", "place_name": "Na Klang", "latitude": "17.2894", "longitude": "102.2133"}, {"country_code": "TH", "postal_code": "39180", "place_name": "Si Bun Ruang", "latitude": "16.9667", "longitude": "102.2833"}, {"country_code": "TH", "postal_code": "39270", "place_name": "Suwannakhuha", "latitude": "17.0409", "longitude": "102.3544"}, {"country_code": "TH", "postal_code": "40000", "place_name": "Muang Khonkaen", "latitude": "16.2931", "longitude": "102.6157"}, {"country_code": "TH", "postal_code": "40110", "place_name": "Ban Had", "latitude": "16.0667", "longitude": "102.7333"}, {"country_code": "TH", "postal_code": "40110", "place_name": "Non Silla", "latitude": "16.0667", "longitude": "102.7333"}, {"country_code": "TH", "postal_code": "40110", "place_name": "Ban Phai", "latitude": "16.0667", "longitude": "102.7333"}, {"country_code": "TH", "postal_code": "40120", "place_name": "Phon", "latitude": "15.8167", "longitude": "102.6"}, {"country_code": "TH", "postal_code": "40130", "place_name": "Chum Phae", "latitude": "16.5333", "longitude": "102.1"}, {"country_code": "TH", "postal_code": "40140", "place_name": "Nam Phong", "latitude": "16.7", "longitude": "102.8667"}, {"country_code": "TH", "postal_code": "40150", "place_name": "Nong Nakham", "latitude": "16.65", "longitude": "102.3833"}, {"country_code": "TH", "postal_code": "40150", "place_name": "Phu Wiang", "latitude": "16.65", "longitude": "102.3833"}, {"country_code": "TH", "postal_code": "40160", "place_name": "Khok Phochai", "latitude": "16.1167", "longitude": "102.55"}, {"country_code": "TH", "postal_code": "40160", "place_name": "Mancha Khiri", "latitude": "16.1167", "longitude": "102.55"}, {"country_code": "TH", "postal_code": "40170", "place_name": "Sum Sung", "latitude": "16.7", "longitude": "103.0833"}, {"country_code": "TH", "postal_code": "40170", "place_name": "Kranuan", "latitude": "16.7", "longitude": "103.0833"}, {"country_code": "TH", "postal_code": "40180", "place_name": "Chonnabot", "latitude": "16.1", "longitude": "102.6333"}, {"country_code": "TH", "postal_code": "40190", "place_name": "Nong Song Hong", "latitude": "15.7333", "longitude": "102.8"}, {"country_code": "TH", "postal_code": "40210", "place_name": "Nong Rua", "latitude": "16.5", "longitude": "102.4333"}, {"country_code": "TH", "postal_code": "40220", "place_name": "Si Chomphu", "latitude": "16.8", "longitude": "102.2"}, {"country_code": "TH", "postal_code": "40230", "place_name": "Waeng Noi", "latitude": "15.8", "longitude": "102.4667"}, {"country_code": "TH", "postal_code": "40250", "place_name": "Ubolratana", "latitude": "16.48", "longitude": "102.5233"}, {"country_code": "TH", "postal_code": "40270", "place_name": "Ban Fang", "latitude": "16.45", "longitude": "102.6333"}, {"country_code": "TH", "postal_code": "40280", "place_name": "Khao Suan Kwang", "latitude": "16.85", "longitude": "102.8833"}, {"country_code": "TH", "postal_code": "40320", "place_name": "Phra Yun", "latitude": "16.3333", "longitude": "102.65"}, {"country_code": "TH", "postal_code": "40330", "place_name": "Waeng Yai", "latitude": "15.95", "longitude": "102.5333"}, {"country_code": "TH", "postal_code": "40340", "place_name": "Puai Noi", "latitude": "15.8833", "longitude": "102.9167"}, {"country_code": "TH", "postal_code": "40350", "place_name": "Phu Pha Man", "latitude": "16.0556", "longitude": "102.7"}, {"country_code": "TH", "postal_code": "41000", "place_name": "Muang Udon Thani", "latitude": "17.1336", "longitude": "102.9675"}, {"country_code": "TH", "postal_code": "41110", "place_name": "Phrachuk Siliakram", "latitude": "17.1336", "longitude": "102.9675"}, {"country_code": "TH", "postal_code": "41110", "place_name": "Kumphawapi", "latitude": "17.1336", "longitude": "102.9675"}, {"country_code": "TH", "postal_code": "41130", "place_name": "Pibun Rak", "latitude": "17.1336", "longitude": "102.9675"}, {"country_code": "TH", "postal_code": "41130", "place_name": "Ku Khaew", "latitude": "17.1336", "longitude": "102.9675"}, {"country_code": "TH", "postal_code": "41130", "place_name": "Nong Han", "latitude": "17.1336", "longitude": "102.9675"}, {"country_code": "TH", "postal_code": "41150", "place_name": "Phen", "latitude": "17.1336", "longitude": "102.9675"}, {"country_code": "TH", "postal_code": "41190", "place_name": "Ban Dung", "latitude": "17.1336", "longitude": "102.9675"}, {"country_code": "TH", "postal_code": "41190", "place_name": "Ban Phu", "latitude": "17.1336", "longitude": "102.9675"}, {"country_code": "TH", "postal_code": "41210", "place_name": "Nam Som", "latitude": "17.1336", "longitude": "102.9675"}, {"country_code": "TH", "postal_code": "41220", "place_name": "Nong Wua So", "latitude": "17.1336", "longitude": "102.9675"}, {"country_code": "TH", "postal_code": "41230", "place_name": "Si That", "latitude": "17.1336", "longitude": "102.9675"}, {"country_code": "TH", "postal_code": "41240", "place_name": "Non Sa-at", "latitude": "17.1336", "longitude": "102.9675"}, {"country_code": "TH", "postal_code": "41250", "place_name": "Kut Chab", "latitude": "17.1336", "longitude": "102.9675"}, {"country_code": "TH", "postal_code": "41260", "place_name": "Sang Khom", "latitude": "17.1336", "longitude": "102.9675"}, {"country_code": "TH", "postal_code": "41290", "place_name": "Chaiwan", "latitude": "17.1336", "longitude": "102.9675"}, {"country_code": "TH", "postal_code": "41310", "place_name": "Thung Fon", "latitude": "17.1336", "longitude": "102.9675"}, {"country_code": "TH", "postal_code": "41340", "place_name": "Nong Saeng", "latitude": "17.1336", "longitude": "102.9675"}, {"country_code": "TH", "postal_code": "41380", "place_name": "Na Yung", "latitude": "17.1336", "longitude": "102.9675"}, {"country_code": "TH", "postal_code": "41380", "place_name": "Wang Sam Mo", "latitude": "17.1336", "longitude": "102.9675"}, {"country_code": "TH", "postal_code": "41220", "place_name": "Erawan", "latitude": "17.1336", "longitude": "102.9675"}, {"country_code": "TH", "postal_code": "42000", "place_name": "Muang Loei", "latitude": "17.4833", "longitude": "101.7167"}, {"country_code": "TH", "postal_code": "42110", "place_name": "Chiang Khan", "latitude": "17.8667", "longitude": "101.6"}, {"country_code": "TH", "postal_code": "42120", "place_name": "Dan Sai", "latitude": "17.2833", "longitude": "101.15"}, {"country_code": "TH", "postal_code": "42130", "place_name": "Wang Saphung", "latitude": "17.3", "longitude": "101.7667"}, {"country_code": "TH", "postal_code": "42140", "place_name": "Tha Li", "latitude": "17.6167", "longitude": "101.4167"}, {"country_code": "TH", "postal_code": "42150", "place_name": "Pak Chom", "latitude": "18.0333", "longitude": "101.8833"}, {"country_code": "TH", "postal_code": "42160", "place_name": "Phu Rua", "latitude": "17.45", "longitude": "101.3667"}, {"country_code": "TH", "postal_code": "42170", "place_name": "Na Haeo", "latitude": "17.4833", "longitude": "101.0667"}, {"country_code": "TH", "postal_code": "42180", "place_name": "Phu Kradung", "latitude": "16.8833", "longitude": "101.8833"}, {"country_code": "TH", "postal_code": "42210", "place_name": "Na Duang", "latitude": "17.4833", "longitude": "101.9833"}, {"country_code": "TH", "postal_code": "42230", "place_name": "Phu Luang", "latitude": "17.1667", "longitude": "101.7667"}, {"country_code": "TH", "postal_code": "42240", "place_name": "Pha Khao", "latitude": "17.325", "longitude": "101.875"}, {"country_code": "TH", "postal_code": "43000", "place_name": "Muang Nong Khai", "latitude": "18.0501", "longitude": "103.3054"}, {"country_code": "TH", "postal_code": "43100", "place_name": "Sra Khai", "latitude": "18.0613", "longitude": "103.2227"}, {"country_code": "TH", "postal_code": "43110", "place_name": "Tha Bo", "latitude": "17.845", "longitude": "102.5842"}, {"country_code": "TH", "postal_code": "43120", "place_name": "Fao Rai", "latitude": "18.0167", "longitude": "103.2833"}, {"country_code": "TH", "postal_code": "43120", "place_name": "Phon Phisai", "latitude": "18.0167", "longitude": "103.0833"}, {"country_code": "TH", "postal_code": "43120", "place_name": "Rattana Wapi", "latitude": "18.0167", "longitude": "103.1833"}, {"country_code": "TH", "postal_code": "43130", "place_name": "Po Tak", "latitude": "17.9564", "longitude": "102.5867"}, {"country_code": "TH", "postal_code": "43130", "place_name": "Si Chiang Mai", "latitude": "17.9564", "longitude": "102.5867"}, {"country_code": "TH", "postal_code": "43140", "place_name": "Bung Kla", "latitude": "18.3833", "longitude": "103.6167"}, {"country_code": "TH", "postal_code": "43140", "place_name": "Bung Kan", "latitude": "18.3833", "longitude": "103.6167"}, {"country_code": "TH", "postal_code": "43150", "place_name": "Seka", "latitude": "17.9333", "longitude": "103.95"}, {"country_code": "TH", "postal_code": "43160", "place_name": "Sang Khom", "latitude": "18.0613", "longitude": "103.2227"}, {"country_code": "TH", "postal_code": "43170", "place_name": "So Phisai", "latitude": "18.0667", "longitude": "103.4333"}, {"country_code": "TH", "postal_code": "43180", "place_name": "Phon Charoen", "latitude": "18.0333", "longitude": "103.1667"}, {"country_code": "TH", "postal_code": "43190", "place_name": "Pak Khat", "latitude": "18.3", "longitude": "103.3"}, {"country_code": "TH", "postal_code": "43210", "place_name": "Si Wilai", "latitude": "17.95", "longitude": "104.05"}, {"country_code": "TH", "postal_code": "43220", "place_name": "Bung Khong Long", "latitude": "17.95", "longitude": "104.05"}, {"country_code": "TH", "postal_code": "44000", "place_name": "Muang Maha Sarakham", "latitude": "15.955", "longitude": "103.1867"}, {"country_code": "TH", "postal_code": "44110", "place_name": "Phayakkhaphum Phisai", "latitude": "15.5167", "longitude": "103.2"}, {"country_code": "TH", "postal_code": "44120", "place_name": "Wapi Pathum", "latitude": "15.85", "longitude": "103.3833"}, {"country_code": "TH", "postal_code": "44130", "place_name": "Kud Rang", "latitude": "16.0333", "longitude": "103.1167"}, {"country_code": "TH", "postal_code": "44130", "place_name": "Borabu", "latitude": "16.0333", "longitude": "103.1167"}, {"country_code": "TH", "postal_code": "44140", "place_name": "Kosum Phisai", "latitude": "16.2167", "longitude": "103.0167"}, {"country_code": "TH", "postal_code": "44150", "place_name": "Kantharawichai", "latitude": "16.3167", "longitude": "103.3"}, {"country_code": "TH", "postal_code": "44160", "place_name": "Chuan Chum", "latitude": "16.4167", "longitude": "103.1"}, {"country_code": "TH", "postal_code": "44160", "place_name": "Chiang Yun", "latitude": "16.4167", "longitude": "103.1"}, {"country_code": "TH", "postal_code": "44170", "place_name": "Na Chuak", "latitude": "15.7833", "longitude": "103.0333"}, {"country_code": "TH", "postal_code": "44180", "place_name": "Na Dun", "latitude": "15.7167", "longitude": "103.2333"}, {"country_code": "TH", "postal_code": "44190", "place_name": "Kae Dam", "latitude": "16.0167", "longitude": "103.3833"}, {"country_code": "TH", "postal_code": "44210", "place_name": "Yang Si Surat", "latitude": "15.6833", "longitude": "103.1"}, {"country_code": "TH", "postal_code": "45000", "place_name": "Muang Roi Et", "latitude": "16.05", "longitude": "103.6667"}, {"country_code": "TH", "postal_code": "45000", "place_name": "Chiang Khaw", "latitude": "16.3833", "longitude": "103.2"}, {"country_code": "TH", "postal_code": "45000", "place_name": "Sri Somdet", "latitude": "16.3833", "longitude": "103.2"}, {"country_code": "TH", "postal_code": "45000", "place_name": "Chang Han", "latitude": "16.7167", "longitude": "102.7333"}, {"country_code": "TH", "postal_code": "45110", "place_name": "Phon Thong", "latitude": "16.1167", "longitude": "103.8333"}, {"country_code": "TH", "postal_code": "45120", "place_name": "Salaphum", "latitude": "15.8059", "longitude": "103.7251"}, {"country_code": "TH", "postal_code": "45130", "place_name": "Suwannaphum", "latitude": "15.6047", "longitude": "103.8075"}, {"country_code": "TH", "postal_code": "45140", "place_name": "Nong Hi", "latitude": "15.6167", "longitude": "103.9833"}, {"country_code": "TH", "postal_code": "45140", "place_name": "Phaanom Phrai", "latitude": "15.6167", "longitude": "103.9833"}, {"country_code": "TH", "postal_code": "45150", "place_name": "Kaset Wisai", "latitude": "15.65", "longitude": "103.5833"}, {"country_code": "TH", "postal_code": "45160", "place_name": "At Samat", "latitude": "15.8594", "longitude": "103.8597"}, {"country_code": "TH", "postal_code": "45170", "place_name": "Thawatchaburi", "latitude": "16.1167", "longitude": "103.8333"}, {"country_code": "TH", "postal_code": "45170", "place_name": "Tung Khaoluang", "latitude": "16.1167", "longitude": "103.8333"}, {"country_code": "TH", "postal_code": "45180", "place_name": "Chaturaphak Phiman", "latitude": "15.85", "longitude": "103.55"}, {"country_code": "TH", "postal_code": "45190", "place_name": "Pathum Rat", "latitude": "15.6333", "longitude": "103.35"}, {"country_code": "TH", "postal_code": "45210", "place_name": "Nong Phok", "latitude": "15.649", "longitude": "103.8556"}, {"country_code": "TH", "postal_code": "45220", "place_name": "Muang Suang", "latitude": "15.8167", "longitude": "103.7167"}, {"country_code": "TH", "postal_code": "45230", "place_name": "Pho Chai", "latitude": "15.649", "longitude": "103.8556"}, {"country_code": "TH", "postal_code": "45240", "place_name": "Phon Sai", "latitude": "15.4814", "longitude": "103.9944"}, {"country_code": "TH", "postal_code": "45250", "place_name": "Moeiyawadi", "latitude": "15.649", "longitude": "103.8556"}, {"country_code": "TH", "postal_code": "46000", "place_name": "Donchan", "latitude": "16.4333", "longitude": "103.5"}, {"country_code": "TH", "postal_code": "46000", "place_name": "Muang Kalasin", "latitude": "16.4333", "longitude": "103.5"}, {"country_code": "TH", "postal_code": "46110", "place_name": "Kuchinarai", "latitude": "16.5333", "longitude": "104.0667"}, {"country_code": "TH", "postal_code": "46120", "place_name": "Yang Talat", "latitude": "16.4", "longitude": "103.3833"}, {"country_code": "TH", "postal_code": "46130", "place_name": "Kamalasai", "latitude": "16.3333", "longitude": "103.5833"}, {"country_code": "TH", "postal_code": "46130", "place_name": "Kong Chai", "latitude": "16.3333", "longitude": "103.5833"}, {"country_code": "TH", "postal_code": "46140", "place_name": "Sahatsakhan", "latitude": "16.7833", "longitude": "103.5833"}, {"country_code": "TH", "postal_code": "46150", "place_name": "Somdet", "latitude": "16.7", "longitude": "103.7667"}, {"country_code": "TH", "postal_code": "46160", "place_name": "Na Ku", "latitude": "16.7", "longitude": "104.1"}, {"country_code": "TH", "postal_code": "46160", "place_name": "Khao Wong", "latitude": "16.7", "longitude": "104.1"}, {"country_code": "TH", "postal_code": "46170", "place_name": "Huai Mek", "latitude": "16.6", "longitude": "103.2167"}, {"country_code": "TH", "postal_code": "46180", "place_name": "Kham Muang", "latitude": "16.9167", "longitude": "103.6333"}, {"country_code": "TH", "postal_code": "46190", "place_name": "Tha Khantho", "latitude": "16.95", "longitude": "103.2333"}, {"country_code": "TH", "postal_code": "46210", "place_name": "Rong Kham", "latitude": "16.2667", "longitude": "103.6833"}, {"country_code": "TH", "postal_code": "46220", "place_name": "Nong Kung Si", "latitude": "16.65", "longitude": "103.3"}, {"country_code": "TH", "postal_code": "46230", "place_name": "Na Mon", "latitude": "16.5667", "longitude": "103.8"}, {"country_code": "TH", "postal_code": "46240", "place_name": "Huai Phung", "latitude": "16.65", "longitude": "103.9"}, {"country_code": "TH", "postal_code": "47000", "place_name": "Muang Sakon Nakhon", "latitude": "17.4046", "longitude": "103.7674"}, {"country_code": "TH", "postal_code": "47110", "place_name": "Sawang Daen Din", "latitude": "17.4719", "longitude": "103.4583"}, {"country_code": "TH", "postal_code": "47120", "place_name": "Wanon Niwat", "latitude": "17.6333", "longitude": "103.7667"}, {"country_code": "TH", "postal_code": "47130", "place_name": "Phanna Nikhom", "latitude": "17.35", "longitude": "103.7833"}, {"country_code": "TH", "postal_code": "47140", "place_name": "Ban Muang", "latitude": "17.85", "longitude": "103.5833"}, {"country_code": "TH", "postal_code": "47150", "place_name": "Waritchaphum", "latitude": "17.2833", "longitude": "103.6333"}, {"country_code": "TH", "postal_code": "47160", "place_name": "Phang Khon", "latitude": "17.3833", "longitude": "103.7167"}, {"country_code": "TH", "postal_code": "47170", "place_name": "Akat Amnuai", "latitude": "17.434", "longitude": "103.6615"}, {"country_code": "TH", "postal_code": "47180", "place_name": "Phu Phan", "latitude": "17.0833", "longitude": "103.8167"}, {"country_code": "TH", "postal_code": "47180", "place_name": "Kut Bak", "latitude": "17.0833", "longitude": "103.8167"}, {"country_code": "TH", "postal_code": "47190", "place_name": "Song Dao", "latitude": "17.4167", "longitude": "103.5333"}, {"country_code": "TH", "postal_code": "47210", "place_name": "Kusuman", "latitude": "17.3333", "longitude": "104.3333"}, {"country_code": "TH", "postal_code": "47230", "place_name": "Pon Nakaew", "latitude": "17.3458", "longitude": "103.9792"}, {"country_code": "TH", "postal_code": "47250", "place_name": "Kham Ta Kla", "latitude": "17.85", "longitude": "103.75"}, {"country_code": "TH", "postal_code": "47260", "place_name": "Tao Ngoi", "latitude": "16.9833", "longitude": "104.1333"}, {"country_code": "TH", "postal_code": "47270", "place_name": "Nikhom Nam Un", "latitude": "17.2167", "longitude": "103.7"}, {"country_code": "TH", "postal_code": "47280", "place_name": "Khok Si Supan", "latitude": "17.3458", "longitude": "103.9792"}, {"country_code": "TH", "postal_code": "47290", "place_name": "Charoensin", "latitude": "17.3458", "longitude": "103.9792"}, {"country_code": "TH", "postal_code": "48000", "place_name": "Muang Nakhon Phanom", "latitude": "17.4", "longitude": "104.7833"}, {"country_code": "TH", "postal_code": "48110", "place_name": "That Phanom", "latitude": "16.95", "longitude": "104.7333"}, {"country_code": "TH", "postal_code": "48120", "place_name": "Tha Uthen", "latitude": "17.5667", "longitude": "104.6"}, {"country_code": "TH", "postal_code": "48120", "place_name": "Tha Songkhram", "latitude": "17.65", "longitude": "104.2167"}, {"country_code": "TH", "postal_code": "48130", "place_name": "Wang Yang", "latitude": "16.9667", "longitude": "104.5"}, {"country_code": "TH", "postal_code": "48130", "place_name": "Na Kae", "latitude": "16.9667", "longitude": "104.5"}, {"country_code": "TH", "postal_code": "48140", "place_name": "Na Thom", "latitude": "17.9667", "longitude": "104.2333"}, {"country_code": "TH", "postal_code": "48140", "place_name": "Ban Phaeng", "latitude": "17.9667", "longitude": "104.2333"}, {"country_code": "TH", "postal_code": "48150", "place_name": "Si Songkhram", "latitude": "17.6333", "longitude": "104.25"}, {"country_code": "TH", "postal_code": "48160", "place_name": "Pla Pak", "latitude": "17.1833", "longitude": "104.5333"}, {"country_code": "TH", "postal_code": "48170", "place_name": "Renu Nakhon", "latitude": "17.0667", "longitude": "104.6833"}, {"country_code": "TH", "postal_code": "48180", "place_name": "Na Wa", "latitude": "17.4833", "longitude": "104.1"}, {"country_code": "TH", "postal_code": "48190", "place_name": "Phon Sawan", "latitude": "17.45", "longitude": "104.45"}, {"country_code": "TH", "postal_code": "49000", "place_name": "Muang Mukdahan", "latitude": "16.4792", "longitude": "104.6583"}, {"country_code": "TH", "postal_code": "49110", "place_name": "Khamcha-I", "latitude": "16.5833", "longitude": "104.4167"}, {"country_code": "TH", "postal_code": "49120", "place_name": "Don Tan", "latitude": "16.3167", "longitude": "104.9333"}, {"country_code": "TH", "postal_code": "49130", "place_name": "Nikhom Kham Soi", "latitude": "16.3667", "longitude": "104.5667"}, {"country_code": "TH", "postal_code": "49140", "place_name": "Don Luang", "latitude": "16.4792", "longitude": "104.6583"}, {"country_code": "TH", "postal_code": "49150", "place_name": "Wan Yai", "latitude": "16.65", "longitude": "104.7167"}, {"country_code": "TH", "postal_code": "49160", "place_name": "Nong Sung", "latitude": "16.4792", "longitude": "104.6583"}, {"country_code": "TH", "postal_code": "50000", "place_name": "Muang Chiang Mai", "latitude": "18.7903", "longitude": "98.9817"}, {"country_code": "TH", "postal_code": "50110", "place_name": "Fang", "latitude": "19.9167", "longitude": "99.2167"}, {"country_code": "TH", "postal_code": "50120", "place_name": "San Pa Tong", "latitude": "18.6247", "longitude": "98.8944"}, {"country_code": "TH", "postal_code": "50130", "place_name": "San Kamphaeng", "latitude": "18.7422", "longitude": "99.1225"}, {"country_code": "TH", "postal_code": "50130", "place_name": "Mae On", "latitude": "18.7422", "longitude": "99.1225"}, {"country_code": "TH", "postal_code": "50140", "place_name": "Saraphi", "latitude": "18.7142", "longitude": "99.0353"}, {"country_code": "TH", "postal_code": "50150", "place_name": "Mae Taeng", "latitude": "19.1167", "longitude": "98.95"}, {"country_code": "TH", "postal_code": "50160", "place_name": "Chom Thong", "latitude": "18.4269", "longitude": "98.6781"}, {"country_code": "TH", "postal_code": "50160", "place_name": "Doi Lor", "latitude": "18.4269", "longitude": "98.6781"}, {"country_code": "TH", "postal_code": "50170", "place_name": "Chiang Dao", "latitude": "19.3667", "longitude": "98.9667"}, {"country_code": "TH", "postal_code": "50180", "place_name": "Mae Rim", "latitude": "18.9122", "longitude": "98.9397"}, {"country_code": "TH", "postal_code": "50190", "place_name": "Phrao", "latitude": "19.3667", "longitude": "99.2167"}, {"country_code": "TH", "postal_code": "50210", "place_name": "San Sai", "latitude": "18.8522", "longitude": "99.0453"}, {"country_code": "TH", "postal_code": "50220", "place_name": "Doi Saket", "latitude": "18.8744", "longitude": "99.1356"}, {"country_code": "TH", "postal_code": "50230", "place_name": "Hang Dong", "latitude": "18.6872", "longitude": "98.9167"}, {"country_code": "TH", "postal_code": "50240", "place_name": "Hot", "latitude": "18.19", "longitude": "98.6089"}, {"country_code": "TH", "postal_code": "50250", "place_name": "Samoeng", "latitude": "18.8503", "longitude": "98.7328"}, {"country_code": "TH", "postal_code": "50260", "place_name": "Doi Tao", "latitude": "17.9", "longitude": "98.7333"}, {"country_code": "TH", "postal_code": "50270", "place_name": "Mae Chaem", "latitude": "18.5014", "longitude": "98.3611"}, {"country_code": "TH", "postal_code": "50280", "place_name": "Mae Ai", "latitude": "18.5508", "longitude": "98.7905"}, {"country_code": "TH", "postal_code": "50310", "place_name": "Omkoi", "latitude": "17.8", "longitude": "98.3667"}, {"country_code": "TH", "postal_code": "50320", "place_name": "Chai Prakarn", "latitude": "18.8583", "longitude": "98.825"}, {"country_code": "TH", "postal_code": "50350", "place_name": "Weang Hang", "latitude": "18.8583", "longitude": "98.825"}, {"country_code": "TH", "postal_code": "50360", "place_name": "Mae Wang", "latitude": "19.9167", "longitude": "99.2833"}, {"country_code": "TH", "postal_code": "51000", "place_name": "Muang Lamphun", "latitude": "18.5811", "longitude": "99.0092"}, {"country_code": "TH", "postal_code": "51110", "place_name": "Li", "latitude": "17.8", "longitude": "98.95"}, {"country_code": "TH", "postal_code": "51120", "place_name": "Wiang Nonglong", "latitude": "18.5244", "longitude": "98.9386"}, {"country_code": "TH", "postal_code": "51120", "place_name": "Pa Sang", "latitude": "18.5244", "longitude": "98.9386"}, {"country_code": "TH", "postal_code": "51130", "place_name": "Ban Hong", "latitude": "18.3147", "longitude": "98.8175"}, {"country_code": "TH", "postal_code": "51140", "place_name": "Mae Tha", "latitude": "18.4614", "longitude": "99.1361"}, {"country_code": "TH", "postal_code": "51160", "place_name": "Thung Hua Chang", "latitude": "18", "longitude": "99.0333"}, {"country_code": "TH", "postal_code": "51180", "place_name": "Ban Thi", "latitude": "18.2201", "longitude": "98.9751"}, {"country_code": "TH", "postal_code": "52000", "place_name": "Muang Lampang", "latitude": "18.2983", "longitude": "99.5072"}, {"country_code": "TH", "postal_code": "52110", "place_name": "Ngao", "latitude": "18.7575", "longitude": "99.9783"}, {"country_code": "TH", "postal_code": "52120", "place_name": "Chae Hom", "latitude": "18.7022", "longitude": "99.5664"}, {"country_code": "TH", "postal_code": "52130", "place_name": "Ko Kha", "latitude": "18.19", "longitude": "99.3928"}, {"country_code": "TH", "postal_code": "52140", "place_name": "Wang Nua", "latitude": "19.15", "longitude": "99.6167"}, {"country_code": "TH", "postal_code": "52150", "place_name": "Mae Tha", "latitude": "18.1306", "longitude": "99.5092"}, {"country_code": "TH", "postal_code": "52160", "place_name": "Thoen", "latitude": "17.6025", "longitude": "99.2139"}, {"country_code": "TH", "postal_code": "52170", "place_name": "Sop Prap", "latitude": "17.8761", "longitude": "99.3431"}, {"country_code": "TH", "postal_code": "52180", "place_name": "Mae Phrik", "latitude": "17.4453", "longitude": "99.1222"}, {"country_code": "TH", "postal_code": "52190", "place_name": "Hang Chat", "latitude": "18.3264", "longitude": "99.3478"}, {"country_code": "TH", "postal_code": "52210", "place_name": "Soem Ngam", "latitude": "18.0333", "longitude": "99.2667"}, {"country_code": "TH", "postal_code": "52220", "place_name": "Mae Mo", "latitude": "18.2611", "longitude": "99.7042"}, {"country_code": "TH", "postal_code": "52240", "place_name": "Muang Pan", "latitude": "18.75", "longitude": "99.5"}, {"country_code": "TH", "postal_code": "53000", "place_name": "Muang Uttaradit", "latitude": "17.7168", "longitude": "100.5445"}, {"country_code": "TH", "postal_code": "53110", "place_name": "Nam Pat", "latitude": "17.7333", "longitude": "100.5667"}, {"country_code": "TH", "postal_code": "53120", "place_name": "Phichai", "latitude": "17.2872", "longitude": "100.0967"}, {"country_code": "TH", "postal_code": "53130", "place_name": "Laplae", "latitude": "17.7168", "longitude": "100.5445"}, {"country_code": "TH", "postal_code": "53140", "place_name": "Tron", "latitude": "17.4778", "longitude": "100.1189"}, {"country_code": "TH", "postal_code": "53150", "place_name": "Tha Pla", "latitude": "17.8", "longitude": "100.5333"}, {"country_code": "TH", "postal_code": "53160", "place_name": "Fak Tha", "latitude": "17.9833", "longitude": "100.8833"}, {"country_code": "TH", "postal_code": "53180", "place_name": "Ban Khok", "latitude": "18.0189", "longitude": "101.0681"}, {"country_code": "TH", "postal_code": "53230", "place_name": "Tong Saen Khan", "latitude": "17.7168", "longitude": "100.5445"}, {"country_code": "TH", "postal_code": "54000", "place_name": "Muang Phrae", "latitude": "18.15", "longitude": "100.1333"}, {"country_code": "TH", "postal_code": "54120", "place_name": "Song", "latitude": "18.4667", "longitude": "100.1833"}, {"country_code": "TH", "postal_code": "54130", "place_name": "Sung Men", "latitude": "18.05", "longitude": "100.1167"}, {"country_code": "TH", "postal_code": "54140", "place_name": "Rong Kwang", "latitude": "18.35", "longitude": "100.3167"}, {"country_code": "TH", "postal_code": "54140", "place_name": "Den Chai", "latitude": "17.9794", "longitude": "100.0533"}, {"country_code": "TH", "postal_code": "54150", "place_name": "Long", "latitude": "18.0747", "longitude": "99.8303"}, {"country_code": "TH", "postal_code": "54160", "place_name": "Wang Chin", "latitude": "17.8908", "longitude": "99.6064"}, {"country_code": "TH", "postal_code": "54170", "place_name": "Nong Muangkhai", "latitude": "18.1353", "longitude": "100.0178"}, {"country_code": "TH", "postal_code": "55000", "place_name": "Santisuk", "latitude": "18.7833", "longitude": "100.7833"}, {"country_code": "TH", "postal_code": "55000", "place_name": "Phu Piang", "latitude": "18.7833", "longitude": "100.7833"}, {"country_code": "TH", "postal_code": "55000", "place_name": "Muang Nan", "latitude": "18.7833", "longitude": "100.7833"}, {"country_code": "TH", "postal_code": "55110", "place_name": "Wiang Sa", "latitude": "18.5667", "longitude": "100.75"}, {"country_code": "TH", "postal_code": "55120", "place_name": "Pua", "latitude": "19.1833", "longitude": "100.9167"}, {"country_code": "TH", "postal_code": "55130", "place_name": "Chaloem Phrakiat", "latitude": "19.4167", "longitude": "100.8833"}, {"country_code": "TH", "postal_code": "55130", "place_name": "Thung Chang", "latitude": "19.4167", "longitude": "100.8833"}, {"country_code": "TH", "postal_code": "55140", "place_name": "Tha Wang Pha", "latitude": "19.1", "longitude": "100.8167"}, {"country_code": "TH", "postal_code": "55150", "place_name": "Na Noi", "latitude": "18.3167", "longitude": "100.7167"}, {"country_code": "TH", "postal_code": "55160", "place_name": "Song Khaew", "latitude": "19.3", "longitude": "100.8667"}, {"country_code": "TH", "postal_code": "55160", "place_name": "Chiang Klang", "latitude": "19.3", "longitude": "100.8667"}, {"country_code": "TH", "postal_code": "55170", "place_name": "Mae Charim", "latitude": "18.7167", "longitude": "101.0333"}, {"country_code": "TH", "postal_code": "55180", "place_name": "Na Mun", "latitude": "18.1833", "longitude": "100.6667"}, {"country_code": "TH", "postal_code": "55190", "place_name": "Ban Luang", "latitude": "18.8333", "longitude": "100.45"}, {"country_code": "TH", "postal_code": "55220", "place_name": "Bo Klua", "latitude": "19.0833", "longitude": "101.0833"}, {"country_code": "TH", "postal_code": "56000", "place_name": "Muang Phayao", "latitude": "19.1667", "longitude": "99.9167"}, {"country_code": "TH", "postal_code": "56000", "place_name": "Pu Khamyaw", "latitude": "19.1667", "longitude": "99.9167"}, {"country_code": "TH", "postal_code": "56110", "place_name": "Chiang Kham", "latitude": "19.5239", "longitude": "100.2992"}, {"country_code": "TH", "postal_code": "56110", "place_name": "Pu Sang", "latitude": "19.5239", "longitude": "100.2992"}, {"country_code": "TH", "postal_code": "56120", "place_name": "Dok Kham Tai", "latitude": "19.3302", "longitude": "100.2497"}, {"country_code": "TH", "postal_code": "56130", "place_name": "Mae Chai", "latitude": "19.3302", "longitude": "100.2497"}, {"country_code": "TH", "postal_code": "56140", "place_name": "Pong", "latitude": "19.1667", "longitude": "100.2833"}, {"country_code": "TH", "postal_code": "56150", "place_name": "Chun", "latitude": "19.3", "longitude": "100.1667"}, {"country_code": "TH", "postal_code": "56160", "place_name": "Chiacg Muan", "latitude": "19.3302", "longitude": "100.2497"}, {"country_code": "TH", "postal_code": "57000", "place_name": "Muang Chiang Rai", "latitude": "19.9", "longitude": "99.8333"}, {"country_code": "TH", "postal_code": "57110", "place_name": "Mae Chan", "latitude": "20.1472", "longitude": "99.8539"}, {"country_code": "TH", "postal_code": "57110", "place_name": "Mae Pha Luang", "latitude": "20.2236", "longitude": "100.0936"}, {"country_code": "TH", "postal_code": "57110", "place_name": "Doi Luang", "latitude": "20.3", "longitude": "100.3333"}, {"country_code": "TH", "postal_code": "57120", "place_name": "Phan", "latitude": "19.5667", "longitude": "99.7333"}, {"country_code": "TH", "postal_code": "57130", "place_name": "Mae Sai", "latitude": "20.43", "longitude": "99.8858"}, {"country_code": "TH", "postal_code": "57140", "place_name": "Chiang Khong", "latitude": "20.2833", "longitude": "100.4"}, {"country_code": "TH", "postal_code": "57150", "place_name": "Chiang Saen", "latitude": "20.1472", "longitude": "99.8539"}, {"country_code": "TH", "postal_code": "57160", "place_name": "Thoeng", "latitude": "19.6833", "longitude": "100.2"}, {"country_code": "TH", "postal_code": "57170", "place_name": "Wiang Pa Pao", "latitude": "19.3667", "longitude": "99.5"}, {"country_code": "TH", "postal_code": "57180", "place_name": "Mae Suai", "latitude": "19.65", "longitude": "99.55"}, {"country_code": "TH", "postal_code": "57190", "place_name": "Pa Daet", "latitude": "19.5", "longitude": "100"}, {"country_code": "TH", "postal_code": "57210", "place_name": "Wiang Chai", "latitude": "19.8833", "longitude": "99.9167"}, {"country_code": "TH", "postal_code": "57210", "place_name": "Wiang Chiang Rung", "latitude": "19.8833", "longitude": "99.9167"}, {"country_code": "TH", "postal_code": "57250", "place_name": "Mae Lao", "latitude": "19.8833", "longitude": "99.9167"}, {"country_code": "TH", "postal_code": "57290", "place_name": "Phaya Mengrai", "latitude": "19.8833", "longitude": "99.9167"}, {"country_code": "TH", "postal_code": "57310", "place_name": "Wiang Kaen", "latitude": "19.9048", "longitude": "99.9217"}, {"country_code": "TH", "postal_code": "57340", "place_name": "Khun Tan", "latitude": "19.9048", "longitude": "99.9217"}, {"country_code": "TH", "postal_code": "58000", "place_name": "Muang Mae Hong Son", "latitude": "18.6712", "longitude": "98.0633"}, {"country_code": "TH", "postal_code": "58110", "place_name": "Mae Sariang", "latitude": "18.1578", "longitude": "97.9336"}, {"country_code": "TH", "postal_code": "58110", "place_name": "Sop Moei", "latitude": "18.1578", "longitude": "97.9336"}, {"country_code": "TH", "postal_code": "58120", "place_name": "Mae La Noi", "latitude": "18.3814", "longitude": "97.9356"}, {"country_code": "TH", "postal_code": "58130", "place_name": "Pai", "latitude": "19.3167", "longitude": "98.45"}, {"country_code": "TH", "postal_code": "58140", "place_name": "Khun Yuam", "latitude": "18.8289", "longitude": "97.9342"}, {"country_code": "TH", "postal_code": "58150", "place_name": "Pang Mapha", "latitude": "18.6712", "longitude": "98.0633"}, {"country_code": "TH", "postal_code": "60000", "place_name": "Muang Nakhon Sawan", "latitude": "15.6833", "longitude": "100.1167"}, {"country_code": "TH", "postal_code": "60110", "place_name": "Nong Bua", "latitude": "15.8667", "longitude": "100.5833"}, {"country_code": "TH", "postal_code": "60120", "place_name": "Chumsaeng", "latitude": "15.6454", "longitude": "100.2218"}, {"country_code": "TH", "postal_code": "60130", "place_name": "Phayuha Khiri", "latitude": "15.45", "longitude": "100.1333"}, {"country_code": "TH", "postal_code": "60140", "place_name": "Takhli", "latitude": "15.6454", "longitude": "100.2218"}, {"country_code": "TH", "postal_code": "60150", "place_name": "Chum Tabong", "latitude": "15.7506", "longitude": "99.7903"}, {"country_code": "TH", "postal_code": "60150", "place_name": "Lat Yao", "latitude": "15.7506", "longitude": "99.7903"}, {"country_code": "TH", "postal_code": "60150", "place_name": "Mae Poen", "latitude": "15.7506", "longitude": "99.7903"}, {"country_code": "TH", "postal_code": "60150", "place_name": "Mae Wong", "latitude": "15.7506", "longitude": "99.7903"}, {"country_code": "TH", "postal_code": "60160", "place_name": "Tha Tako", "latitude": "15.6333", "longitude": "100.4833"}, {"country_code": "TH", "postal_code": "60170", "place_name": "Krok Phra", "latitude": "15.55", "longitude": "100.0833"}, {"country_code": "TH", "postal_code": "60180", "place_name": "Banphot Phisai", "latitude": "15.9342", "longitude": "99.9789"}, {"country_code": "TH", "postal_code": "60190", "place_name": "Tak Fa", "latitude": "15.3333", "longitude": "100.5"}, {"country_code": "TH", "postal_code": "60220", "place_name": "Phaisali", "latitude": "15.6", "longitude": "100.65"}, {"country_code": "TH", "postal_code": "60230", "place_name": "Kao Lieo", "latitude": "15.85", "longitude": "100.0833"}, {"country_code": "TH", "postal_code": "61000", "place_name": "Muang Uthai Thani", "latitude": "15.3667", "longitude": "100.05"}, {"country_code": "TH", "postal_code": "61110", "place_name": "Nong Chang", "latitude": "15.3919", "longitude": "99.8439"}, {"country_code": "TH", "postal_code": "61120", "place_name": "Thap Than", "latitude": "15.4594", "longitude": "99.8925"}, {"country_code": "TH", "postal_code": "61130", "place_name": "Nong Khayang", "latitude": "15.3619", "longitude": "99.9292"}, {"country_code": "TH", "postal_code": "61140", "place_name": "Ban Rai", "latitude": "15.3667", "longitude": "99.85"}, {"country_code": "TH", "postal_code": "61150", "place_name": "Sawang Arom", "latitude": "15.6167", "longitude": "99.8667"}, {"country_code": "TH", "postal_code": "61160", "place_name": "Lan Sak", "latitude": "15.4167", "longitude": "99.6833"}, {"country_code": "TH", "postal_code": "61170", "place_name": "Huai Khot", "latitude": "15.1333", "longitude": "99.5667"}, {"country_code": "TH", "postal_code": "62000", "place_name": "Muang Kamphaeng Phet", "latitude": "16.31", "longitude": "99.68"}, {"country_code": "TH", "postal_code": "62110", "place_name": "Phran Kratai", "latitude": "16.6667", "longitude": "99.6"}, {"country_code": "TH", "postal_code": "62120", "place_name": "Khlong Khlung", "latitude": "16.2", "longitude": "99.7167"}, {"country_code": "TH", "postal_code": "62120", "place_name": "Pangslila Thong", "latitude": "16.2", "longitude": "99.7167"}, {"country_code": "TH", "postal_code": "62130", "place_name": "Khanu Woralaksaburi", "latitude": "16.0667", "longitude": "99.8667"}, {"country_code": "TH", "postal_code": "62150", "place_name": "Sai Ngam", "latitude": "16.5", "longitude": "99.9167"}, {"country_code": "TH", "postal_code": "62170", "place_name": "Lan Krabue", "latitude": "16.31", "longitude": "99.68"}, {"country_code": "TH", "postal_code": "62170", "place_name": "Khosamphi Nakhon", "latitude": "16.31", "longitude": "99.68"}, {"country_code": "TH", "postal_code": "62180", "place_name": "Khlong Lan", "latitude": "16.1167", "longitude": "99.3"}, {"country_code": "TH", "postal_code": "62190", "place_name": "Saithong Wattana", "latitude": "16.31", "longitude": "99.68"}, {"country_code": "TH", "postal_code": "62210", "place_name": "Bung Samakki", "latitude": "16.31", "longitude": "99.68"}, {"country_code": "TH", "postal_code": "63000", "place_name": "Muang Tak", "latitude": "16.8667", "longitude": "99.1333"}, {"country_code": "TH", "postal_code": "63000", "place_name": "Wang Chaw", "latitude": "16.8667", "longitude": "99.1333"}, {"country_code": "TH", "postal_code": "63110", "place_name": "Mae Sot", "latitude": "16.7167", "longitude": "98.5667"}, {"country_code": "TH", "postal_code": "63120", "place_name": "Ban Tak", "latitude": "17.0406", "longitude": "99.0631"}, {"country_code": "TH", "postal_code": "63130", "place_name": "Sam Ngao", "latitude": "17.2119", "longitude": "99.0578"}, {"country_code": "TH", "postal_code": "63140", "place_name": "Mae Ramat", "latitude": "16.9667", "longitude": "98.5167"}, {"country_code": "TH", "postal_code": "63150", "place_name": "Tha Song Yang", "latitude": "17.2167", "longitude": "98.2333"}, {"country_code": "TH", "postal_code": "63160", "place_name": "Phob Phra", "latitude": "16.8615", "longitude": "98.7174"}, {"country_code": "TH", "postal_code": "63170", "place_name": "Umphang", "latitude": "16.0167", "longitude": "98.8667"}, {"country_code": "TH", "postal_code": "64000", "place_name": "Muang Sukhothai", "latitude": "17.1772", "longitude": "99.8064"}, {"country_code": "TH", "postal_code": "64110", "place_name": "Sawankhalok", "latitude": "17.3086", "longitude": "99.8342"}, {"country_code": "TH", "postal_code": "64120", "place_name": "Si Samrong", "latitude": "17.1631", "longitude": "99.8672"}, {"country_code": "TH", "postal_code": "64130", "place_name": "Si Satchanalai", "latitude": "17.5167", "longitude": "99.7667"}, {"country_code": "TH", "postal_code": "64140", "place_name": "Ban Dan Lan Hoi", "latitude": "17.0153", "longitude": "99.7078"}, {"country_code": "TH", "postal_code": "64150", "place_name": "Thung Saliam", "latitude": "17.3136", "longitude": "99.5589"}, {"country_code": "TH", "postal_code": "64160", "place_name": "Khiri Mat", "latitude": "16.8333", "longitude": "99.8"}, {"country_code": "TH", "postal_code": "64170", "place_name": "Kong Krailat", "latitude": "16.9333", "longitude": "99.9667"}, {"country_code": "TH", "postal_code": "64180", "place_name": "Si Nakhon", "latitude": "17.3333", "longitude": "99.95"}, {"country_code": "TH", "postal_code": "65000", "place_name": "Muang Phitsanulok", "latitude": "16.8333", "longitude": "100.25"}, {"country_code": "TH", "postal_code": "65110", "place_name": "Bang Krathum", "latitude": "16.5667", "longitude": "100.3"}, {"country_code": "TH", "postal_code": "65120", "place_name": "Nakhon Thai", "latitude": "17.1167", "longitude": "100.8333"}, {"country_code": "TH", "postal_code": "65130", "place_name": "Wang Thong", "latitude": "16.8333", "longitude": "100.4333"}, {"country_code": "TH", "postal_code": "65140", "place_name": "Bang Rakam", "latitude": "16.75", "longitude": "100.1167"}, {"country_code": "TH", "postal_code": "65150", "place_name": "Phrom Phiram", "latitude": "17.0331", "longitude": "100.2019"}, {"country_code": "TH", "postal_code": "65160", "place_name": "Wat Bot", "latitude": "17", "longitude": "100.3167"}, {"country_code": "TH", "postal_code": "65170", "place_name": "Chat Trakan", "latitude": "17.2833", "longitude": "100.65"}, {"country_code": "TH", "postal_code": "65190", "place_name": "Noen Maprang", "latitude": "16.5667", "longitude": "100.6333"}, {"country_code": "TH", "postal_code": "66000", "place_name": "Muang Phichit", "latitude": "16.4333", "longitude": "100.3667"}, {"country_code": "TH", "postal_code": "66110", "place_name": "Taphan Hin", "latitude": "16.2167", "longitude": "100.4333"}, {"country_code": "TH", "postal_code": "66120", "place_name": "Bang Mun Nak", "latitude": "16.0333", "longitude": "100.3833"}, {"country_code": "TH", "postal_code": "66130", "place_name": "Bung Norong", "latitude": "16.0833", "longitude": "100.2667"}, {"country_code": "TH", "postal_code": "66130", "place_name": "Pho Thale", "latitude": "16.0833", "longitude": "100.2667"}, {"country_code": "TH", "postal_code": "66140", "place_name": "Sam Ngam", "latitude": "16.5167", "longitude": "100.2167"}, {"country_code": "TH", "postal_code": "66140", "place_name": "Wachirabarami", "latitude": "16.5167", "longitude": "100.2167"}, {"country_code": "TH", "postal_code": "66150", "place_name": "Tab Khlo", "latitude": "16.2722", "longitude": "100.35"}, {"country_code": "TH", "postal_code": "66160", "place_name": "Sak Lek", "latitude": "16.4833", "longitude": "100.4833"}, {"country_code": "TH", "postal_code": "66180", "place_name": "Wang Sai Phun", "latitude": "16.2722", "longitude": "100.35"}, {"country_code": "TH", "postal_code": "66190", "place_name": "Pho Prathap Chang", "latitude": "16.3", "longitude": "100.3167"}, {"country_code": "TH", "postal_code": "66210", "place_name": "Dong Charoen", "latitude": "16.2952", "longitude": "100.3524"}, {"country_code": "TH", "postal_code": "70000", "place_name": "Muang Ratchaburi", "latitude": "13.5854", "longitude": "99.7875"}, {"country_code": "TH", "postal_code": "70110", "place_name": "Ban Pong", "latitude": "13.8167", "longitude": "99.8833"}, {"country_code": "TH", "postal_code": "70120", "place_name": "Photharam", "latitude": "13.6833", "longitude": "99.85"}, {"country_code": "TH", "postal_code": "70130", "place_name": "Damnoen Saduak", "latitude": "13.5167", "longitude": "99.9333"}, {"country_code": "TH", "postal_code": "70140", "place_name": "Pak Tho", "latitude": "13.3833", "longitude": "99.85"}, {"country_code": "TH", "postal_code": "70150", "place_name": "Chom Bung", "latitude": "13.6167", "longitude": "99.6"}, {"country_code": "TH", "postal_code": "70160", "place_name": "Bang Phae", "latitude": "13.7", "longitude": "99.9333"}, {"country_code": "TH", "postal_code": "70170", "place_name": "Wat Phleng", "latitude": "13.45", "longitude": "99.9"}, {"country_code": "TH", "postal_code": "70180", "place_name": "Ban Ka", "latitude": "13.5167", "longitude": "99.35"}, {"country_code": "TH", "postal_code": "70180", "place_name": "Suan Phung", "latitude": "13.5167", "longitude": "99.35"}, {"country_code": "TH", "postal_code": "71000", "place_name": "Muang Kanchanaburi", "latitude": "14.2617", "longitude": "99.4036"}, {"country_code": "TH", "postal_code": "71110", "place_name": "Tha Muang", "latitude": "13.9667", "longitude": "99.6333"}, {"country_code": "TH", "postal_code": "71120", "place_name": "Tha Maka", "latitude": "13.9", "longitude": "99.7667"}, {"country_code": "TH", "postal_code": "71140", "place_name": "Phanom Thuan", "latitude": "14.1258", "longitude": "99.7011"}, {"country_code": "TH", "postal_code": "71150", "place_name": "Sai Yok", "latitude": "14.1169", "longitude": "99.1375"}, {"country_code": "TH", "postal_code": "71160", "place_name": "Bo Phloi", "latitude": "14.3236", "longitude": "99.5161"}, {"country_code": "TH", "postal_code": "71170", "place_name": "Huai Khaiaw", "latitude": "14.0866", "longitude": "99.5509"}, {"country_code": "TH", "postal_code": "71180", "place_name": "Thong Phaphum", "latitude": "14.0866", "longitude": "99.5509"}, {"country_code": "TH", "postal_code": "71210", "place_name": "Lao Khwan", "latitude": "14.65", "longitude": "99.8"}, {"country_code": "TH", "postal_code": "71220", "place_name": "Nong Prue", "latitude": "14.4806", "longitude": "99.2194"}, {"country_code": "TH", "postal_code": "71240", "place_name": "Sangkhla Buri", "latitude": "14.7333", "longitude": "98.6333"}, {"country_code": "TH", "postal_code": "71250", "place_name": "Si Sawat", "latitude": "14.6892", "longitude": "99.0275"}, {"country_code": "TH", "postal_code": "71260", "place_name": "Dan Makham Tia", "latitude": "13.85", "longitude": "99.4167"}, {"country_code": "TH", "postal_code": "72000", "place_name": "Muang Suphan Buri", "latitude": "14.576", "longitude": "100.0286"}, {"country_code": "TH", "postal_code": "72110", "place_name": "Song Phi Nong", "latitude": "14.2167", "longitude": "100.05"}, {"country_code": "TH", "postal_code": "72120", "place_name": "Doembang Nangbuat", "latitude": "14.576", "longitude": "100.0286"}, {"country_code": "TH", "postal_code": "72130", "place_name": "Sam Chuk", "latitude": "14.75", "longitude": "100.1"}, {"country_code": "TH", "postal_code": "72140", "place_name": "Si Prachan", "latitude": "14.6167", "longitude": "100.15"}, {"country_code": "TH", "postal_code": "72150", "place_name": "Bang Pla Ma", "latitude": "14.4228", "longitude": "100.1381"}, {"country_code": "TH", "postal_code": "72160", "place_name": "U-Thong", "latitude": "14.576", "longitude": "100.0286"}, {"country_code": "TH", "postal_code": "72170", "place_name": "Don Chedi", "latitude": "14.6333", "longitude": "100.0333"}, {"country_code": "TH", "postal_code": "72180", "place_name": "Dan Chang", "latitude": "14.8167", "longitude": "99.7"}, {"country_code": "TH", "postal_code": "72240", "place_name": "Nong Yasai", "latitude": "14.576", "longitude": "100.0286"}, {"country_code": "TH", "postal_code": "73000", "place_name": "Muang Nakhon Pathom", "latitude": "13.8667", "longitude": "100.1917"}, {"country_code": "TH", "postal_code": "73110", "place_name": "Sam Phran", "latitude": "13.7167", "longitude": "100.2167"}, {"country_code": "TH", "postal_code": "73120", "place_name": "Nakhon Chaisi", "latitude": "13.8667", "longitude": "100.1917"}, {"country_code": "TH", "postal_code": "73130", "place_name": "Bang Len", "latitude": "14.0167", "longitude": "100.1667"}, {"country_code": "TH", "postal_code": "73140", "place_name": "Khamphaeng Saen", "latitude": "13.8667", "longitude": "100.1917"}, {"country_code": "TH", "postal_code": "73150", "place_name": "Don Tum", "latitude": "13.8667", "longitude": "100.1917"}, {"country_code": "TH", "postal_code": "73170", "place_name": "Phutha Monthon", "latitude": "13.8667", "longitude": "100.1917"}, {"country_code": "TH", "postal_code": "74000", "place_name": "Muang Samut Sakhon", "latitude": "13.5333", "longitude": "100.2833"}, {"country_code": "TH", "postal_code": "74110", "place_name": "Krathum Baen", "latitude": "13.65", "longitude": "100.2667"}, {"country_code": "TH", "postal_code": "74120", "place_name": "Ban Phaeo", "latitude": "13.5833", "longitude": "100.1167"}, {"country_code": "TH", "postal_code": "75000", "place_name": "Muang Samut Songkhram", "latitude": "13.4", "longitude": "100"}, {"country_code": "TH", "postal_code": "75110", "place_name": "Amphawa", "latitude": "13.4167", "longitude": "99.95"}, {"country_code": "TH", "postal_code": "75120", "place_name": "Bang Khonthi", "latitude": "13.4667", "longitude": "99.9333"}, {"country_code": "TH", "postal_code": "67000", "place_name": "Muang Phetchabun", "latitude": "16.4167", "longitude": "101.1333"}, {"country_code": "TH", "postal_code": "67110", "place_name": "Lom Sak", "latitude": "16.7833", "longitude": "101.25"}, {"country_code": "TH", "postal_code": "67120", "place_name": "Lom Kao", "latitude": "16.8833", "longitude": "101.2333"}, {"country_code": "TH", "postal_code": "67130", "place_name": "Wichian Buri", "latitude": "15.6589", "longitude": "101.1125"}, {"country_code": "TH", "postal_code": "67140", "place_name": "Nong Phai", "latitude": "15.9825", "longitude": "101.0622"}, {"country_code": "TH", "postal_code": "67150", "place_name": "Chon Daen", "latitude": "16.1833", "longitude": "100.85"}, {"country_code": "TH", "postal_code": "67160", "place_name": "Bung Sam Phan", "latitude": "15.7833", "longitude": "101.0333"}, {"country_code": "TH", "postal_code": "67170", "place_name": "Si Thep", "latitude": "15.4469", "longitude": "101.0725"}, {"country_code": "TH", "postal_code": "67240", "place_name": "Wang Pong", "latitude": "16.3333", "longitude": "100.8"}, {"country_code": "TH", "postal_code": "67260", "place_name": "Nam Nao", "latitude": "16.75", "longitude": "101.75"}, {"country_code": "TH", "postal_code": "67270", "place_name": "Khao Kho", "latitude": "16.6667", "longitude": "100.9667"}, {"country_code": "TH", "postal_code": "76000", "place_name": "Muang Phetchaburi", "latitude": "13.0694", "longitude": "100.0528"}, {"country_code": "TH", "postal_code": "76110", "place_name": "Ban Laem", "latitude": "13.2167", "longitude": "99.9833"}, {"country_code": "TH", "postal_code": "76120", "place_name": "Cha-Am", "latitude": "12.8", "longitude": "99.9667"}, {"country_code": "TH", "postal_code": "76130", "place_name": "Tha Yang", "latitude": "12.9667", "longitude": "100.9"}, {"country_code": "TH", "postal_code": "76140", "place_name": "Khao Yoi", "latitude": "13.2333", "longitude": "99.8333"}, {"country_code": "TH", "postal_code": "76150", "place_name": "Ban Lat", "latitude": "13.05", "longitude": "99.9333"}, {"country_code": "TH", "postal_code": "76160", "place_name": "Nong Ya Plong", "latitude": "13.15", "longitude": "99.7"}, {"country_code": "TH", "postal_code": "76170", "place_name": "Kang Krachan", "latitude": "13.0694", "longitude": "100.0528"}, {"country_code": "TH", "postal_code": "77000", "place_name": "Muang prachuap Khirikan", "latitude": "11.7972", "longitude": "99.7278"}, {"country_code": "TH", "postal_code": "77110", "place_name": "Hua Hin", "latitude": "12.5667", "longitude": "99.9667"}, {"country_code": "TH", "postal_code": "77120", "place_name": "Pran Buri", "latitude": "12.3833", "longitude": "99.9167"}, {"country_code": "TH", "postal_code": "77130", "place_name": "Thap Sakae", "latitude": "11.5", "longitude": "99.6167"}, {"country_code": "TH", "postal_code": "77140", "place_name": "Bang Saphan", "latitude": "11.2", "longitude": "99.5167"}, {"country_code": "TH", "postal_code": "77150", "place_name": "Kui Buri", "latitude": "12.05", "longitude": "99.8667"}, {"country_code": "TH", "postal_code": "77170", "place_name": "Bang Saphan Noi", "latitude": "11.0833", "longitude": "99.4833"}, {"country_code": "TH", "postal_code": "77180", "place_name": "Samaroiyod", "latitude": "11.7972", "longitude": "99.7278"}, {"country_code": "TH", "postal_code": "80000", "place_name": "Muang Nakhon Si Thammarat", "latitude": "14.65", "longitude": "100.6"}, {"country_code": "TH", "postal_code": "80000", "place_name": "Phra Phrom", "latitude": "14.65", "longitude": "100.6"}, {"country_code": "TH", "postal_code": "80110", "place_name": "Thung Song", "latitude": "8.15", "longitude": "99.7333"}, {"country_code": "TH", "postal_code": "80120", "place_name": "Sichon", "latitude": "9", "longitude": "99.9"}, {"country_code": "TH", "postal_code": "80130", "place_name": "Ron Phibun", "latitude": "8.15", "longitude": "99.85"}, {"country_code": "TH", "postal_code": "80130", "place_name": "Chula Phon", "latitude": "8.15", "longitude": "99.85"}, {"country_code": "TH", "postal_code": "80140", "place_name": "Pak Phanang", "latitude": "8.35", "longitude": "100.2"}, {"country_code": "TH", "postal_code": "80150", "place_name": "Chawang", "latitude": "8.4167", "longitude": "99.5"}, {"country_code": "TH", "postal_code": "80160", "place_name": "Nob Pitam", "latitude": "8.6667", "longitude": "99.9333"}, {"country_code": "TH", "postal_code": "80160", "place_name": "Tha Sala", "latitude": "8.6667", "longitude": "99.9333"}, {"country_code": "TH", "postal_code": "80170", "place_name": "Hua Sai", "latitude": "8.0333", "longitude": "100.3"}, {"country_code": "TH", "postal_code": "80180", "place_name": "Cha-uat", "latitude": "7.9667", "longitude": "100"}, {"country_code": "TH", "postal_code": "80190", "place_name": "Chian Yai", "latitude": "8.1667", "longitude": "100.15"}, {"country_code": "TH", "postal_code": "80190", "place_name": "Chaloem Phrakiat", "latitude": "8.1667", "longitude": "100.15"}, {"country_code": "TH", "postal_code": "80210", "place_name": "Khanom", "latitude": "9.2", "longitude": "99.8667"}, {"country_code": "TH", "postal_code": "80220", "place_name": "Na Bon", "latitude": "8.25", "longitude": "99.5833"}, {"country_code": "TH", "postal_code": "80230", "place_name": "Lan Saka", "latitude": "8.35", "longitude": "99.8"}, {"country_code": "TH", "postal_code": "80240", "place_name": "Thung Yai", "latitude": "8.3", "longitude": "99.3667"}, {"country_code": "TH", "postal_code": "80250", "place_name": "Chang Khlang", "latitude": "8.54", "longitude": "99.65"}, {"country_code": "TH", "postal_code": "80260", "place_name": "Tham Punnara", "latitude": "8.54", "longitude": "99.65"}, {"country_code": "TH", "postal_code": "80270", "place_name": "Phipun", "latitude": "8.6", "longitude": "99.6333"}, {"country_code": "TH", "postal_code": "80320", "place_name": "Phromkhiri", "latitude": "8", "longitude": "99.5333"}, {"country_code": "TH", "postal_code": "80360", "place_name": "Bang Khan", "latitude": "8", "longitude": "99.5333"}, {"country_code": "TH", "postal_code": "84310", "place_name": "Lamai Beach", "latitude": "9.4659", "longitude": "100.045"}, {"country_code": "TH", "postal_code": "81000", "place_name": "Muang Krabi", "latitude": "8.119", "longitude": "99.0214"}, {"country_code": "TH", "postal_code": "81110", "place_name": "Ao Luk", "latitude": "8.3833", "longitude": "98.7167"}, {"country_code": "TH", "postal_code": "81120", "place_name": "Khlong Thom", "latitude": "7.9333", "longitude": "99.15"}, {"country_code": "TH", "postal_code": "81120", "place_name": "Lam Thap", "latitude": "8.0667", "longitude": "99.3"}, {"country_code": "TH", "postal_code": "81130", "place_name": "Nua Khlong", "latitude": "8.0667", "longitude": "99"}, {"country_code": "TH", "postal_code": "81140", "place_name": "Khao Phanom", "latitude": "8.25", "longitude": "99.0333"}, {"country_code": "TH", "postal_code": "81150", "place_name": "Ko Lanta", "latitude": "7.55", "longitude": "99.0833"}, {"country_code": "TH", "postal_code": "81160", "place_name": "Plai Phraya", "latitude": "8.5833", "longitude": "98.8667"}, {"country_code": "TH", "postal_code": "82000", "place_name": "Muang Phang Nga", "latitude": "8.6944", "longitude": "98.4389"}, {"country_code": "TH", "postal_code": "82110", "place_name": "Takua Pa", "latitude": "8.8333", "longitude": "98.3667"}, {"country_code": "TH", "postal_code": "82120", "place_name": "Thai Muang", "latitude": "8.5333", "longitude": "98.3"}, {"country_code": "TH", "postal_code": "82130", "place_name": "Takua Thung", "latitude": "8.4", "longitude": "98.45"}, {"country_code": "TH", "postal_code": "82150", "place_name": "Khura Buri", "latitude": "9.2", "longitude": "98.4333"}, {"country_code": "TH", "postal_code": "82160", "place_name": "Koh Yao", "latitude": "8.6944", "longitude": "98.4389"}, {"country_code": "TH", "postal_code": "82170", "place_name": "Kapong", "latitude": "8.6833", "longitude": "98.45"}, {"country_code": "TH", "postal_code": "82180", "place_name": "Thap Put", "latitude": "8.5167", "longitude": "98.6333"}, {"country_code": "TH", "postal_code": "83000", "place_name": "Muang Phuket", "latitude": "7.95", "longitude": "98.3583"}, {"country_code": "TH", "postal_code": "83110", "place_name": "Thalang", "latitude": "7.9833", "longitude": "98.3667"}, {"country_code": "TH", "postal_code": "83120", "place_name": "Kathu", "latitude": "7.9167", "longitude": "98.35"}, {"country_code": "TH", "postal_code": "84000", "place_name": "Muang Surat Thani", "latitude": "9.1308", "longitude": "99.3628"}, {"country_code": "TH", "postal_code": "84110", "place_name": "Chaiya", "latitude": "9.3833", "longitude": "99.2333"}, {"country_code": "TH", "postal_code": "84120", "place_name": "Ban Na San", "latitude": "8.8", "longitude": "99.3667"}, {"country_code": "TH", "postal_code": "84130", "place_name": "Phunphin", "latitude": "9.1167", "longitude": "99.2"}, {"country_code": "TH", "postal_code": "84140", "place_name": "Ko Samui", "latitude": "9.4333", "longitude": "99.9667"}, {"country_code": "TH", "postal_code": "84150", "place_name": "Tha Chang", "latitude": "9.1417", "longitude": "99.3313"}, {"country_code": "TH", "postal_code": "84160", "place_name": "Kanchanadit", "latitude": "9.1667", "longitude": "99.4667"}, {"country_code": "TH", "postal_code": "84170", "place_name": "Tha Chana", "latitude": "9.5667", "longitude": "99.15"}, {"country_code": "TH", "postal_code": "84180", "place_name": "Wiphawadi", "latitude": "9.0333", "longitude": "98.9167"}, {"country_code": "TH", "postal_code": "84180", "place_name": "Khiri Ratthanikhom", "latitude": "9.0333", "longitude": "98.9167"}, {"country_code": "TH", "postal_code": "84190", "place_name": "Wiang Sa", "latitude": "8.6333", "longitude": "99.35"}, {"country_code": "TH", "postal_code": "84210", "place_name": "Chai Buri", "latitude": "9.1133", "longitude": "99.4133"}, {"country_code": "TH", "postal_code": "84210", "place_name": "Phrasaeng", "latitude": "9.1133", "longitude": "99.4133"}, {"country_code": "TH", "postal_code": "84220", "place_name": "Don Sak", "latitude": "9.3", "longitude": "99.6833"}, {"country_code": "TH", "postal_code": "84230", "place_name": "Ban Ta Khun", "latitude": "9.1133", "longitude": "99.4133"}, {"country_code": "TH", "postal_code": "84240", "place_name": "Ban Na Doem", "latitude": "8.8833", "longitude": "99.3167"}, {"country_code": "TH", "postal_code": "84250", "place_name": "Phanom", "latitude": "8.8167", "longitude": "98.8333"}, {"country_code": "TH", "postal_code": "84260", "place_name": "Khian Sa", "latitude": "8.85", "longitude": "99.2333"}, {"country_code": "TH", "postal_code": "84280", "place_name": "Ko Phangan", "latitude": "9.7167", "longitude": "100"}, {"country_code": "TH", "postal_code": "85000", "place_name": "Muang Ranong", "latitude": "9.9667", "longitude": "98.6333"}, {"country_code": "TH", "postal_code": "85110", "place_name": "Kra Buri", "latitude": "10.4", "longitude": "98.7833"}, {"country_code": "TH", "postal_code": "85120", "place_name": "Suk Samran", "latitude": "9.5833", "longitude": "98.6"}, {"country_code": "TH", "postal_code": "85120", "place_name": "Kapoe", "latitude": "9.5833", "longitude": "98.6"}, {"country_code": "TH", "postal_code": "85130", "place_name": "La-Un", "latitude": "10.1167", "longitude": "98.7667"}, {"country_code": "TH", "postal_code": "86000", "place_name": "Muang Chumphon", "latitude": "10.1905", "longitude": "99.0905"}, {"country_code": "TH", "postal_code": "86110", "place_name": "Lang Suan", "latitude": "9.95", "longitude": "99.0667"}, {"country_code": "TH", "postal_code": "86130", "place_name": "Sawi", "latitude": "10.2333", "longitude": "99.0833"}, {"country_code": "TH", "postal_code": "86140", "place_name": "Tha Sae", "latitude": "10.6667", "longitude": "99.1667"}, {"country_code": "TH", "postal_code": "86160", "place_name": "Pathiu", "latitude": "10.7", "longitude": "99.3167"}, {"country_code": "TH", "postal_code": "86170", "place_name": "Lamae", "latitude": "9.85", "longitude": "99.0833"}, {"country_code": "TH", "postal_code": "86180", "place_name": "Phato", "latitude": "9.8", "longitude": "98.8"}, {"country_code": "TH", "postal_code": "86220", "place_name": "Thung Tako", "latitude": "10.1333", "longitude": "99.1167"}, {"country_code": "TH", "postal_code": "90000", "place_name": "Muang Songkhla", "latitude": "7.0167", "longitude": "100.6619"}, {"country_code": "TH", "postal_code": "90110", "place_name": "Hat Yai", "latitude": "7.0167", "longitude": "100.4667"}, {"country_code": "TH", "postal_code": "90110", "place_name": "Bang Klam", "latitude": "7.1", "longitude": "100.4167"}, {"country_code": "TH", "postal_code": "90120", "place_name": "Sa Dao", "latitude": "7.0694", "longitude": "100.6"}, {"country_code": "TH", "postal_code": "90130", "place_name": "Chana", "latitude": "6.9167", "longitude": "100.7333"}, {"country_code": "TH", "postal_code": "90140", "place_name": "Ranot", "latitude": "7.7667", "longitude": "100.3167"}, {"country_code": "TH", "postal_code": "90150", "place_name": "Thepha", "latitude": "6.8667", "longitude": "100.9667"}, {"country_code": "TH", "postal_code": "90160", "place_name": "Na Thawi", "latitude": "6.75", "longitude": "100.7"}, {"country_code": "TH", "postal_code": "90180", "place_name": "Rattapum", "latitude": "7.0694", "longitude": "100.6"}, {"country_code": "TH", "postal_code": "90190", "place_name": "Sating Phra", "latitude": "7.0694", "longitude": "100.6"}, {"country_code": "TH", "postal_code": "90210", "place_name": "Sabayoi", "latitude": "6.7", "longitude": "101.0333"}, {"country_code": "TH", "postal_code": "90220", "place_name": "Kuan Niang", "latitude": "6.7", "longitude": "101.0333"}, {"country_code": "TH", "postal_code": "90230", "place_name": "Khlong Hoykhong", "latitude": "6.7", "longitude": "101.0333"}, {"country_code": "TH", "postal_code": "90270", "place_name": "Krasae Sin", "latitude": "6.7", "longitude": "101.0333"}, {"country_code": "TH", "postal_code": "90310", "place_name": "Na Mom", "latitude": "7.0167", "longitude": "100.6619"}, {"country_code": "TH", "postal_code": "90330", "place_name": "Singha Nakorn", "latitude": "7.0167", "longitude": "100.6619"}, {"country_code": "TH", "postal_code": "91000", "place_name": "Muang Satun", "latitude": "6.9292", "longitude": "99.8708"}, {"country_code": "TH", "postal_code": "91110", "place_name": "Langu", "latitude": "6.8833", "longitude": "99.7833"}, {"country_code": "TH", "postal_code": "91120", "place_name": "Thung Wa", "latitude": "7.1", "longitude": "99.7667"}, {"country_code": "TH", "postal_code": "91130", "place_name": "Manung", "latitude": "6.8667", "longitude": "100.0167"}, {"country_code": "TH", "postal_code": "91130", "place_name": "Khuan Ka Long", "latitude": "6.8667", "longitude": "100.0167"}, {"country_code": "TH", "postal_code": "91150", "place_name": "Tha Phae", "latitude": "6.8667", "longitude": "99.9167"}, {"country_code": "TH", "postal_code": "91160", "place_name": "Khuan Doan", "latitude": "6.9292", "longitude": "99.8708"}, {"country_code": "TH", "postal_code": "92000", "place_name": "Muang Trang", "latitude": "7.5611", "longitude": "99.5417"}, {"country_code": "TH", "postal_code": "92110", "place_name": "Kantang", "latitude": "7.4167", "longitude": "99.5167"}, {"country_code": "TH", "postal_code": "92120", "place_name": "Palian", "latitude": "7.3333", "longitude": "99.8"}, {"country_code": "TH", "postal_code": "92120", "place_name": "Had Samran", "latitude": "7.3333", "longitude": "99.8"}, {"country_code": "TH", "postal_code": "92130", "place_name": "Huai Yot", "latitude": "7.75", "longitude": "99.6167"}, {"country_code": "TH", "postal_code": "92140", "place_name": "Yan Tak Kao", "latitude": "7.5267", "longitude": "99.5933"}, {"country_code": "TH", "postal_code": "92150", "place_name": "Sikao", "latitude": "7.5667", "longitude": "99.35"}, {"country_code": "TH", "postal_code": "92160", "place_name": "Rachada", "latitude": "7.5267", "longitude": "99.5933"}, {"country_code": "TH", "postal_code": "92170", "place_name": "Na Yong", "latitude": "7.5667", "longitude": "99.6833"}, {"country_code": "TH", "postal_code": "92220", "place_name": "Wang Wiset", "latitude": "7.7333", "longitude": "99.2833"}, {"country_code": "TH", "postal_code": "93000", "place_name": "Muang Phatthalung", "latitude": "7.4944", "longitude": "100.0583"}, {"country_code": "TH", "postal_code": "93000", "place_name": "Sri Nakharin", "latitude": "7.4944", "longitude": "100.0583"}, {"country_code": "TH", "postal_code": "93110", "place_name": "Pa Payam", "latitude": "7.7333", "longitude": "100.0167"}, {"country_code": "TH", "postal_code": "93110", "place_name": "Khuan Khanun", "latitude": "7.7333", "longitude": "100.0167"}, {"country_code": "TH", "postal_code": "93120", "place_name": "Pak Phayun", "latitude": "7.35", "longitude": "100.3167"}, {"country_code": "TH", "postal_code": "93130", "place_name": "Khao Chaison", "latitude": "7.4167", "longitude": "100.0833"}, {"country_code": "TH", "postal_code": "93140", "place_name": "Bang Kaeo", "latitude": "7.4944", "longitude": "100.0583"}, {"country_code": "TH", "postal_code": "93160", "place_name": "Tamot", "latitude": "7.2833", "longitude": "100.05"}, {"country_code": "TH", "postal_code": "93170", "place_name": "Pa Bon", "latitude": "7.4944", "longitude": "100.0583"}, {"country_code": "TH", "postal_code": "93180", "place_name": "Kong Ra", "latitude": "7.4667", "longitude": "99.95"}, {"country_code": "TH", "postal_code": "93190", "place_name": "Si Ban Phot", "latitude": "7.7167", "longitude": "99.9333"}, {"country_code": "TH", "postal_code": "94000", "place_name": "Muang Pattani", "latitude": "6.758", "longitude": "101.3775"}, {"country_code": "TH", "postal_code": "94110", "place_name": "Sai Buri", "latitude": "6.7031", "longitude": "101.6203"}, {"country_code": "TH", "postal_code": "94120", "place_name": "Khok Pho", "latitude": "6.7314", "longitude": "101.1053"}, {"country_code": "TH", "postal_code": "94130", "place_name": "Panare", "latitude": "6.86", "longitude": "101.4903"}, {"country_code": "TH", "postal_code": "94140", "place_name": "Thung Yan Daeng", "latitude": "6.7794", "longitude": "101.3362"}, {"country_code": "TH", "postal_code": "94140", "place_name": "Mayo", "latitude": "6.7794", "longitude": "101.3362"}, {"country_code": "TH", "postal_code": "94150", "place_name": "Yaring", "latitude": "6.8617", "longitude": "101.365"}, {"country_code": "TH", "postal_code": "94160", "place_name": "Yarang", "latitude": "6.7728", "longitude": "101.3133"}, {"country_code": "TH", "postal_code": "94170", "place_name": "Nong Chik", "latitude": "6.8453", "longitude": "101.1881"}, {"country_code": "TH", "postal_code": "94180", "place_name": "Mae Lan", "latitude": "6.6819", "longitude": "101.2714"}, {"country_code": "TH", "postal_code": "94220", "place_name": "Mai Kaen", "latitude": "6.6078", "longitude": "101.6667"}, {"country_code": "TH", "postal_code": "94230", "place_name": "Kpho", "latitude": "6.6078", "longitude": "101.6667"}, {"country_code": "TH", "postal_code": "95000", "place_name": "Kung Pinung", "latitude": "6.5428", "longitude": "101.2836"}, {"country_code": "TH", "postal_code": "95000", "place_name": "Muang Yala", "latitude": "6.5428", "longitude": "101.2836"}, {"country_code": "TH", "postal_code": "95110", "place_name": "Betong", "latitude": "5.75", "longitude": "101.0833"}, {"country_code": "TH", "postal_code": "95120", "place_name": "Ka Bung", "latitude": "6.4778", "longitude": "101.135"}, {"country_code": "TH", "postal_code": "95120", "place_name": "Yaha", "latitude": "6.4778", "longitude": "101.135"}, {"country_code": "TH", "postal_code": "95130", "place_name": "Bannang Sata", "latitude": "6.2667", "longitude": "101.2667"}, {"country_code": "TH", "postal_code": "95140", "place_name": "Raman", "latitude": "6.4797", "longitude": "101.4225"}, {"country_code": "TH", "postal_code": "95150", "place_name": "Than To", "latitude": "6.2167", "longitude": "101.15"}, {"country_code": "TH", "postal_code": "96000", "place_name": "Muang Narathiwat", "latitude": "6.25", "longitude": "102.0333"}, {"country_code": "TH", "postal_code": "96110", "place_name": "Tak Bai", "latitude": "6.2667", "longitude": "102.05"}, {"country_code": "TH", "postal_code": "96120", "place_name": "Sungai Kolok", "latitude": "6.0267", "longitude": "101.9678"}, {"country_code": "TH", "postal_code": "96130", "place_name": "Rangae", "latitude": "6.2908", "longitude": "101.7119"}, {"country_code": "TH", "postal_code": "96130", "place_name": "Jao I Rong", "latitude": "6.2908", "longitude": "101.7119"}, {"country_code": "TH", "postal_code": "96140", "place_name": "Sungai Padi", "latitude": "6.15", "longitude": "101.9"}, {"country_code": "TH", "postal_code": "96150", "place_name": "Ruso", "latitude": "6.3936", "longitude": "101.5197"}, {"country_code": "TH", "postal_code": "96160", "place_name": "Waeng", "latitude": "5.9333", "longitude": "101.9"}, {"country_code": "TH", "postal_code": "96170", "place_name": "Bacho", "latitude": "6.6167", "longitude": "101.65"}, {"country_code": "TH", "postal_code": "96180", "place_name": "Yi-Ngo", "latitude": "6.2014", "longitude": "101.8103"}, {"country_code": "TH", "postal_code": "96190", "place_name": "Sukhirin", "latitude": "5.9333", "longitude": "101.7833"}, {"country_code": "TH", "postal_code": "96210", "place_name": "Si Sakhon", "latitude": "6.15", "longitude": "101.55"}, {"country_code": "TH", "postal_code": "96220", "place_name": "Chanae", "latitude": "6.1106", "longitude": "101.6897"}]