[{"country_code": "SM", "postal_code": "47890", "place_name": "San Marino", "latitude": "43.9333", "longitude": "12.45"}, {"country_code": "SM", "postal_code": "47890", "place_name": "Casole", "latitude": "43.9267", "longitude": "12.4507"}, {"country_code": "SM", "postal_code": "47890", "place_name": "Murata", "latitude": "43.9202", "longitude": "12.4515"}, {"country_code": "SM", "postal_code": "47890", "place_name": "Santa Mustiola", "latitude": "43.9267", "longitude": "12.4507"}, {"country_code": "SM", "postal_code": "47891", "place_name": "Galazzano", "latitude": "43.9818", "longitude": "12.4953"}, {"country_code": "SM", "postal_code": "47891", "place_name": "Falciano", "latitude": "43.9833", "longitude": "12.5"}, {"country_code": "SM", "postal_code": "47891", "place_name": "Dogana", "latitude": "43.9803", "longitude": "12.4905"}, {"country_code": "SM", "postal_code": "47891", "place_name": "Rovereta", "latitude": "43.9818", "longitude": "12.4953"}, {"country_code": "SM", "postal_code": "47892", "place_name": "Acquaviva", "latitude": "43.95", "longitude": "12.4167"}, {"country_code": "SM", "postal_code": "47892", "place_name": "Gualdicciolo", "latitude": "43.9498", "longitude": "12.4073"}, {"country_code": "SM", "postal_code": "47893", "place_name": "Ventoso", "latitude": "43.9419", "longitude": "12.4474"}, {"country_code": "SM", "postal_code": "47893", "place_name": "Valdragone", "latitude": "43.9419", "longitude": "12.4474"}, {"country_code": "SM", "postal_code": "47893", "place_name": "San Giovanni", "latitude": "43.9419", "longitude": "12.4474"}, {"country_code": "SM", "postal_code": "47893", "place_name": "Cailungo", "latitude": "43.9419", "longitude": "12.4474"}, {"country_code": "SM", "postal_code": "47893", "place_name": "Ca' Rigo", "latitude": "43.9419", "longitude": "12.4474"}, {"country_code": "SM", "postal_code": "47893", "place_name": "Borgo Maggiore", "latitude": "43.9419", "longitude": "12.4474"}, {"country_code": "SM", "postal_code": "47894", "place_name": "Teglio", "latitude": "43.9167", "longitude": "12.4167"}, {"country_code": "SM", "postal_code": "47894", "place_name": "Chiesanuova", "latitude": "43.9167", "longitude": "12.4167"}, {"country_code": "SM", "postal_code": "47895", "place_name": "Torraccia", "latitude": "43.9528", "longitude": "12.4701"}, {"country_code": "SM", "postal_code": "47895", "place_name": "Domagnano", "latitude": "43.9528", "longitude": "12.4701"}, {"country_code": "SM", "postal_code": "47896", "place_name": "Faetano", "latitude": "43.9333", "longitude": "12.5"}, {"country_code": "SM", "postal_code": "47897", "place_name": "Fiorentino", "latitude": "43.9", "longitude": "12.45"}, {"country_code": "SM", "postal_code": "47898", "place_name": "Montegiardino", "latitude": "43.9", "longitude": "12.5"}, {"country_code": "SM", "postal_code": "47898", "place_name": "Cerbaiola", "latitude": "43.9", "longitude": "12.5"}, {"country_code": "SM", "postal_code": "47899", "place_name": "Serravalle", "latitude": "43.95", "longitude": "12.5"}, {"country_code": "SM", "postal_code": "47899", "place_name": "Fiorina", "latitude": "43.958", "longitude": "12.4769"}]