[{"country_code": "AX", "postal_code": "22100", "place_name": "Mariehamn", "latitude": "60.1007", "longitude": "19.9438"}, {"country_code": "AX", "postal_code": "22101", "place_name": "Mariehamn", "latitude": "60.0628", "longitude": "19.9533"}, {"country_code": "AX", "postal_code": "22110", "place_name": "Mariehamn", "latitude": "60.0973", "longitude": "19.9348"}, {"country_code": "AX", "postal_code": "22111", "place_name": "Mariehamn", "latitude": "60.0973", "longitude": "19.9348"}, {"country_code": "AX", "postal_code": "22270", "place_name": "Ecker\u00f6", "latitude": "60.2203", "longitude": "19.6263"}, {"country_code": "AX", "postal_code": "22220", "place_name": "Emkarby", "latitude": "60.2394", "longitude": "19.848"}, {"country_code": "AX", "postal_code": "22310", "place_name": "P\u00e5lsb\u00f6le", "latitude": "60.2756", "longitude": "19.9057"}, {"country_code": "AX", "postal_code": "22330", "place_name": "Tjud\u00f6", "latitude": "60.3398", "longitude": "19.9382"}, {"country_code": "AX", "postal_code": "22410", "place_name": "Godby", "latitude": "60.2294", "longitude": "19.982"}, {"country_code": "AX", "postal_code": "22411", "place_name": "Godby", "latitude": "60.2235", "longitude": "19.9794"}, {"country_code": "AX", "postal_code": "22340", "place_name": "Geta", "latitude": "60.3791", "longitude": "19.8878"}, {"country_code": "AX", "postal_code": "22240", "place_name": "Hammarland", "latitude": "60.2286", "longitude": "19.7396"}, {"country_code": "AX", "postal_code": "22120", "place_name": "Mariehamn", "latitude": "60.1141", "longitude": "19.913"}, {"country_code": "AX", "postal_code": "22130", "place_name": "Gottby", "latitude": "60.1253", "longitude": "19.8285"}, {"country_code": "AX", "postal_code": "22140", "place_name": "Mariehamn", "latitude": "60.1109", "longitude": "19.9898"}, {"country_code": "AX", "postal_code": "22150", "place_name": "Jomala", "latitude": "60.1617", "longitude": "19.9602"}, {"country_code": "AX", "postal_code": "22151", "place_name": "Jomala", "latitude": "60.1497", "longitude": "19.9521"}, {"country_code": "AX", "postal_code": "22160", "place_name": "Mariehamn", "latitude": "60.0314", "longitude": "20.0036"}, {"country_code": "AX", "postal_code": "22610", "place_name": "Lemland", "latitude": "60.0491", "longitude": "20.1232"}, {"country_code": "AX", "postal_code": "22630", "place_name": "Lumparland", "latitude": "60.1204", "longitude": "20.2616"}, {"country_code": "AX", "postal_code": "22320", "place_name": "\u00d6dkarby", "latitude": "60.3162", "longitude": "20.0054"}, {"country_code": "AX", "postal_code": "22430", "place_name": "Saltvik", "latitude": "60.3146", "longitude": "20.1073"}, {"country_code": "AX", "postal_code": "22520", "place_name": "Kastelholm", "latitude": "60.2383", "longitude": "20.1013"}, {"country_code": "AX", "postal_code": "22530", "place_name": "Sund", "latitude": "60.2275", "longitude": "20.1999"}, {"country_code": "AX", "postal_code": "22840", "place_name": "Lappo", "latitude": "60.3107", "longitude": "20.9895"}, {"country_code": "AX", "postal_code": "22910", "place_name": "Torsholma", "latitude": "60.3556", "longitude": "21.0648"}, {"country_code": "AX", "postal_code": "22920", "place_name": "Br\u00e4nd\u00f6", "latitude": "60.4138", "longitude": "21.039"}, {"country_code": "AX", "postal_code": "22930", "place_name": "Fisk\u00f6", "latitude": "60.4525", "longitude": "21.0695"}, {"country_code": "AX", "postal_code": "22940", "place_name": "\u00c5va", "latitude": "60.4588", "longitude": "21.1607"}, {"country_code": "AX", "postal_code": "22950", "place_name": "Jurmo", "latitude": "60.5196", "longitude": "21.0717"}, {"country_code": "AX", "postal_code": "22710", "place_name": "F\u00f6gl\u00f6", "latitude": "60.0316", "longitude": "20.4605"}, {"country_code": "AX", "postal_code": "22810", "place_name": "Seglinge", "latitude": "60.2018", "longitude": "20.7098"}, {"country_code": "AX", "postal_code": "22820", "place_name": "Kumlinge", "latitude": "60.261", "longitude": "20.7934"}, {"country_code": "AX", "postal_code": "22830", "place_name": "Enklinge", "latitude": "60.3349", "longitude": "20.758"}, {"country_code": "AX", "postal_code": "22730", "place_name": "K\u00f6kar", "latitude": "59.9345", "longitude": "20.9298"}, {"country_code": "AX", "postal_code": "22720", "place_name": "Sottunga", "latitude": "60.1248", "longitude": "20.6751"}, {"country_code": "AX", "postal_code": "22550", "place_name": "V\u00e5rd\u00f6", "latitude": "60.2607", "longitude": "20.3725"}]