[{"country_code": "YT", "postal_code": "97605", "place_name": "Passamainty", "latitude": "-12.802", "longitude": "45.2082"}, {"country_code": "YT", "postal_code": "97630", "place_name": "Acoua", "latitude": "-12.7239", "longitude": "45.0582"}, {"country_code": "YT", "postal_code": "97650", "place_name": "Bandraboua", "latitude": "-12.7044", "longitude": "45.1223"}, {"country_code": "YT", "postal_code": "97660", "place_name": "Bandr\u00e9l\u00e9", "latitude": "-12.9128", "longitude": "45.1926"}, {"country_code": "YT", "postal_code": "97620", "place_name": "Bou\u00e9ni", "latitude": "-12.9025", "longitude": "45.0761"}, {"country_code": "YT", "postal_code": "97670", "place_name": "Chiconi", "latitude": "-12.8333", "longitude": "45.1106"}, {"country_code": "YT", "postal_code": "97620", "place_name": "Chirongui", "latitude": "-12.9319", "longitude": "45.1483"}, {"country_code": "YT", "postal_code": "97660", "place_name": "Dembeni", "latitude": "-12.8436", "longitude": "45.1844"}, {"country_code": "YT", "postal_code": "97615", "place_name": "Dzaoudzi", "latitude": "-12.7783", "longitude": "45.2837"}, {"country_code": "YT", "postal_code": "97625", "place_name": "Kani K\u00e9li", "latitude": "-12.9536", "longitude": "45.1033"}, {"country_code": "YT", "postal_code": "97600", "place_name": "Koungou", "latitude": "-12.7336", "longitude": "45.2042"}, {"country_code": "YT", "postal_code": "97600", "place_name": "Mamoudzou", "latitude": "-12.7823", "longitude": "45.2288"}, {"country_code": "YT", "postal_code": "97605", "place_name": "Mamoudzou", "latitude": "-12.7823", "longitude": "45.2288"}, {"country_code": "YT", "postal_code": "97650", "place_name": "Mamoudzou", "latitude": "-12.7823", "longitude": "45.2288"}, {"country_code": "YT", "postal_code": "97680", "place_name": "Mamoudzou", "latitude": "-12.7823", "longitude": "45.2288"}, {"country_code": "YT", "postal_code": "97630", "place_name": "Mtsamboro", "latitude": "-12.6998", "longitude": "45.0689"}, {"country_code": "YT", "postal_code": "97650", "place_name": "M'Tsangamouji", "latitude": "-12.7594", "longitude": "45.0836"}, {"country_code": "YT", "postal_code": "97670", "place_name": "Ouangani", "latitude": "-12.8464", "longitude": "45.1361"}, {"country_code": "YT", "postal_code": "97615", "place_name": "Pamandzi", "latitude": "-12.7949", "longitude": "45.282"}, {"country_code": "YT", "postal_code": "97640", "place_name": "Sada", "latitude": "-12.8505", "longitude": "45.1021"}, {"country_code": "YT", "postal_code": "97680", "place_name": "Tsingoni", "latitude": "-12.7872", "longitude": "45.1028"}]