[{"country_code": "GP", "postal_code": "97001 CEDEX", "place_name": "Les Abymes", "latitude": "16.271", "longitude": "-61.5045"}, {"country_code": "GP", "postal_code": "97002 CEDEX", "place_name": "Pointe-\u00e0-Pitre", "latitude": "16.2422", "longitude": "-61.5343"}, {"country_code": "GP", "postal_code": "97003 CEDEX", "place_name": "Pointe-\u00e0-Pitre", "latitude": "16.2422", "longitude": "-61.5343"}, {"country_code": "GP", "postal_code": "97004 CEDEX", "place_name": "Pointe-\u00e0-Pitre", "latitude": "16.2422", "longitude": "-61.5343"}, {"country_code": "GP", "postal_code": "97005 CEDEX", "place_name": "Pointe-\u00e0-Pitre", "latitude": "16.2422", "longitude": "-61.5343"}, {"country_code": "GP", "postal_code": "97006 CEDEX", "place_name": "Pointe-\u00e0-Pitre", "latitude": "16.2422", "longitude": "-61.5343"}, {"country_code": "GP", "postal_code": "97007 CEDEX", "place_name": "Pointe-\u00e0-Pitre", "latitude": "16.2422", "longitude": "-61.5343"}, {"country_code": "GP", "postal_code": "97008 CEDEX", "place_name": "Pointe-\u00e0-Pitre", "latitude": "16.2422", "longitude": "-61.5343"}, {"country_code": "GP", "postal_code": "97009 CEDEX", "place_name": "Les Abymes", "latitude": "16.271", "longitude": "-61.5045"}, {"country_code": "GP", "postal_code": "97010 CEDEX", "place_name": "Pointe-\u00e0-Pitre", "latitude": "16.2422", "longitude": "-61.5343"}, {"country_code": "GP", "postal_code": "97011 CEDEX", "place_name": "Pointe-\u00e0-Pitre", "latitude": "16.2422", "longitude": "-61.5343"}, {"country_code": "GP", "postal_code": "97019 CEDEX", "place_name": "Pointe-\u00e0-Pitre", "latitude": "16.2422", "longitude": "-61.5343"}, {"country_code": "GP", "postal_code": "97023 CEDEX", "place_name": "Basse-Terre", "latitude": "15.9985", "longitude": "-61.7255"}, {"country_code": "GP", "postal_code": "97029 CEDEX", "place_name": "Basse-Terre", "latitude": "15.9985", "longitude": "-61.7255"}, {"country_code": "GP", "postal_code": "97082 CEDEX", "place_name": "Petit-Bourg", "latitude": "16.1914", "longitude": "-61.5916"}, {"country_code": "GP", "postal_code": "97084 CEDEX", "place_name": "Jarry", "latitude": "16.2359", "longitude": "-61.558"}, {"country_code": "GP", "postal_code": "97085 CEDEX", "place_name": "Jarry", "latitude": "16.2359", "longitude": "-61.558"}, {"country_code": "GP", "postal_code": "97086 CEDEX", "place_name": "Jarry", "latitude": "16.2359", "longitude": "-61.558"}, {"country_code": "GP", "postal_code": "97100", "place_name": "Basse-Terre", "latitude": "15.9985", "longitude": "-61.7255"}, {"country_code": "GP", "postal_code": "97101 CEDEX", "place_name": "Basse-Terre", "latitude": "15.9985", "longitude": "-61.7255"}, {"country_code": "GP", "postal_code": "97102 CEDEX", "place_name": "Basse-Terre", "latitude": "15.9985", "longitude": "-61.7255"}, {"country_code": "GP", "postal_code": "97103 CEDEX", "place_name": "Basse-Terre", "latitude": "15.9985", "longitude": "-61.7255"}, {"country_code": "GP", "postal_code": "97104 CEDEX", "place_name": "Basse-Terre", "latitude": "15.9985", "longitude": "-61.7255"}, {"country_code": "GP", "postal_code": "97105 CEDEX", "place_name": "Basse-Terre", "latitude": "15.9985", "longitude": "-61.7255"}, {"country_code": "GP", "postal_code": "97106 CEDEX", "place_name": "Basse-Terre", "latitude": "15.9985", "longitude": "-61.7255"}, {"country_code": "GP", "postal_code": "97107 CEDEX", "place_name": "Basse-Terre", "latitude": "15.9985", "longitude": "-61.7255"}, {"country_code": "GP", "postal_code": "97108 CEDEX", "place_name": "Basse-Terre", "latitude": "15.9985", "longitude": "-61.7255"}, {"country_code": "GP", "postal_code": "97109 CEDEX", "place_name": "Basse-Terre", "latitude": "15.9985", "longitude": "-61.7255"}, {"country_code": "GP", "postal_code": "97110", "place_name": "Pointe-\u00e0-Pitre", "latitude": "16.2422", "longitude": "-61.5343"}, {"country_code": "GP", "postal_code": "97111", "place_name": "Morne-\u00e0-l'Eau", "latitude": "16.3334", "longitude": "-61.4588"}, {"country_code": "GP", "postal_code": "97112", "place_name": "Grand-Bourg", "latitude": "15.8835", "longitude": "-61.3148"}, {"country_code": "GP", "postal_code": "97113", "place_name": "Gourbeyre", "latitude": "15.9938", "longitude": "-61.6914"}, {"country_code": "GP", "postal_code": "97114", "place_name": "Trois-Rivi\u00e8res", "latitude": "15.9757", "longitude": "-61.6451"}, {"country_code": "GP", "postal_code": "97115", "place_name": "Sainte-Rose", "latitude": "16.3324", "longitude": "-61.6979"}, {"country_code": "GP", "postal_code": "97116", "place_name": "Pointe-Noire", "latitude": "16.2309", "longitude": "-61.7878"}, {"country_code": "GP", "postal_code": "97117", "place_name": "Port-Louis", "latitude": "16.419", "longitude": "-61.5313"}, {"country_code": "GP", "postal_code": "97118", "place_name": "Saint-Fran\u00e7ois", "latitude": "16.2526", "longitude": "-61.2741"}, {"country_code": "GP", "postal_code": "97119", "place_name": "Vieux-Habitants", "latitude": "16.0589", "longitude": "-61.766"}, {"country_code": "GP", "postal_code": "97120", "place_name": "Saint-Claude", "latitude": "16.0241", "longitude": "-61.7022"}, {"country_code": "GP", "postal_code": "97121", "place_name": "Anse-Bertrand", "latitude": "16.4721", "longitude": "-61.5078"}, {"country_code": "GP", "postal_code": "97122", "place_name": "Baie-Mahault", "latitude": "16.2674", "longitude": "-61.5854"}, {"country_code": "GP", "postal_code": "97123", "place_name": "Baillif", "latitude": "16.0202", "longitude": "-61.7463"}, {"country_code": "GP", "postal_code": "97125", "place_name": "Bouillante", "latitude": "16.1304", "longitude": "-61.7692"}, {"country_code": "GP", "postal_code": "97126", "place_name": "Deshaies", "latitude": "16.3065", "longitude": "-61.7942"}, {"country_code": "GP", "postal_code": "97127", "place_name": "La D\u00e9sirade", "latitude": "16.3167", "longitude": "-61.0333"}, {"country_code": "GP", "postal_code": "97128", "place_name": "Goyave", "latitude": "16.1352", "longitude": "-61.574"}, {"country_code": "GP", "postal_code": "97129", "place_name": "Lamentin", "latitude": "16.271", "longitude": "-61.6312"}, {"country_code": "GP", "postal_code": "97130", "place_name": "Capesterre-Belle-Eau", "latitude": "16.0432", "longitude": "-61.566"}, {"country_code": "GP", "postal_code": "97131", "place_name": "Petit-Canal", "latitude": "16.3784", "longitude": "-61.4879"}, {"country_code": "GP", "postal_code": "97134", "place_name": "Saint-Louis", "latitude": "15.9549", "longitude": "-61.3178"}, {"country_code": "GP", "postal_code": "97136", "place_name": "Terre-de-Bas", "latitude": "15.8501", "longitude": "-61.6442"}, {"country_code": "GP", "postal_code": "97137", "place_name": "Terre-de-Haut", "latitude": "15.8663", "longitude": "-61.5827"}, {"country_code": "GP", "postal_code": "97139", "place_name": "Les Abymes", "latitude": "16.271", "longitude": "-61.5045"}, {"country_code": "GP", "postal_code": "97140", "place_name": "Capesterre-de-Marie-Galante", "latitude": "15.8833", "longitude": "-61.2167"}, {"country_code": "GP", "postal_code": "97141", "place_name": "Vieux-Fort", "latitude": "15.9513", "longitude": "-61.6991"}, {"country_code": "GP", "postal_code": "97142", "place_name": "Les Abymes", "latitude": "16.271", "longitude": "-61.5045"}, {"country_code": "GP", "postal_code": "97151 CEDEX", "place_name": "Pointe-\u00e0-Pitre", "latitude": "16.2422", "longitude": "-61.5343"}, {"country_code": "GP", "postal_code": "97152 CEDEX", "place_name": "Pointe-\u00e0-Pitre", "latitude": "16.2422", "longitude": "-61.5343"}, {"country_code": "GP", "postal_code": "97153 CEDEX", "place_name": "Pointe-\u00e0-Pitre", "latitude": "16.2422", "longitude": "-61.5343"}, {"country_code": "GP", "postal_code": "97154 CEDEX", "place_name": "Pointe-\u00e0-Pitre", "latitude": "16.2422", "longitude": "-61.5343"}, {"country_code": "GP", "postal_code": "97155 CEDEX", "place_name": "Pointe-\u00e0-Pitre", "latitude": "16.2422", "longitude": "-61.5343"}, {"country_code": "GP", "postal_code": "97156 CEDEX", "place_name": "Pointe-\u00e0-Pitre", "latitude": "16.2422", "longitude": "-61.5343"}, {"country_code": "GP", "postal_code": "97157 CEDEX", "place_name": "Pointe-\u00e0-Pitre", "latitude": "16.2422", "longitude": "-61.5343"}, {"country_code": "GP", "postal_code": "97158 CEDEX", "place_name": "Pointe-\u00e0-Pitre", "latitude": "16.2422", "longitude": "-61.5343"}, {"country_code": "GP", "postal_code": "97159 CEDEX", "place_name": "Pointe-\u00e0-Pitre", "latitude": "16.2422", "longitude": "-61.5343"}, {"country_code": "GP", "postal_code": "97160", "place_name": "Le Moule", "latitude": "16.3332", "longitude": "-61.3473"}, {"country_code": "GP", "postal_code": "97161 CEDEX", "place_name": "Pointe-\u00e0-Pitre", "latitude": "16.2422", "longitude": "-61.5343"}, {"country_code": "GP", "postal_code": "97162 CEDEX", "place_name": "Pointe-\u00e0-Pitre", "latitude": "16.2422", "longitude": "-61.5343"}, {"country_code": "GP", "postal_code": "97163 CEDEX", "place_name": "Pointe-\u00e0-Pitre", "latitude": "16.2422", "longitude": "-61.5343"}, {"country_code": "GP", "postal_code": "97164 CEDEX", "place_name": "Pointe-\u00e0-Pitre", "latitude": "16.2422", "longitude": "-61.5343"}, {"country_code": "GP", "postal_code": "97165 CEDEX", "place_name": "Pointe-\u00e0-Pitre", "latitude": "16.2422", "longitude": "-61.5343"}, {"country_code": "GP", "postal_code": "97166 CEDEX", "place_name": "Pointe-\u00e0-Pitre", "latitude": "16.2422", "longitude": "-61.5343"}, {"country_code": "GP", "postal_code": "97167 CEDEX", "place_name": "Pointe-\u00e0-Pitre", "latitude": "16.2422", "longitude": "-61.5343"}, {"country_code": "GP", "postal_code": "97168 CEDEX", "place_name": "Pointe-\u00e0-Pitre", "latitude": "16.2422", "longitude": "-61.5343"}, {"country_code": "GP", "postal_code": "97169 CEDEX", "place_name": "Pointe-\u00e0-Pitre", "latitude": "16.2422", "longitude": "-61.5343"}, {"country_code": "GP", "postal_code": "97170", "place_name": "Petit-Bourg", "latitude": "16.1914", "longitude": "-61.5916"}, {"country_code": "GP", "postal_code": "97171 CEDEX", "place_name": "Pointe-\u00e0-Pitre", "latitude": "16.2422", "longitude": "-61.5343"}, {"country_code": "GP", "postal_code": "97172 CEDEX", "place_name": "Pointe-\u00e0-Pitre", "latitude": "16.2422", "longitude": "-61.5343"}, {"country_code": "GP", "postal_code": "97173 CEDEX", "place_name": "Pointe-\u00e0-Pitre", "latitude": "16.2422", "longitude": "-61.5343"}, {"country_code": "GP", "postal_code": "97174 CEDEX", "place_name": "Pointe-\u00e0-Pitre", "latitude": "16.2422", "longitude": "-61.5343"}, {"country_code": "GP", "postal_code": "97175 CEDEX", "place_name": "Les Abymes", "latitude": "16.271", "longitude": "-61.5045"}, {"country_code": "GP", "postal_code": "97176 CEDEX", "place_name": "Les Abymes", "latitude": "16.271", "longitude": "-61.5045"}, {"country_code": "GP", "postal_code": "97177 CEDEX", "place_name": "Les Abymes", "latitude": "16.271", "longitude": "-61.5045"}, {"country_code": "GP", "postal_code": "97178 CEDEX", "place_name": "Les Abymes", "latitude": "16.271", "longitude": "-61.5045"}, {"country_code": "GP", "postal_code": "97179 CEDEX", "place_name": "Pointe-\u00e0-Pitre", "latitude": "16.2422", "longitude": "-61.5343"}, {"country_code": "GP", "postal_code": "97180", "place_name": "Sainte-Anne", "latitude": "16.2264", "longitude": "-61.3792"}, {"country_code": "GP", "postal_code": "97181 CEDEX", "place_name": "Les Abymes", "latitude": "16.271", "longitude": "-61.5045"}, {"country_code": "GP", "postal_code": "97182 CEDEX", "place_name": "Les Abymes", "latitude": "16.271", "longitude": "-61.5045"}, {"country_code": "GP", "postal_code": "97183 CEDEX", "place_name": "Les Abymes", "latitude": "16.271", "longitude": "-61.5045"}, {"country_code": "GP", "postal_code": "97184 CEDEX", "place_name": "Les Abymes", "latitude": "16.271", "longitude": "-61.5045"}, {"country_code": "GP", "postal_code": "97185 CEDEX", "place_name": "Les Abymes", "latitude": "16.271", "longitude": "-61.5045"}, {"country_code": "GP", "postal_code": "97186 CEDEX", "place_name": "Les Abymes", "latitude": "16.271", "longitude": "-61.5045"}, {"country_code": "GP", "postal_code": "97187 CEDEX", "place_name": "Jarry", "latitude": "16.2359", "longitude": "-61.558"}, {"country_code": "GP", "postal_code": "97188 CEDEX", "place_name": "Jarry", "latitude": "16.2359", "longitude": "-61.558"}, {"country_code": "GP", "postal_code": "97189 CEDEX", "place_name": "Jarry", "latitude": "16.2359", "longitude": "-61.558"}, {"country_code": "GP", "postal_code": "97190", "place_name": "Le Gosier", "latitude": "16.2069", "longitude": "-61.4933"}, {"country_code": "GP", "postal_code": "97191 CEDEX", "place_name": "Jarry", "latitude": "16.2359", "longitude": "-61.558"}, {"country_code": "GP", "postal_code": "97192 CEDEX", "place_name": "Jarry", "latitude": "16.2359", "longitude": "-61.558"}, {"country_code": "GP", "postal_code": "97193 CEDEX", "place_name": "Jarry", "latitude": "16.2359", "longitude": "-61.558"}, {"country_code": "GP", "postal_code": "97194 CEDEX", "place_name": "Jarry", "latitude": "16.2359", "longitude": "-61.558"}, {"country_code": "GP", "postal_code": "97195 CEDEX", "place_name": "Jarry", "latitude": "16.2359", "longitude": "-61.558"}, {"country_code": "GP", "postal_code": "97196 CEDEX", "place_name": "Jarry", "latitude": "16.2359", "longitude": "-61.558"}, {"country_code": "GP", "postal_code": "97197 CEDEX", "place_name": "Jarry", "latitude": "16.2359", "longitude": "-61.558"}, {"country_code": "GP", "postal_code": "97198 CEDEX", "place_name": "Jarry", "latitude": "16.2359", "longitude": "-61.558"}, {"country_code": "GP", "postal_code": "97199 CEDEX", "place_name": "Jarry", "latitude": "16.2359", "longitude": "-61.558"}]