[{"country_code": "NC", "postal_code": "98811", "place_name": "B\u00e9lep", "latitude": "-19.7333", "longitude": "163.6667"}, {"country_code": "NC", "postal_code": "98813", "place_name": "Canala", "latitude": "-21.517", "longitude": "165.9629"}, {"country_code": "NC", "postal_code": "98815", "place_name": "Hiengh\u00e9ne", "latitude": "-20.6874", "longitude": "164.9377"}, {"country_code": "NC", "postal_code": "98816", "place_name": "Houa\u00eflou", "latitude": "-21.2865", "longitude": "165.6343"}, {"country_code": "NC", "postal_code": "98838", "place_name": "Poro", "latitude": "-21.3167", "longitude": "165.6333"}, {"country_code": "NC", "postal_code": "98817", "place_name": "Kaala-Gom\u00e9n", "latitude": "-20.6694", "longitude": "164.3977"}, {"country_code": "NC", "postal_code": "98859", "place_name": "Kon\u00e9", "latitude": "-21.0595", "longitude": "164.8658"}, {"country_code": "NC", "postal_code": "98860", "place_name": "Kon\u00e9", "latitude": "-21.0569", "longitude": "164.8663"}, {"country_code": "NC", "postal_code": "98850", "place_name": "Koumac", "latitude": "-20.555", "longitude": "164.2717"}, {"country_code": "NC", "postal_code": "98821", "place_name": "Ou\u00e9goa", "latitude": "-20.3485", "longitude": "164.4262"}, {"country_code": "NC", "postal_code": "98822", "place_name": "Poindimi\u00e9", "latitude": "-20.9505", "longitude": "165.3415"}, {"country_code": "NC", "postal_code": "98823", "place_name": "Pon\u00e9rihouen", "latitude": "-21.0765", "longitude": "165.4005"}, {"country_code": "NC", "postal_code": "98824", "place_name": "Pou\u00e9bo", "latitude": "-20.3929", "longitude": "164.5827"}, {"country_code": "NC", "postal_code": "98825", "place_name": "Pouembout", "latitude": "-21.1076", "longitude": "164.9834"}, {"country_code": "NC", "postal_code": "98826", "place_name": "Poum", "latitude": "-20.2368", "longitude": "164.0292"}, {"country_code": "NC", "postal_code": "98827", "place_name": "Poya", "latitude": "-21.3449", "longitude": "165.164"}, {"country_code": "NC", "postal_code": "98877", "place_name": "N\u00e9poui", "latitude": "-21.3283", "longitude": "164.9985"}, {"country_code": "NC", "postal_code": "98831", "place_name": "Touho", "latitude": "-20.786", "longitude": "165.2423"}, {"country_code": "NC", "postal_code": "98833", "place_name": "Voh", "latitude": "-20.9467", "longitude": "164.6854"}, {"country_code": "NC", "postal_code": "98883", "place_name": "Ou\u00e5co", "latitude": "-20.8353", "longitude": "164.4694"}, {"country_code": "NC", "postal_code": "98818", "place_name": "Kouaoua", "latitude": "-21.3957", "longitude": "165.8283"}, {"country_code": "NC", "postal_code": "98812", "place_name": "Bouloupari", "latitude": "-21.8607", "longitude": "166.0513"}, {"country_code": "NC", "postal_code": "98870", "place_name": "Bourail", "latitude": "-21.5667", "longitude": "165.4667"}, {"country_code": "NC", "postal_code": "98830", "place_name": "Dumb\u00e9a", "latitude": "-22.1496", "longitude": "166.4473"}, {"country_code": "NC", "postal_code": "98835", "place_name": "Dumb\u00e9a", "latitude": "-22.1496", "longitude": "166.4473"}, {"country_code": "NC", "postal_code": "98836", "place_name": "Dumb\u00e9a", "latitude": "-22.1496", "longitude": "166.4473"}, {"country_code": "NC", "postal_code": "98837", "place_name": "Dumb\u00e9a", "latitude": "-22.1496", "longitude": "166.4473"}, {"country_code": "NC", "postal_code": "98839", "place_name": "Dumb\u00e9a", "latitude": "-22.1496", "longitude": "166.4473"}, {"country_code": "NC", "postal_code": "98880", "place_name": "Farino", "latitude": "-21.6651", "longitude": "165.776"}, {"country_code": "NC", "postal_code": "98881", "place_name": "Farino", "latitude": "-21.6667", "longitude": "165.7667"}, {"country_code": "NC", "postal_code": "98832", "place_name": "L\u2019\u00cele des Pins", "latitude": "-22.6167", "longitude": "167.4833"}, {"country_code": "NC", "postal_code": "98880", "place_name": "La Foa", "latitude": "-21.7079", "longitude": "165.8252"}, {"country_code": "NC", "postal_code": "98819", "place_name": "Moindou", "latitude": "-21.6986", "longitude": "165.6804"}, {"country_code": "NC", "postal_code": "98809", "place_name": "Le Mont-Dore", "latitude": "-22.2799", "longitude": "166.5805"}, {"country_code": "NC", "postal_code": "98810", "place_name": "Mont-Dore", "latitude": "-22.2626", "longitude": "166.5662"}, {"country_code": "NC", "postal_code": "98874", "place_name": "Pont des Fran\u00e7ais", "latitude": "-22.2167", "longitude": "166.4833"}, {"country_code": "NC", "postal_code": "98875", "place_name": "Plum", "latitude": "-22.2723", "longitude": "166.6144"}, {"country_code": "NC", "postal_code": "98876", "place_name": "La Coul\u00e9e", "latitude": "-22.2313", "longitude": "166.5758"}, {"country_code": "NC", "postal_code": "98800", "place_name": "Noum\u00e9a", "latitude": "-22.2667", "longitude": "166.4667"}, {"country_code": "NC", "postal_code": "98840", "place_name": "La Tontouta", "latitude": "-22.0128", "longitude": "166.2237"}, {"country_code": "NC", "postal_code": "98889", "place_name": "Pa\u00efta", "latitude": "-22.131", "longitude": "166.3572"}, {"country_code": "NC", "postal_code": "98890", "place_name": "Pa\u00efta", "latitude": "-22.1299", "longitude": "166.3639"}, {"country_code": "NC", "postal_code": "98880", "place_name": "Sarram\u00e9a", "latitude": "-21.6421", "longitude": "165.8451"}, {"country_code": "NC", "postal_code": "98882", "place_name": "Sarram\u00e9a", "latitude": "-21.65", "longitude": "165.85"}, {"country_code": "NC", "postal_code": "98829", "place_name": "Thio", "latitude": "-21.6057", "longitude": "166.2146"}, {"country_code": "NC", "postal_code": "98834", "place_name": "Yat\u00e9", "latitude": "-22.0833", "longitude": "166.75"}, {"country_code": "NC", "postal_code": "98820", "place_name": "W\u00e9", "latitude": "-20.9169", "longitude": "167.2646"}, {"country_code": "NC", "postal_code": "98884", "place_name": "Ch\u00e9p\u00e9n\u00e9h\u00e9", "latitude": "-20.7833", "longitude": "167.15"}, {"country_code": "NC", "postal_code": "98885", "place_name": "Mou", "latitude": "-21.0936", "longitude": "167.399"}, {"country_code": "NC", "postal_code": "98828", "place_name": "Tadine", "latitude": "-21.55", "longitude": "167.8833"}, {"country_code": "NC", "postal_code": "98878", "place_name": "La Roche", "latitude": "-21.478", "longitude": "168.0259"}, {"country_code": "NC", "postal_code": "98814", "place_name": "Fayaou\u00e9", "latitude": "-20.6528", "longitude": "166.5364"}]