[{"country_code": "AZ", "postal_code": "AZ 0100", "place_name": "Ab\u015feron", "latitude": "40.4982", "longitude": "49.7582"}, {"country_code": "AZ", "postal_code": "AZ 0101", "place_name": "1 Sayli", "latitude": "40.4982", "longitude": "49.7582"}, {"country_code": "AZ", "postal_code": "AZ 0102", "place_name": "2 Sayli", "latitude": "40.4982", "longitude": "49.7582"}, {"country_code": "AZ", "postal_code": "AZ 0111", "place_name": "A\u015fa\u011fi G\u00fczd\u0259k", "latitude": "40.4813", "longitude": "49.6656"}, {"country_code": "AZ", "postal_code": "AZ 0112", "place_name": "Ceyranbatan", "latitude": "40.5419", "longitude": "49.6607"}, {"country_code": "AZ", "postal_code": "AZ 0113", "place_name": "Fatmayi", "latitude": "40.5301", "longitude": "49.8449"}, {"country_code": "AZ", "postal_code": "AZ 0114", "place_name": "G\u00fczd\u0259k-2", "latitude": "40.4879", "longitude": "49.7507"}, {"country_code": "AZ", "postal_code": "AZ 0115", "place_name": "H\u00f6km\u0259li", "latitude": "40.4311", "longitude": "49.7372"}, {"country_code": "AZ", "postal_code": "AZ 0116", "place_name": "Masazir-1", "latitude": "40.4879", "longitude": "49.7507"}, {"country_code": "AZ", "postal_code": "AZ 0117", "place_name": "Qobu", "latitude": "40.4047", "longitude": "49.7131"}, {"country_code": "AZ", "postal_code": "AZ 0118", "place_name": "Mehdiabad", "latitude": "40.4969", "longitude": "49.8517"}, {"country_code": "AZ", "postal_code": "AZ 0119", "place_name": "Novxani", "latitude": "40.5291", "longitude": "49.7819"}, {"country_code": "AZ", "postal_code": "AZ 0120", "place_name": "Pir\u0259k\u0259\u015fk\u00fcl", "latitude": "40.4843", "longitude": "49.5925"}, {"country_code": "AZ", "postal_code": "AZ 0121", "place_name": "Saray-1p\u015f", "latitude": "40.5085", "longitude": "49.7657"}, {"country_code": "AZ", "postal_code": "AZ 0122", "place_name": "Goradil", "latitude": "40.5486", "longitude": "49.8297"}, {"country_code": "AZ", "postal_code": "AZ 0123", "place_name": "Masazir-2", "latitude": "40.5085", "longitude": "49.7657"}, {"country_code": "AZ", "postal_code": "AZ 0124", "place_name": "\u00c7ayli", "latitude": "40.5085", "longitude": "49.7657"}, {"country_code": "AZ", "postal_code": "AZ 0125", "place_name": "M\u0259h\u0259mmm\u0259dli", "latitude": "40.5085", "longitude": "49.7657"}, {"country_code": "AZ", "postal_code": "AZ 0127", "place_name": "Digah", "latitude": "40.4926", "longitude": "49.8748"}, {"country_code": "AZ", "postal_code": "AZ 0128", "place_name": "Saray-2", "latitude": "40.5085", "longitude": "49.7657"}, {"country_code": "AZ", "postal_code": "AZ 0129", "place_name": "Mexkalon", "latitude": "40.5085", "longitude": "49.7657"}, {"country_code": "AZ", "postal_code": "AZ 0130", "place_name": "At Yali", "latitude": "40.4982", "longitude": "49.7582"}, {"country_code": "AZ", "postal_code": "AZ 0131", "place_name": "Goradil-2", "latitude": "40.4982", "longitude": "49.7582"}, {"country_code": "AZ", "postal_code": "AZ 0155", "place_name": "M\u00fc\u015fviqabad", "latitude": "40.4982", "longitude": "49.7582"}, {"country_code": "AZ", "postal_code": "AZ 0400", "place_name": "A\u011fcab\u0259di", "latitude": "40.0501", "longitude": "47.4594"}, {"country_code": "AZ", "postal_code": "AZ 0402", "place_name": "2 Sayli", "latitude": "40.0501", "longitude": "47.4594"}, {"country_code": "AZ", "postal_code": "AZ 0403", "place_name": "3 Sayli", "latitude": "40.0501", "longitude": "47.4594"}, {"country_code": "AZ", "postal_code": "AZ 0404", "place_name": "4 Sayli", "latitude": "40.0501", "longitude": "47.4594"}, {"country_code": "AZ", "postal_code": "AZ 0411", "place_name": "Av\u015far", "latitude": "39.9739", "longitude": "47.4239"}, {"country_code": "AZ", "postal_code": "AZ 0412", "place_name": "Boyad", "latitude": "40.0302", "longitude": "47.3447"}, {"country_code": "AZ", "postal_code": "AZ 0413", "place_name": "G\u0259l\u0259b\u0259din", "latitude": "40.1387", "longitude": "47.2514"}, {"country_code": "AZ", "postal_code": "AZ 0414", "place_name": "Hacib\u0259d\u0259lli", "latitude": "40.0622", "longitude": "47.3676"}, {"country_code": "AZ", "postal_code": "AZ 0415", "place_name": "Hindarx", "latitude": "40.0687", "longitude": "47.2078"}, {"country_code": "AZ", "postal_code": "AZ 0416", "place_name": "H\u00fcs\u00fcl\u00fc", "latitude": "40.0694", "longitude": "47.2995"}, {"country_code": "AZ", "postal_code": "AZ 0417", "place_name": "Xocav\u0259nd", "latitude": "40.032", "longitude": "47.4099"}, {"country_code": "AZ", "postal_code": "AZ 0418", "place_name": "K\u0259birli", "latitude": "39.8667", "longitude": "47.4528"}, {"country_code": "AZ", "postal_code": "AZ 0419", "place_name": "K\u0259hrizli", "latitude": "40.0302", "longitude": "47.3447"}, {"country_code": "AZ", "postal_code": "AZ 0420", "place_name": "Qaradolaq", "latitude": "39.9277", "longitude": "47.4677"}, {"country_code": "AZ", "postal_code": "AZ 0421", "place_name": "Qarav\u0259lli", "latitude": "40.1696", "longitude": "47.7802"}, {"country_code": "AZ", "postal_code": "AZ 0422", "place_name": "Yuxari Qiyamadinli", "latitude": "40.0601", "longitude": "47.4194"}, {"country_code": "AZ", "postal_code": "AZ 0424", "place_name": "Min\u0259xorlu", "latitude": "40.0601", "longitude": "47.4194"}, {"country_code": "AZ", "postal_code": "AZ 0425", "place_name": "Mu\u011fanli", "latitude": "40.0084", "longitude": "47.2743"}, {"country_code": "AZ", "postal_code": "AZ 0426", "place_name": "P\u0259rio\u011fullar", "latitude": "40.0601", "longitude": "47.4194"}, {"country_code": "AZ", "postal_code": "AZ 0427", "place_name": "Salmanb\u0259yli", "latitude": "39.9809", "longitude": "47.3785"}, {"country_code": "AZ", "postal_code": "AZ 0428", "place_name": "Saricali", "latitude": "40.1415", "longitude": "47.1834"}, {"country_code": "AZ", "postal_code": "AZ 0429", "place_name": "\u015e\u0259nlik", "latitude": "40.1322", "longitude": "47.4324"}, {"country_code": "AZ", "postal_code": "AZ 0430", "place_name": "T\u0259z\u0259k\u0259nd", "latitude": "39.9876", "longitude": "47.3022"}, {"country_code": "AZ", "postal_code": "AZ 0431", "place_name": "Yeniqaradolaq", "latitude": "39.9876", "longitude": "47.3022"}, {"country_code": "AZ", "postal_code": "AZ 0432", "place_name": "Aran", "latitude": "39.9241", "longitude": "47.4291"}, {"country_code": "AZ", "postal_code": "AZ 0433", "place_name": "\u015e\u0259r\u0259fxanli", "latitude": "40.0512", "longitude": "47.1754"}, {"country_code": "AZ", "postal_code": "AZ 0200", "place_name": "A\u011fdam", "latitude": "40.002", "longitude": "46.9545"}, {"country_code": "AZ", "postal_code": "AZ 0216", "place_name": "\u00c7\u0259m\u0259nli", "latitude": "40.0706", "longitude": "47.0428"}, {"country_code": "AZ", "postal_code": "AZ 0217", "place_name": "\u018ff\u0259tli", "latitude": "40.0094", "longitude": "47.0858"}, {"country_code": "AZ", "postal_code": "AZ 0227", "place_name": "Xindiristan", "latitude": "40.125", "longitude": "47.1026"}, {"country_code": "AZ", "postal_code": "AZ 0230", "place_name": "Qarada\u011fli", "latitude": "40.0254", "longitude": "47.0681"}, {"country_code": "AZ", "postal_code": "AZ 0233", "place_name": "Quzanli", "latitude": "40.1591", "longitude": "47.1653"}, {"country_code": "AZ", "postal_code": "AZ 0234", "place_name": "Mahrizli", "latitude": "40.0415", "longitude": "47.0599"}, {"country_code": "AZ", "postal_code": "AZ 0246", "place_name": "\u00dc\u00e7 O\u011flan", "latitude": "40.0619", "longitude": "47.0684"}, {"country_code": "AZ", "postal_code": "AZ 0300", "place_name": "A\u011fda\u015f", "latitude": "40.647", "longitude": "47.4738"}, {"country_code": "AZ", "postal_code": "AZ 0301", "place_name": "1 Sayli", "latitude": "40.647", "longitude": "47.4738"}, {"country_code": "AZ", "postal_code": "AZ 0302", "place_name": "2 Sayli (Ma\u015fad)", "latitude": "40.647", "longitude": "47.4738"}, {"country_code": "AZ", "postal_code": "AZ 0311", "place_name": "Abad", "latitude": "40.4666", "longitude": "47.336"}, {"country_code": "AZ", "postal_code": "AZ 0313", "place_name": "\u015eord\u0259hn\u0259", "latitude": "40.5126", "longitude": "47.3651"}, {"country_code": "AZ", "postal_code": "AZ 0318", "place_name": "G\u00fcv\u0259k\u0259nd", "latitude": "40.5585", "longitude": "47.3942"}, {"country_code": "AZ", "postal_code": "AZ 0321", "place_name": "K\u00fck\u0259l", "latitude": "40.6709", "longitude": "47.5679"}, {"country_code": "AZ", "postal_code": "AZ 0324", "place_name": "Qolq\u0259ti", "latitude": "40.676", "longitude": "47.4744"}, {"country_code": "AZ", "postal_code": "AZ 0325", "place_name": "L\u0259ki", "latitude": "40.57", "longitude": "47.4522"}, {"country_code": "AZ", "postal_code": "AZ 0327", "place_name": "Orta L\u0259ki", "latitude": "40.5199", "longitude": "47.4201"}, {"country_code": "AZ", "postal_code": "AZ 0328", "place_name": "Pir\u0259z\u0259", "latitude": "40.4131", "longitude": "47.3463"}, {"country_code": "AZ", "postal_code": "AZ 0331", "place_name": "D\u0259hn\u0259x\u0259lil", "latitude": "40.6802", "longitude": "47.5207"}, {"country_code": "AZ", "postal_code": "AZ 0332", "place_name": "Yenic\u0259", "latitude": "40.5419", "longitude": "47.4851"}, {"country_code": "AZ", "postal_code": "AZ 0333", "place_name": "Yuxari Q\u0259sil", "latitude": "40.651", "longitude": "47.5176"}, {"country_code": "AZ", "postal_code": "AZ 0340", "place_name": "\u018fr\u0259b", "latitude": "40.6714", "longitude": "47.5892"}, {"country_code": "AZ", "postal_code": "AZ 0500", "place_name": "A\u011fstafa", "latitude": "41.1189", "longitude": "45.4539"}, {"country_code": "AZ", "postal_code": "AZ 0511", "place_name": "A\u011fstafa Va\u011fzal", "latitude": "41.156", "longitude": "45.4352"}, {"country_code": "AZ", "postal_code": "AZ 0512", "place_name": "A\u015fa\u011fi G\u00f6yc\u0259li", "latitude": "41.1156", "longitude": "45.485"}, {"country_code": "AZ", "postal_code": "AZ 0513", "place_name": "A\u015fa\u011fi K\u0259s\u0259m\u0259n", "latitude": "41.1532", "longitude": "45.4892"}, {"country_code": "AZ", "postal_code": "AZ 0514", "place_name": "B\u00f6y\u00fck K\u0259sik", "latitude": "41.3902", "longitude": "45.1876"}, {"country_code": "AZ", "postal_code": "AZ 0515", "place_name": "Da\u011fk\u0259s\u0259m\u0259n", "latitude": "41.156", "longitude": "45.4352"}, {"country_code": "AZ", "postal_code": "AZ 0517", "place_name": "Eynalli", "latitude": "41.068", "longitude": "45.4991"}, {"country_code": "AZ", "postal_code": "AZ 0518", "place_name": "H\u0259s\u0259nsu", "latitude": "41.0822", "longitude": "45.4925"}, {"country_code": "AZ", "postal_code": "AZ 0519", "place_name": "X\u0259tai", "latitude": "41.1268", "longitude": "45.458"}, {"country_code": "AZ", "postal_code": "AZ 0520", "place_name": "K\u0259nd Poylu", "latitude": "41.107", "longitude": "45.6362"}, {"country_code": "AZ", "postal_code": "AZ 0521", "place_name": "K\u00f6\u00e7\u0259sg\u0259r", "latitude": "41.0575", "longitude": "45.5211"}, {"country_code": "AZ", "postal_code": "AZ 0523", "place_name": "Qirli", "latitude": "41.107", "longitude": "45.6362"}, {"country_code": "AZ", "postal_code": "AZ 0525", "place_name": "Mu\u011fanli", "latitude": "41.3446", "longitude": "45.197"}, {"country_code": "AZ", "postal_code": "AZ 0527", "place_name": "Poylu Va\u011fzal", "latitude": "41.107", "longitude": "45.6362"}, {"country_code": "AZ", "postal_code": "AZ 0528", "place_name": "S\u0259m\u0259d Vur\u011fun", "latitude": "40.919", "longitude": "46.1906"}, {"country_code": "AZ", "postal_code": "AZ 0529", "place_name": "Sadixli", "latitude": "41.107", "longitude": "45.6362"}, {"country_code": "AZ", "postal_code": "AZ 0532", "place_name": "Tatli", "latitude": "41.0257", "longitude": "45.4495"}, {"country_code": "AZ", "postal_code": "AZ 0533", "place_name": "Sadixli-1 Gomruk", "latitude": "41.0257", "longitude": "45.4495"}, {"country_code": "AZ", "postal_code": "AZ 0600", "place_name": "A\u011fsu", "latitude": "40.5703", "longitude": "48.4009"}, {"country_code": "AZ", "postal_code": "AZ 0601", "place_name": "1 Sayli", "latitude": "40.5703", "longitude": "48.4009"}, {"country_code": "AZ", "postal_code": "AZ 0611", "place_name": "Bico", "latitude": "40.5087", "longitude": "48.5578"}, {"country_code": "AZ", "postal_code": "AZ 0612", "place_name": "Bozavand", "latitude": "40.5049", "longitude": "48.3762"}, {"country_code": "AZ", "postal_code": "AZ 0614", "place_name": "\u00c7aparli", "latitude": "40.5096", "longitude": "48.4538"}, {"country_code": "AZ", "postal_code": "AZ 0615", "place_name": "\u00c7iyni", "latitude": "40.523", "longitude": "48.2458"}, {"country_code": "AZ", "postal_code": "AZ 0616", "place_name": "\u018fr\u0259bmehdib\u0259y", "latitude": "40.5439", "longitude": "48.1855"}, {"country_code": "AZ", "postal_code": "AZ 0617", "place_name": "\u018fr\u0259bu\u015fa\u011fi", "latitude": "40.5274", "longitude": "48.4156"}, {"country_code": "AZ", "postal_code": "AZ 0618", "place_name": "G\u0259g\u0259li", "latitude": "40.5385", "longitude": "48.4942"}, {"country_code": "AZ", "postal_code": "AZ 0620", "place_name": "Ilxi\u00e7i", "latitude": "40.4907", "longitude": "48.2952"}, {"country_code": "AZ", "postal_code": "AZ 0621", "place_name": "Kalva", "latitude": "40.7268", "longitude": "48.4811"}, {"country_code": "AZ", "postal_code": "AZ 0623", "place_name": "Qaraqoyunlu", "latitude": "40.5404", "longitude": "48.2995"}, {"country_code": "AZ", "postal_code": "AZ 0625", "place_name": "N\u00f6vc\u00fc", "latitude": "40.5187", "longitude": "48.2595"}, {"country_code": "AZ", "postal_code": "AZ 0627", "place_name": "Padar", "latitude": "40.5881", "longitude": "48.2512"}, {"country_code": "AZ", "postal_code": "AZ 0629", "place_name": "Pirh\u0259s\u0259nli", "latitude": "40.5806", "longitude": "48.3604"}, {"country_code": "AZ", "postal_code": "AZ 0630", "place_name": "R\u0259himli", "latitude": "40.4477", "longitude": "48.3826"}, {"country_code": "AZ", "postal_code": "AZ 1800", "place_name": "\u015eirvan", "latitude": "39.9378", "longitude": "48.929"}, {"country_code": "AZ", "postal_code": "AZ 1801", "place_name": "1 Sayli", "latitude": "39.9378", "longitude": "48.929"}, {"country_code": "AZ", "postal_code": "AZ 1802", "place_name": "2 Sayli", "latitude": "39.9378", "longitude": "48.929"}, {"country_code": "AZ", "postal_code": "AZ 1803", "place_name": "3 Sayli", "latitude": "39.9378", "longitude": "48.929"}, {"country_code": "AZ", "postal_code": "AZ 1804", "place_name": "4 Sayli", "latitude": "39.9378", "longitude": "48.929"}, {"country_code": "AZ", "postal_code": "AZ 1806", "place_name": "6 Sayli", "latitude": "39.9378", "longitude": "48.929"}, {"country_code": "AZ", "postal_code": "AZ 1812", "place_name": "12 Sayli", "latitude": "39.9378", "longitude": "48.929"}, {"country_code": "AZ", "postal_code": "AZ 0700", "place_name": "Astara", "latitude": "38.456", "longitude": "48.875"}, {"country_code": "AZ", "postal_code": "AZ 0701", "place_name": "1 Sayli", "latitude": "38.456", "longitude": "48.875"}, {"country_code": "AZ", "postal_code": "AZ 0702", "place_name": "2 Sayli", "latitude": "38.456", "longitude": "48.875"}, {"country_code": "AZ", "postal_code": "AZ 0704", "place_name": "Astara Gomruk", "latitude": "38.456", "longitude": "48.875"}, {"country_code": "AZ", "postal_code": "AZ 0711", "place_name": "\u018fr\u00e7ivan", "latitude": "38.5043", "longitude": "48.8316"}, {"country_code": "AZ", "postal_code": "AZ 0714", "place_name": "Kakalos", "latitude": "38.6114", "longitude": "48.8429"}, {"country_code": "AZ", "postal_code": "AZ 0715", "place_name": "Kicab\u0259", "latitude": "38.5487", "longitude": "48.8242"}, {"country_code": "AZ", "postal_code": "AZ 0716", "place_name": "Ma\u015fxan", "latitude": "38.5492", "longitude": "48.8203"}, {"country_code": "AZ", "postal_code": "AZ 0717", "place_name": "Pens\u0259r", "latitude": "38.6097", "longitude": "48.8175"}, {"country_code": "AZ", "postal_code": "AZ 0719", "place_name": "S\u0259nc\u0259r\u0259di", "latitude": "38.4688", "longitude": "48.8086"}, {"country_code": "AZ", "postal_code": "AZ 0720", "place_name": "Siy\u0259k\u00fc", "latitude": "38.5229", "longitude": "48.8251"}, {"country_code": "AZ", "postal_code": "AZ 0721", "place_name": "Supariba\u011f", "latitude": "38.4609", "longitude": "48.8523"}, {"country_code": "AZ", "postal_code": "AZ 0722", "place_name": "\u015eaha\u011faci", "latitude": "38.5229", "longitude": "48.8251"}, {"country_code": "AZ", "postal_code": "AZ 0723", "place_name": "\u015eiy\u0259k\u0259ran", "latitude": "38.5576", "longitude": "48.8694"}, {"country_code": "AZ", "postal_code": "AZ 0724", "place_name": "\u015euvi", "latitude": "38.4952", "longitude": "48.7621"}, {"country_code": "AZ", "postal_code": "AZ 0725", "place_name": "T\u0259ng\u0259r\u00fcd", "latitude": "38.578", "longitude": "48.8167"}, {"country_code": "AZ", "postal_code": "AZ 1000", "place_name": "Baki", "latitude": "40.3777", "longitude": "49.892"}, {"country_code": "AZ", "postal_code": "AZ 1001", "place_name": "Baki-1", "latitude": "40.3777", "longitude": "49.892"}, {"country_code": "AZ", "postal_code": "AZ 1002", "place_name": "Baki-2", "latitude": "40.3777", "longitude": "49.892"}, {"country_code": "AZ", "postal_code": "AZ 1003", "place_name": "Baki-3", "latitude": "40.3777", "longitude": "49.892"}, {"country_code": "AZ", "postal_code": "AZ 1004", "place_name": "Baki-4", "latitude": "40.3777", "longitude": "49.892"}, {"country_code": "AZ", "postal_code": "AZ 1005", "place_name": "Baki-5", "latitude": "40.3777", "longitude": "49.892"}, {"country_code": "AZ", "postal_code": "AZ 1006", "place_name": "Baki-6", "latitude": "40.3777", "longitude": "49.892"}, {"country_code": "AZ", "postal_code": "AZ 1007", "place_name": "Baki-7", "latitude": "40.3777", "longitude": "49.892"}, {"country_code": "AZ", "postal_code": "AZ 1008", "place_name": "Baki-8", "latitude": "40.3777", "longitude": "49.892"}, {"country_code": "AZ", "postal_code": "AZ 1009", "place_name": "Baki-9", "latitude": "40.3777", "longitude": "49.892"}, {"country_code": "AZ", "postal_code": "AZ 1010", "place_name": "Baki-10", "latitude": "39.9179", "longitude": "49.2168"}, {"country_code": "AZ", "postal_code": "AZ 1012", "place_name": "Baki-12", "latitude": "39.9179", "longitude": "49.2168"}, {"country_code": "AZ", "postal_code": "AZ 1014", "place_name": "Baki-14", "latitude": "39.9179", "longitude": "49.2168"}, {"country_code": "AZ", "postal_code": "AZ 1015", "place_name": "Baki-15", "latitude": "39.9179", "longitude": "49.2168"}, {"country_code": "AZ", "postal_code": "AZ 1016", "place_name": "Baki-16", "latitude": "39.9179", "longitude": "49.2168"}, {"country_code": "AZ", "postal_code": "AZ 1017", "place_name": "Baki-17", "latitude": "39.9179", "longitude": "49.2168"}, {"country_code": "AZ", "postal_code": "AZ 1018", "place_name": "Baki-18", "latitude": "39.9179", "longitude": "49.2168"}, {"country_code": "AZ", "postal_code": "AZ 1020", "place_name": "Baki-20", "latitude": "39.3138", "longitude": "49.2072"}, {"country_code": "AZ", "postal_code": "AZ 1021", "place_name": "Baki-21", "latitude": "39.3138", "longitude": "49.2072"}, {"country_code": "AZ", "postal_code": "AZ 1022", "place_name": "Baki-22", "latitude": "39.3138", "longitude": "49.2072"}, {"country_code": "AZ", "postal_code": "AZ 1023", "place_name": "Baki-23", "latitude": "39.3138", "longitude": "49.2072"}, {"country_code": "AZ", "postal_code": "AZ 1025", "place_name": "Baki-25", "latitude": "39.3138", "longitude": "49.2072"}, {"country_code": "AZ", "postal_code": "AZ 1026", "place_name": "Baki-26", "latitude": "39.3138", "longitude": "49.2072"}, {"country_code": "AZ", "postal_code": "AZ 1027", "place_name": "Baki-27", "latitude": "39.3138", "longitude": "49.2072"}, {"country_code": "AZ", "postal_code": "AZ 1029", "place_name": "Baki-29", "latitude": "39.3138", "longitude": "49.2072"}, {"country_code": "AZ", "postal_code": "AZ 1030", "place_name": "Baki-30", "latitude": "39.9179", "longitude": "49.2168"}, {"country_code": "AZ", "postal_code": "AZ 1031", "place_name": "Baki-31", "latitude": "39.9179", "longitude": "49.2168"}, {"country_code": "AZ", "postal_code": "AZ 1032", "place_name": "Baki-32", "latitude": "39.9179", "longitude": "49.2168"}, {"country_code": "AZ", "postal_code": "AZ 1033", "place_name": "Baki-33", "latitude": "39.9179", "longitude": "49.2168"}, {"country_code": "AZ", "postal_code": "AZ 1034", "place_name": "Baki-34", "latitude": "39.9179", "longitude": "49.2168"}, {"country_code": "AZ", "postal_code": "AZ 1035", "place_name": "Baki-35", "latitude": "39.9179", "longitude": "49.2168"}, {"country_code": "AZ", "postal_code": "AZ 1037", "place_name": "Baki-37", "latitude": "39.9179", "longitude": "49.2168"}, {"country_code": "AZ", "postal_code": "AZ 1038", "place_name": "Baki-38", "latitude": "39.9179", "longitude": "49.2168"}, {"country_code": "AZ", "postal_code": "AZ 1039", "place_name": "Baki-39", "latitude": "39.9179", "longitude": "49.2168"}, {"country_code": "AZ", "postal_code": "AZ 1040", "place_name": "Baki-40", "latitude": "39.9415", "longitude": "48.5493"}, {"country_code": "AZ", "postal_code": "AZ 1041", "place_name": "Baki-41", "latitude": "39.9415", "longitude": "48.5493"}, {"country_code": "AZ", "postal_code": "AZ 1042", "place_name": "Baki-42", "latitude": "39.9415", "longitude": "48.5493"}, {"country_code": "AZ", "postal_code": "AZ 1043", "place_name": "Baki-43", "latitude": "39.9415", "longitude": "48.5493"}, {"country_code": "AZ", "postal_code": "AZ 1044", "place_name": "Baki-44", "latitude": "39.9415", "longitude": "48.5493"}, {"country_code": "AZ", "postal_code": "AZ 1045", "place_name": "Baki-45", "latitude": "39.9415", "longitude": "48.5493"}, {"country_code": "AZ", "postal_code": "AZ 1046", "place_name": "Baki-46", "latitude": "39.9415", "longitude": "48.5493"}, {"country_code": "AZ", "postal_code": "AZ 1047", "place_name": "Baki-47", "latitude": "39.9415", "longitude": "48.5493"}, {"country_code": "AZ", "postal_code": "AZ 1048", "place_name": "Baki-48", "latitude": "39.9415", "longitude": "48.5493"}, {"country_code": "AZ", "postal_code": "AZ 1049", "place_name": "Baki-49", "latitude": "39.9415", "longitude": "48.5493"}, {"country_code": "AZ", "postal_code": "AZ 1050", "place_name": "Baki-50", "latitude": "39.9179", "longitude": "49.2168"}, {"country_code": "AZ", "postal_code": "AZ 1052", "place_name": "Baki-52", "latitude": "39.9179", "longitude": "49.2168"}, {"country_code": "AZ", "postal_code": "AZ 1053", "place_name": "Baki-53", "latitude": "39.9179", "longitude": "49.2168"}, {"country_code": "AZ", "postal_code": "AZ 1054", "place_name": "Baki-54", "latitude": "39.9179", "longitude": "49.2168"}, {"country_code": "AZ", "postal_code": "AZ 1056", "place_name": "Baki-56", "latitude": "39.9179", "longitude": "49.2168"}, {"country_code": "AZ", "postal_code": "AZ 1059", "place_name": "Baki-59", "latitude": "39.9179", "longitude": "49.2168"}, {"country_code": "AZ", "postal_code": "AZ 1060", "place_name": "Baki-60", "latitude": "39.9179", "longitude": "49.2168"}, {"country_code": "AZ", "postal_code": "AZ 1061", "place_name": "Baki-61", "latitude": "39.9179", "longitude": "49.2168"}, {"country_code": "AZ", "postal_code": "AZ 1062", "place_name": "Baki-62", "latitude": "39.9179", "longitude": "49.2168"}, {"country_code": "AZ", "postal_code": "AZ 1063", "place_name": "Baki-63", "latitude": "39.9179", "longitude": "49.2168"}, {"country_code": "AZ", "postal_code": "AZ 1064", "place_name": "Baki-64", "latitude": "39.9179", "longitude": "49.2168"}, {"country_code": "AZ", "postal_code": "AZ 1065", "place_name": "Baki-65", "latitude": "39.9179", "longitude": "49.2168"}, {"country_code": "AZ", "postal_code": "AZ 1066", "place_name": "Baki-66", "latitude": "39.9179", "longitude": "49.2168"}, {"country_code": "AZ", "postal_code": "AZ 1067", "place_name": "Baki-67", "latitude": "39.9179", "longitude": "49.2168"}, {"country_code": "AZ", "postal_code": "AZ 1068", "place_name": "Baki-68", "latitude": "39.9179", "longitude": "49.2168"}, {"country_code": "AZ", "postal_code": "AZ 1069", "place_name": "Baki-69", "latitude": "39.9179", "longitude": "49.2168"}, {"country_code": "AZ", "postal_code": "AZ 1070", "place_name": "Baki-70", "latitude": "39.9179", "longitude": "49.2168"}, {"country_code": "AZ", "postal_code": "AZ 1071", "place_name": "Baki-71", "latitude": "39.9179", "longitude": "49.2168"}, {"country_code": "AZ", "postal_code": "AZ 1072", "place_name": "Baki-72", "latitude": "39.9179", "longitude": "49.2168"}, {"country_code": "AZ", "postal_code": "AZ 1073", "place_name": "Baki-73", "latitude": "39.9179", "longitude": "49.2168"}, {"country_code": "AZ", "postal_code": "AZ 1074", "place_name": "Baki-74", "latitude": "39.9179", "longitude": "49.2168"}, {"country_code": "AZ", "postal_code": "AZ 1075", "place_name": "Baki-75", "latitude": "39.9179", "longitude": "49.2168"}, {"country_code": "AZ", "postal_code": "AZ 1076", "place_name": "Baki-76", "latitude": "39.9179", "longitude": "49.2168"}, {"country_code": "AZ", "postal_code": "AZ 1077", "place_name": "Baki-77", "latitude": "39.9179", "longitude": "49.2168"}, {"country_code": "AZ", "postal_code": "AZ 1078", "place_name": "Baki-78", "latitude": "39.9179", "longitude": "49.2168"}, {"country_code": "AZ", "postal_code": "AZ 1079", "place_name": "Baki-79", "latitude": "39.9179", "longitude": "49.2168"}, {"country_code": "AZ", "postal_code": "AZ 1080", "place_name": "Baki-80", "latitude": "39.9179", "longitude": "49.2168"}, {"country_code": "AZ", "postal_code": "AZ 1081", "place_name": "Baki-81", "latitude": "39.9179", "longitude": "49.2168"}, {"country_code": "AZ", "postal_code": "AZ 1082", "place_name": "Baki-82", "latitude": "39.9179", "longitude": "49.2168"}, {"country_code": "AZ", "postal_code": "AZ 1083", "place_name": "Baki-83", "latitude": "39.9179", "longitude": "49.2168"}, {"country_code": "AZ", "postal_code": "AZ 1084", "place_name": "Baki-84", "latitude": "39.9179", "longitude": "49.2168"}, {"country_code": "AZ", "postal_code": "AZ 1085", "place_name": "Baki-85", "latitude": "39.9179", "longitude": "49.2168"}, {"country_code": "AZ", "postal_code": "AZ 1086", "place_name": "Baki-86", "latitude": "39.9179", "longitude": "49.2168"}, {"country_code": "AZ", "postal_code": "AZ 1088", "place_name": "Baki-88", "latitude": "39.9179", "longitude": "49.2168"}, {"country_code": "AZ", "postal_code": "AZ 1089", "place_name": "Baki-89", "latitude": "39.9179", "longitude": "49.2168"}, {"country_code": "AZ", "postal_code": "AZ 1090", "place_name": "Baki-90", "latitude": "39.9179", "longitude": "49.2168"}, {"country_code": "AZ", "postal_code": "AZ 1091", "place_name": "Baki-91", "latitude": "39.9179", "longitude": "49.2168"}, {"country_code": "AZ", "postal_code": "AZ 1092", "place_name": "Baki-92", "latitude": "39.9179", "longitude": "49.2168"}, {"country_code": "AZ", "postal_code": "AZ 1093", "place_name": "Baki-93", "latitude": "39.9179", "longitude": "49.2168"}, {"country_code": "AZ", "postal_code": "AZ 1094", "place_name": "Baki-94", "latitude": "39.9179", "longitude": "49.2168"}, {"country_code": "AZ", "postal_code": "AZ 1096", "place_name": "Baki-96", "latitude": "39.9179", "longitude": "49.2168"}, {"country_code": "AZ", "postal_code": "AZ 1097", "place_name": "Baki-97", "latitude": "39.9179", "longitude": "49.2168"}, {"country_code": "AZ", "postal_code": "AZ 1098", "place_name": "Baki-98", "latitude": "39.9179", "longitude": "49.2168"}, {"country_code": "AZ", "postal_code": "AZ 1100", "place_name": "Baki-100", "latitude": "40.3777", "longitude": "49.892"}, {"country_code": "AZ", "postal_code": "AZ 1102", "place_name": "Baki-102", "latitude": "40.3777", "longitude": "49.892"}, {"country_code": "AZ", "postal_code": "AZ 1104", "place_name": "Baki-104", "latitude": "40.3777", "longitude": "49.892"}, {"country_code": "AZ", "postal_code": "AZ 1106", "place_name": "Baki-106", "latitude": "40.3777", "longitude": "49.892"}, {"country_code": "AZ", "postal_code": "AZ 1107", "place_name": "Baki-107", "latitude": "40.3777", "longitude": "49.892"}, {"country_code": "AZ", "postal_code": "AZ 1108", "place_name": "Baki-108", "latitude": "40.3777", "longitude": "49.892"}, {"country_code": "AZ", "postal_code": "AZ 1110", "place_name": "Baki-110", "latitude": "40.3777", "longitude": "49.892"}, {"country_code": "AZ", "postal_code": "AZ 1111", "place_name": "Baki-111", "latitude": "40.3777", "longitude": "49.892"}, {"country_code": "AZ", "postal_code": "AZ 1112", "place_name": "Baki-112", "latitude": "40.3777", "longitude": "49.892"}, {"country_code": "AZ", "postal_code": "AZ 1113", "place_name": "Baki-113", "latitude": "40.3777", "longitude": "49.892"}, {"country_code": "AZ", "postal_code": "AZ 1114", "place_name": "Baki-114", "latitude": "40.3777", "longitude": "49.892"}, {"country_code": "AZ", "postal_code": "AZ 1115", "place_name": "Baki-115", "latitude": "40.3777", "longitude": "49.892"}, {"country_code": "AZ", "postal_code": "AZ 1116", "place_name": "Baki-116", "latitude": "40.3777", "longitude": "49.892"}, {"country_code": "AZ", "postal_code": "AZ 1117", "place_name": "Baki-117", "latitude": "40.3777", "longitude": "49.892"}, {"country_code": "AZ", "postal_code": "AZ 1118", "place_name": "Baki-118", "latitude": "40.3777", "longitude": "49.892"}, {"country_code": "AZ", "postal_code": "AZ 1119", "place_name": "Baki-119", "latitude": "40.3777", "longitude": "49.892"}, {"country_code": "AZ", "postal_code": "AZ 1120", "place_name": "Baki-120", "latitude": "40.3777", "longitude": "49.892"}, {"country_code": "AZ", "postal_code": "AZ 1121", "place_name": "Baki-121", "latitude": "40.3777", "longitude": "49.892"}, {"country_code": "AZ", "postal_code": "AZ 1122", "place_name": "Baki-122", "latitude": "40.3777", "longitude": "49.892"}, {"country_code": "AZ", "postal_code": "AZ 1123", "place_name": "Baki-123", "latitude": "40.3777", "longitude": "49.892"}, {"country_code": "AZ", "postal_code": "AZ 1124", "place_name": "Baki-124", "latitude": "40.3777", "longitude": "49.892"}, {"country_code": "AZ", "postal_code": "AZ 1125", "place_name": "Baki-125", "latitude": "40.3777", "longitude": "49.892"}, {"country_code": "AZ", "postal_code": "AZ 1126", "place_name": "Baki-126", "latitude": "40.3777", "longitude": "49.892"}, {"country_code": "AZ", "postal_code": "AZ 1127", "place_name": "Baki-127", "latitude": "40.3777", "longitude": "49.892"}, {"country_code": "AZ", "postal_code": "AZ 1128", "place_name": "Baki-128", "latitude": "40.3777", "longitude": "49.892"}, {"country_code": "AZ", "postal_code": "AZ 1129", "place_name": "Baki-129", "latitude": "40.3777", "longitude": "49.892"}, {"country_code": "AZ", "postal_code": "AZ 1130", "place_name": "Baki-130", "latitude": "40.3777", "longitude": "49.892"}, {"country_code": "AZ", "postal_code": "AZ 1131", "place_name": "Baki-131", "latitude": "40.3777", "longitude": "49.892"}, {"country_code": "AZ", "postal_code": "AZ 1132", "place_name": "Baki-132", "latitude": "40.3777", "longitude": "49.892"}, {"country_code": "AZ", "postal_code": "AZ 1133", "place_name": "Baki-133", "latitude": "40.3777", "longitude": "49.892"}, {"country_code": "AZ", "postal_code": "AZ 1134", "place_name": "Baki-134", "latitude": "40.3777", "longitude": "49.892"}, {"country_code": "AZ", "postal_code": "AZ 1135", "place_name": "Baki-135", "latitude": "40.3777", "longitude": "49.892"}, {"country_code": "AZ", "postal_code": "AZ 1136", "place_name": "Baki-136", "latitude": "40.3777", "longitude": "49.892"}, {"country_code": "AZ", "postal_code": "AZ 1137", "place_name": "Baki-137", "latitude": "40.3777", "longitude": "49.892"}, {"country_code": "AZ", "postal_code": "AZ 1138", "place_name": "Baki-138", "latitude": "40.3777", "longitude": "49.892"}, {"country_code": "AZ", "postal_code": "AZ 1139", "place_name": "Baki-139", "latitude": "40.3777", "longitude": "49.892"}, {"country_code": "AZ", "postal_code": "AZ 1140", "place_name": "Baki-140", "latitude": "40.3777", "longitude": "49.892"}, {"country_code": "AZ", "postal_code": "AZ 1141", "place_name": "Baki-141", "latitude": "40.3777", "longitude": "49.892"}, {"country_code": "AZ", "postal_code": "AZ 1142", "place_name": "Baki-142", "latitude": "40.3777", "longitude": "49.892"}, {"country_code": "AZ", "postal_code": "AZ 1143", "place_name": "Baki-143", "latitude": "40.3777", "longitude": "49.892"}, {"country_code": "AZ", "postal_code": "AZ 1144", "place_name": "Baki-144", "latitude": "40.3777", "longitude": "49.892"}, {"country_code": "AZ", "postal_code": "AZ 1145", "place_name": "Baki-145", "latitude": "40.3777", "longitude": "49.892"}, {"country_code": "AZ", "postal_code": "AZ 1146", "place_name": "Baki-146", "latitude": "40.3777", "longitude": "49.892"}, {"country_code": "AZ", "postal_code": "AZ 1147", "place_name": "Baki-147", "latitude": "40.3777", "longitude": "49.892"}, {"country_code": "AZ", "postal_code": "AZ 1148", "place_name": "Baki-148", "latitude": "40.3777", "longitude": "49.892"}, {"country_code": "AZ", "postal_code": "AZ 1149", "place_name": "Baki-149", "latitude": "40.3777", "longitude": "49.892"}, {"country_code": "AZ", "postal_code": "AZ 1150", "place_name": "Baki-150", "latitude": "40.3777", "longitude": "49.892"}, {"country_code": "AZ", "postal_code": "AZ 1151", "place_name": "Baki-151", "latitude": "40.3777", "longitude": "49.892"}, {"country_code": "AZ", "postal_code": "AZ 1152", "place_name": "Baki-152", "latitude": "40.3777", "longitude": "49.892"}, {"country_code": "AZ", "postal_code": "AZ 1153", "place_name": "Baki-153", "latitude": "40.3777", "longitude": "49.892"}, {"country_code": "AZ", "postal_code": "AZ 1154", "place_name": "Baki-154", "latitude": "40.3777", "longitude": "49.892"}, {"country_code": "AZ", "postal_code": "AZ 1156", "place_name": "Hava Limani Baki Gomruk", "latitude": "40.3777", "longitude": "49.892"}, {"country_code": "AZ", "postal_code": "AZ 1157", "place_name": "Baki Deniz Limani", "latitude": "40.3777", "longitude": "49.892"}, {"country_code": "AZ", "postal_code": "AZ 1158", "place_name": "Qobu Park", "latitude": "40.3777", "longitude": "49.892"}, {"country_code": "AZ", "postal_code": "AZ 1170", "place_name": "Elet Liman Gomruk", "latitude": "40.3777", "longitude": "49.892"}, {"country_code": "AZ", "postal_code": "AZ 0800", "place_name": "Balak\u0259n", "latitude": "41.7263", "longitude": "46.4048"}, {"country_code": "AZ", "postal_code": "AZ 0801", "place_name": "1 Sayli", "latitude": "41.7263", "longitude": "46.4048"}, {"country_code": "AZ", "postal_code": "AZ 0811", "place_name": "G\u0259r\u0259kli", "latitude": "41.7618", "longitude": "46.3274"}, {"country_code": "AZ", "postal_code": "AZ 0812", "place_name": "H\u0259nif\u0259", "latitude": "41.7128", "longitude": "46.4073"}, {"country_code": "AZ", "postal_code": "AZ 0814", "place_name": "Ititala", "latitude": "41.5813", "longitude": "46.3673"}, {"country_code": "AZ", "postal_code": "AZ 0815", "place_name": "Katex", "latitude": "41.656", "longitude": "46.5516"}, {"country_code": "AZ", "postal_code": "AZ 0816", "place_name": "Qabaq\u00e7\u00f6l", "latitude": "41.7526", "longitude": "46.2705"}, {"country_code": "AZ", "postal_code": "AZ 0817", "place_name": "Kortala", "latitude": "41.6148", "longitude": "46.3818"}, {"country_code": "AZ", "postal_code": "AZ 0818", "place_name": "P\u00fc\u015ft\u0259tala", "latitude": "41.6285", "longitude": "46.4141"}, {"country_code": "AZ", "postal_code": "AZ 0820", "place_name": "Qazma", "latitude": "41.6942", "longitude": "46.386"}, {"country_code": "AZ", "postal_code": "AZ 0821", "place_name": "Qazbin\u0259", "latitude": "41.7121", "longitude": "46.3412"}, {"country_code": "AZ", "postal_code": "AZ 0822", "place_name": "Qullar", "latitude": "41.7312", "longitude": "46.4328"}, {"country_code": "AZ", "postal_code": "AZ 0823", "place_name": "Mahamalar", "latitude": "41.7366", "longitude": "46.4141"}, {"country_code": "AZ", "postal_code": "AZ 0824", "place_name": "Me\u015f\u0259\u015fambul", "latitude": "41.7129", "longitude": "46.2905"}, {"country_code": "AZ", "postal_code": "AZ 0826", "place_name": "Saribulaq", "latitude": "41.679", "longitude": "46.3025"}, {"country_code": "AZ", "postal_code": "AZ 0827", "place_name": "\u015eambul", "latitude": "41.6921", "longitude": "46.272"}, {"country_code": "AZ", "postal_code": "AZ 0828", "place_name": "\u015e\u0259rif", "latitude": "41.7379", "longitude": "46.2559"}, {"country_code": "AZ", "postal_code": "AZ 0829", "place_name": "Talalar", "latitude": "41.7132", "longitude": "46.3763"}, {"country_code": "AZ", "postal_code": "AZ 0830", "place_name": "T\u00fcl\u00fc", "latitude": "41.7272", "longitude": "46.3698"}, {"country_code": "AZ", "postal_code": "AZ 0831", "place_name": "Yeni \u015e\u0259rif", "latitude": "41.7379", "longitude": "46.2559"}, {"country_code": "AZ", "postal_code": "AZ 0833", "place_name": "Mazim\u00e7ay (Dgk)", "latitude": "41.7325", "longitude": "46.3129"}, {"country_code": "AZ", "postal_code": "AZ 0900", "place_name": "B\u0259rd\u0259", "latitude": "40.3758", "longitude": "47.1262"}, {"country_code": "AZ", "postal_code": "AZ 0901", "place_name": "B\u0259rd\u0259-1 ", "latitude": "40.3758", "longitude": "47.1262"}, {"country_code": "AZ", "postal_code": "AZ 0902", "place_name": "B\u0259rd\u0259-2", "latitude": "40.3758", "longitude": "47.1262"}, {"country_code": "AZ", "postal_code": "AZ 0911", "place_name": "Alpout", "latitude": "40.3242", "longitude": "47.2019"}, {"country_code": "AZ", "postal_code": "AZ 0912", "place_name": "B\u0259rd\u0259 St", "latitude": "40.4064", "longitude": "47.1376"}, {"country_code": "AZ", "postal_code": "AZ 0913", "place_name": "B\u00f6y\u00fck G\u00f6y\u00fc\u015fl\u00fc", "latitude": "40.3453", "longitude": "47.2252"}, {"country_code": "AZ", "postal_code": "AZ 0914", "place_name": "Qazaxlar", "latitude": "40.4197", "longitude": "47.0234"}, {"country_code": "AZ", "postal_code": "AZ 0915", "place_name": "Yeni \u018fyri\u00e7\u0259", "latitude": "40.4268", "longitude": "47.2338"}, {"country_code": "AZ", "postal_code": "AZ 0918", "place_name": "Hacalli", "latitude": "40.4781", "longitude": "47.0623"}, {"country_code": "AZ", "postal_code": "AZ 0919", "place_name": "H\u0259s\u0259nqaya", "latitude": "40.4442", "longitude": "47.079"}, {"country_code": "AZ", "postal_code": "AZ 0922", "place_name": "K\u0259t\u0259lparaq", "latitude": "40.2826", "longitude": "47.1146"}, {"country_code": "AZ", "postal_code": "AZ 0924", "place_name": "Qarad\u0259mir\u00e7i", "latitude": "40.3161", "longitude": "47.1701"}, {"country_code": "AZ", "postal_code": "AZ 0925", "place_name": "Qaraqirnaq", "latitude": "40.3161", "longitude": "47.1701"}, {"country_code": "AZ", "postal_code": "AZ 0927", "place_name": "L\u0259nb\u0259ran", "latitude": "40.2191", "longitude": "47.3124"}, {"country_code": "AZ", "postal_code": "AZ 0928", "place_name": "Mehdixanli", "latitude": "40.4826", "longitude": "47.0516"}, {"country_code": "AZ", "postal_code": "AZ 0929", "place_name": "Mehdili", "latitude": "40.2803", "longitude": "47.2017"}, {"country_code": "AZ", "postal_code": "AZ 0931", "place_name": "Mirz\u0259c\u0259f\u0259rli", "latitude": "40.4733", "longitude": "47.1629"}, {"country_code": "AZ", "postal_code": "AZ 0933", "place_name": "Mirz\u0259lib\u0259yli", "latitude": "40.5415", "longitude": "46.9371"}, {"country_code": "AZ", "postal_code": "AZ 0937", "place_name": "Otuzikil\u0259r", "latitude": "40.3864", "longitude": "47.2397"}, {"country_code": "AZ", "postal_code": "AZ 0938", "place_name": "Samux", "latitude": "40.7649", "longitude": "46.4087"}, {"country_code": "AZ", "postal_code": "AZ 0942", "place_name": "\u015eirvanli", "latitude": "40.3238", "longitude": "47.1275"}, {"country_code": "AZ", "postal_code": "AZ 0943", "place_name": "Yenida\u015fk\u0259nd", "latitude": "40.3238", "longitude": "47.1275"}, {"country_code": "AZ", "postal_code": "AZ 1200", "place_name": "Beyl\u0259qan", "latitude": "39.7756", "longitude": "47.6186"}, {"country_code": "AZ", "postal_code": "AZ 1211", "place_name": "A\u015fa\u011fi \u00c7\u0259m\u0259nli", "latitude": "39.6848", "longitude": "47.8153"}, {"country_code": "AZ", "postal_code": "AZ 1213", "place_name": "Binn\u0259tli", "latitude": "39.7627", "longitude": "47.6959"}, {"country_code": "AZ", "postal_code": "AZ 1214", "place_name": "Allahyarli", "latitude": "39.7225", "longitude": "47.5725"}, {"country_code": "AZ", "postal_code": "AZ 1215", "place_name": "A\u015fiqli-1", "latitude": "39.7627", "longitude": "47.6959"}, {"country_code": "AZ", "postal_code": "AZ 1216", "place_name": "Da\u015fburun", "latitude": "39.7627", "longitude": "47.6959"}, {"country_code": "AZ", "postal_code": "AZ 1217", "place_name": "D\u00fcnyamallar", "latitude": "39.7728", "longitude": "47.7589"}, {"country_code": "AZ", "postal_code": "AZ 1218", "place_name": "Eyvazallar", "latitude": "39.8705", "longitude": "47.637"}, {"country_code": "AZ", "postal_code": "AZ 1219", "place_name": "\u018flin\u0259z\u0259rli", "latitude": "39.7627", "longitude": "47.6959"}, {"country_code": "AZ", "postal_code": "AZ 1220", "place_name": "Xala\u00e7", "latitude": "39.808", "longitude": "47.5591"}, {"country_code": "AZ", "postal_code": "AZ 1222", "place_name": "K\u0259birli", "latitude": "39.8519", "longitude": "47.5344"}, {"country_code": "AZ", "postal_code": "AZ 1223", "place_name": "Qarallar", "latitude": "39.808", "longitude": "47.5591"}, {"country_code": "AZ", "postal_code": "AZ 1224", "place_name": "Q\u0259hr\u0259manli", "latitude": "39.808", "longitude": "47.5591"}, {"country_code": "AZ", "postal_code": "AZ 1225", "place_name": "Mil-2", "latitude": "39.808", "longitude": "47.5591"}, {"country_code": "AZ", "postal_code": "AZ 1226", "place_name": "Milabad", "latitude": "39.6863", "longitude": "47.645"}, {"country_code": "AZ", "postal_code": "AZ 1227", "place_name": "\u00d6r\u0259nqala", "latitude": "39.8858", "longitude": "47.4978"}, {"country_code": "AZ", "postal_code": "AZ 1228", "place_name": "\u015eahsev\u0259n-2", "latitude": "39.808", "longitude": "47.5591"}, {"country_code": "AZ", "postal_code": "AZ 1230", "place_name": "Tatallar", "latitude": "39.7403", "longitude": "47.68"}, {"country_code": "AZ", "postal_code": "AZ 1232", "place_name": "Yuxari Aran", "latitude": "39.7327", "longitude": "47.6576"}, {"country_code": "AZ", "postal_code": "AZ 1234", "place_name": "Yuxari \u00c7\u0259m\u0259nli", "latitude": "39.6725", "longitude": "47.7938"}, {"country_code": "AZ", "postal_code": "AZ 1236", "place_name": "T\u0259z\u0259k\u0259nd", "latitude": "39.8156", "longitude": "47.5886"}, {"country_code": "AZ", "postal_code": "AZ 1300", "place_name": "Bil\u0259suvar", "latitude": "39.5868", "longitude": "48.54"}, {"country_code": "AZ", "postal_code": "AZ 1301", "place_name": "1 Sayli", "latitude": "39.5868", "longitude": "48.54"}, {"country_code": "AZ", "postal_code": "AZ 1311", "place_name": "A\u011falik\u0259nd", "latitude": "39.4275", "longitude": "48.4541"}, {"country_code": "AZ", "postal_code": "AZ 1312", "place_name": "Ba\u011fbanlar", "latitude": "39.4921", "longitude": "48.5627"}, {"country_code": "AZ", "postal_code": "AZ 1313", "place_name": "A\u015fa\u011fi C\u00fcr\u0259li", "latitude": "39.479", "longitude": "48.5086"}, {"country_code": "AZ", "postal_code": "AZ 1316", "place_name": "\u018fsg\u0259rabad", "latitude": "39.4308", "longitude": "48.5718"}, {"country_code": "AZ", "postal_code": "AZ 1317", "place_name": "Xirmandali", "latitude": "39.4511", "longitude": "48.6075"}, {"country_code": "AZ", "postal_code": "AZ 1318", "place_name": "Ism\u0259tli", "latitude": "39.5303", "longitude": "48.5301"}, {"country_code": "AZ", "postal_code": "AZ 1319", "place_name": "S\u0259m\u0259dabad", "latitude": "39.5421", "longitude": "48.3253"}, {"country_code": "AZ", "postal_code": "AZ 1320", "place_name": "N\u0259simik\u0259nd", "latitude": "39.8385", "longitude": "48.6133"}, {"country_code": "AZ", "postal_code": "AZ 1323", "place_name": "D\u00f6vr\u00fc\u015fl\u00fc", "latitude": "39.8385", "longitude": "48.6133"}, {"country_code": "AZ", "postal_code": "AZ 1325", "place_name": "Qo\u015fat\u0259p\u0259 G\u00f6mr\u00fck (Dgk)", "latitude": "39.8385", "longitude": "48.6133"}, {"country_code": "AZ", "postal_code": "AZ 1500", "place_name": "C\u0259lilabad", "latitude": "39.2096", "longitude": "48.4919"}, {"country_code": "AZ", "postal_code": "AZ 1501", "place_name": "1 Sayli", "latitude": "39.2096", "longitude": "48.4919"}, {"country_code": "AZ", "postal_code": "AZ 1502", "place_name": "2 Sayli", "latitude": "39.2096", "longitude": "48.4919"}, {"country_code": "AZ", "postal_code": "AZ 1511", "place_name": "A\u011fda\u015f", "latitude": "39.1181", "longitude": "48.4961"}, {"country_code": "AZ", "postal_code": "AZ 1512", "place_name": "Alar", "latitude": "39.3164", "longitude": "48.5349"}, {"country_code": "AZ", "postal_code": "AZ 1513", "place_name": "C\u0259ngan", "latitude": "39.1827", "longitude": "48.3233"}, {"country_code": "AZ", "postal_code": "AZ 1514", "place_name": "G\u00f6yt\u0259p\u0259", "latitude": "39.12", "longitude": "48.5938"}, {"country_code": "AZ", "postal_code": "AZ 1516", "place_name": "G\u00fcn\u0259\u015fli", "latitude": "39.2877", "longitude": "48.5703"}, {"country_code": "AZ", "postal_code": "AZ 1517", "place_name": "Hamarqi\u015flaq", "latitude": "39.1694", "longitude": "48.4692"}, {"country_code": "AZ", "postal_code": "AZ 1518", "place_name": "X\u0259nagah", "latitude": "39.1827", "longitude": "48.5055"}, {"country_code": "AZ", "postal_code": "AZ 1519", "place_name": "Komanli", "latitude": "39.0846", "longitude": "48.5508"}, {"country_code": "AZ", "postal_code": "AZ 1520", "place_name": "Qarakazimli", "latitude": "39.3071", "longitude": "48.2769"}, {"country_code": "AZ", "postal_code": "AZ 1521", "place_name": "Qaraz\u0259ncir", "latitude": "39.2633", "longitude": "48.5084"}, {"country_code": "AZ", "postal_code": "AZ 1523", "place_name": "Privolnoye", "latitude": "39.1292", "longitude": "48.5403"}, {"country_code": "AZ", "postal_code": "AZ 1524", "place_name": "Sabirabad", "latitude": "39.2609", "longitude": "48.5335"}, {"country_code": "AZ", "postal_code": "AZ 1525", "place_name": "\u015eil\u0259v\u0259ng\u0259", "latitude": "39.2604", "longitude": "48.4367"}, {"country_code": "AZ", "postal_code": "AZ 1526", "place_name": "T\u0259kl\u0259", "latitude": "39.2568", "longitude": "48.3468"}, {"country_code": "AZ", "postal_code": "AZ 1527", "place_name": "Uzunt\u0259p\u0259", "latitude": "39.2184", "longitude": "48.6068"}, {"country_code": "AZ", "postal_code": "AZ 1528", "place_name": "\u00dc\u00e7t\u0259p\u0259", "latitude": "39.3367", "longitude": "48.4269"}, {"country_code": "AZ", "postal_code": "AZ 1529", "place_name": "\u018fliqasimli", "latitude": "39.2866", "longitude": "48.4569"}, {"country_code": "AZ", "postal_code": "AZ 1530", "place_name": "Astanli", "latitude": "39.1948", "longitude": "48.4282"}, {"country_code": "AZ", "postal_code": "AZ 1600", "place_name": "Da\u015fk\u0259s\u0259n", "latitude": "40.5239", "longitude": "46.0819"}, {"country_code": "AZ", "postal_code": "AZ 1613", "place_name": "Bayan", "latitude": "40.5538", "longitude": "46.1504"}, {"country_code": "AZ", "postal_code": "AZ 1621", "place_name": "Qabaqt\u0259p\u0259", "latitude": "40.4787", "longitude": "45.9068"}, {"country_code": "AZ", "postal_code": "AZ 1626", "place_name": "Yuxari Da\u015fk\u0259s\u0259n", "latitude": "40.4936", "longitude": "46.0718"}, {"country_code": "AZ", "postal_code": "AZ 1700", "place_name": "\u015eabran", "latitude": "41.2012", "longitude": "48.9871"}, {"country_code": "AZ", "postal_code": "AZ 1701", "place_name": "1 Sayli", "latitude": "41.2012", "longitude": "48.9871"}, {"country_code": "AZ", "postal_code": "AZ 1711", "place_name": "A\u011faliq", "latitude": "41.2168", "longitude": "48.8801"}, {"country_code": "AZ", "postal_code": "AZ 1714", "place_name": "Da\u011fbilici", "latitude": "41.2168", "longitude": "48.8801"}, {"country_code": "AZ", "postal_code": "AZ 1715", "place_name": "D\u0259v\u0259\u00e7i Va\u011fzal", "latitude": "41.2168", "longitude": "48.8801"}, {"country_code": "AZ", "postal_code": "AZ 1716", "place_name": "\u018fmirxanli", "latitude": "41.1282", "longitude": "48.9258"}, {"country_code": "AZ", "postal_code": "AZ 1717", "place_name": "G\u0259ndob", "latitude": "41.2168", "longitude": "48.8801"}, {"country_code": "AZ", "postal_code": "AZ 1718", "place_name": "Pir\u0259b\u0259dil", "latitude": "41.2081", "longitude": "48.8013"}, {"country_code": "AZ", "postal_code": "AZ 1719", "place_name": "R\u0259himli", "latitude": "41.3141", "longitude": "48.9132"}, {"country_code": "AZ", "postal_code": "AZ 1720", "place_name": "D\u0259v\u0259\u00e7ik\u0259nd", "latitude": "41.2418", "longitude": "48.8096"}, {"country_code": "AZ", "postal_code": "AZ 1721", "place_name": "\u015eahn\u0259z\u0259rli", "latitude": "41.2857", "longitude": "48.8783"}, {"country_code": "AZ", "postal_code": "AZ 1725", "place_name": "Zeyv\u0259", "latitude": "41.1979", "longitude": "48.7409"}, {"country_code": "AZ", "postal_code": "AZ 1900", "place_name": "F\u00fczuli", "latitude": "39.6009", "longitude": "47.1453"}, {"country_code": "AZ", "postal_code": "AZ 1915", "place_name": "Babi", "latitude": "39.5527", "longitude": "47.5921"}, {"country_code": "AZ", "postal_code": "AZ 1917", "place_name": "Bala B\u0259hm\u0259nli", "latitude": "39.5527", "longitude": "47.5921"}, {"country_code": "AZ", "postal_code": "AZ 1921", "place_name": "\u018fhm\u0259db\u0259yli", "latitude": "39.5656", "longitude": "47.5516"}, {"country_code": "AZ", "postal_code": "AZ 1924", "place_name": "Horadiz Q\u0259s\u0259b\u0259", "latitude": "39.5656", "longitude": "47.5516"}, {"country_code": "AZ", "postal_code": "AZ 1930", "place_name": "K\u0259rimb\u0259yli", "latitude": "39.5085", "longitude": "47.4167"}, {"country_code": "AZ", "postal_code": "AZ 2100", "place_name": "G\u0259d\u0259b\u0259y", "latitude": "40.5706", "longitude": "45.8123"}, {"country_code": "AZ", "postal_code": "AZ 2111", "place_name": "\u00c7anaq\u00e7i", "latitude": "40.4126", "longitude": "46.1323"}, {"country_code": "AZ", "postal_code": "AZ 2112", "place_name": "Araba\u00e7i", "latitude": "40.545", "longitude": "45.5693"}, {"country_code": "AZ", "postal_code": "AZ 2114", "place_name": "B\u00f6y\u00fck Qaramurad", "latitude": "40.5763", "longitude": "45.6373"}, {"country_code": "AZ", "postal_code": "AZ 2116", "place_name": "\u00c7obank\u0259nd", "latitude": "40.5628", "longitude": "45.5832"}, {"country_code": "AZ", "postal_code": "AZ 2118", "place_name": "D\u0259yirmanda\u011f", "latitude": "40.5592", "longitude": "45.6957"}, {"country_code": "AZ", "postal_code": "AZ 2120", "place_name": "Alnabat", "latitude": "40.629", "longitude": "45.4758"}, {"country_code": "AZ", "postal_code": "AZ 2123", "place_name": "G\u0259r-G\u0259r", "latitude": "40.629", "longitude": "45.4758"}, {"country_code": "AZ", "postal_code": "AZ 2124", "place_name": "G\u00f6y\u0259lli", "latitude": "40.6946", "longitude": "45.4225"}, {"country_code": "AZ", "postal_code": "AZ 2128", "place_name": "Isali", "latitude": "40.6338", "longitude": "45.4609"}, {"country_code": "AZ", "postal_code": "AZ 2129", "place_name": "Ivanovka", "latitude": "40.5586", "longitude": "45.544"}, {"country_code": "AZ", "postal_code": "AZ 2130", "place_name": "Ki\u00e7ik Qaramurad", "latitude": "40.5543", "longitude": "45.6713"}, {"country_code": "AZ", "postal_code": "AZ 2131", "place_name": "Qaram\u0259mm\u0259dli", "latitude": "40.5924", "longitude": "45.6451"}, {"country_code": "AZ", "postal_code": "AZ 2133", "place_name": "Qo\u015fabulaq", "latitude": "40.7442", "longitude": "45.7407"}, {"country_code": "AZ", "postal_code": "AZ 2135", "place_name": "Plank\u0259nd", "latitude": "40.4861", "longitude": "45.7539"}, {"country_code": "AZ", "postal_code": "AZ 2137", "place_name": "R\u0259sullu", "latitude": "40.6543", "longitude": "45.7826"}, {"country_code": "AZ", "postal_code": "AZ 2138", "place_name": "Miskinli", "latitude": "40.8293", "longitude": "46.1176"}, {"country_code": "AZ", "postal_code": "AZ 2139", "place_name": "N\u0259rimank\u0259nd", "latitude": "40.7192", "longitude": "45.7673"}, {"country_code": "AZ", "postal_code": "AZ 2140", "place_name": "Saratovka", "latitude": "40.5981", "longitude": "45.6008"}, {"country_code": "AZ", "postal_code": "AZ 2141", "place_name": "Slavyanka", "latitude": "40.6566", "longitude": "45.8117"}, {"country_code": "AZ", "postal_code": "AZ 2142", "place_name": "S\u00f6y\u00fcdl\u00fc", "latitude": "40.5967", "longitude": "45.8366"}, {"country_code": "AZ", "postal_code": "AZ 2144", "place_name": "Z\u0259hm\u0259t", "latitude": "40.6171", "longitude": "45.7497"}, {"country_code": "AZ", "postal_code": "AZ 2000", "place_name": "G\u0259nc\u0259", "latitude": "40.6828", "longitude": "46.3606"}, {"country_code": "AZ", "postal_code": "AZ 2001", "place_name": "1 Sayli", "latitude": "40.6828", "longitude": "46.3606"}, {"country_code": "AZ", "postal_code": "AZ 2002", "place_name": "2 Sayli", "latitude": "40.6828", "longitude": "46.3606"}, {"country_code": "AZ", "postal_code": "AZ 2003", "place_name": "3 Sayli", "latitude": "40.6828", "longitude": "46.3606"}, {"country_code": "AZ", "postal_code": "AZ 2004", "place_name": "4 Sayli", "latitude": "40.6828", "longitude": "46.3606"}, {"country_code": "AZ", "postal_code": "AZ 2005", "place_name": "5 Sayli", "latitude": "40.6828", "longitude": "46.3606"}, {"country_code": "AZ", "postal_code": "AZ 2006", "place_name": "6 Sayli", "latitude": "40.6828", "longitude": "46.3606"}, {"country_code": "AZ", "postal_code": "AZ 2007", "place_name": "7 Sayli", "latitude": "40.6828", "longitude": "46.3606"}, {"country_code": "AZ", "postal_code": "AZ 2008", "place_name": "8 Sayli", "latitude": "40.6828", "longitude": "46.3606"}, {"country_code": "AZ", "postal_code": "AZ 2009", "place_name": "9 Sayli", "latitude": "40.6828", "longitude": "46.3606"}, {"country_code": "AZ", "postal_code": "AZ 2010", "place_name": "10 Sayli", "latitude": "40.6828", "longitude": "46.3606"}, {"country_code": "AZ", "postal_code": "AZ 2011", "place_name": "11 Sayli", "latitude": "40.6828", "longitude": "46.3606"}, {"country_code": "AZ", "postal_code": "AZ 2012", "place_name": "12 Sayli", "latitude": "40.6828", "longitude": "46.3606"}, {"country_code": "AZ", "postal_code": "AZ 2013", "place_name": "13 Sayli", "latitude": "40.6828", "longitude": "46.3606"}, {"country_code": "AZ", "postal_code": "AZ 2016", "place_name": "16 Sayli", "latitude": "40.6828", "longitude": "46.3606"}, {"country_code": "AZ", "postal_code": "AZ 2017", "place_name": "17 Sayli", "latitude": "40.6828", "longitude": "46.3606"}, {"country_code": "AZ", "postal_code": "AZ 2018", "place_name": "18 Sayli", "latitude": "40.6828", "longitude": "46.3606"}, {"country_code": "AZ", "postal_code": "AZ 2019", "place_name": "19 Sayli", "latitude": "40.6828", "longitude": "46.3606"}, {"country_code": "AZ", "postal_code": "AZ 2021", "place_name": "21 Sayli", "latitude": "40.6828", "longitude": "46.3606"}, {"country_code": "AZ", "postal_code": "AZ 2022", "place_name": "22 Sayli", "latitude": "40.6828", "longitude": "46.3606"}, {"country_code": "AZ", "postal_code": "AZ 2023", "place_name": "23 Sayli", "latitude": "40.6828", "longitude": "46.3606"}, {"country_code": "AZ", "postal_code": "AZ 2024", "place_name": "24 Sayli", "latitude": "40.6828", "longitude": "46.3606"}, {"country_code": "AZ", "postal_code": "AZ 2200", "place_name": "Goranboy", "latitude": "40.6103", "longitude": "46.7897"}, {"country_code": "AZ", "postal_code": "AZ 2201", "place_name": "1 Sayli", "latitude": "40.6103", "longitude": "46.7897"}, {"country_code": "AZ", "postal_code": "AZ 2211", "place_name": "Duzqishlaq", "latitude": "40.6282", "longitude": "46.6432"}, {"country_code": "AZ", "postal_code": "AZ 2212", "place_name": "A\u015fa\u011fi A\u011fcak\u0259nd", "latitude": "40.4179", "longitude": "46.5648"}, {"country_code": "AZ", "postal_code": "AZ 2214", "place_name": "Borsunlu", "latitude": "40.6502", "longitude": "46.6653"}, {"country_code": "AZ", "postal_code": "AZ 2215", "place_name": "Boluslu", "latitude": "40.6326", "longitude": "46.8551"}, {"country_code": "AZ", "postal_code": "AZ 2216", "place_name": "D\u0259lim\u0259mm\u0259dli", "latitude": "40.694", "longitude": "46.5717"}, {"country_code": "AZ", "postal_code": "AZ 2218", "place_name": "Faxrali", "latitude": "40.7465", "longitude": "46.5592"}, {"country_code": "AZ", "postal_code": "AZ 2222", "place_name": "Hazir \u018fhm\u0259dli", "latitude": "40.6298", "longitude": "46.6754"}, {"country_code": "AZ", "postal_code": "AZ 2223", "place_name": "Xan Q\u0259rv\u0259nd", "latitude": "40.4949", "longitude": "46.8934"}, {"country_code": "AZ", "postal_code": "AZ 2225", "place_name": "Xinali", "latitude": "40.7266", "longitude": "46.7217"}, {"country_code": "AZ", "postal_code": "AZ 2226", "place_name": "Xoylu", "latitude": "40.6453", "longitude": "46.5364"}, {"country_code": "AZ", "postal_code": "AZ 2227", "place_name": "Qarada\u011fli", "latitude": "40.6522", "longitude": "46.5502"}, {"country_code": "AZ", "postal_code": "AZ 2231", "place_name": "Qizil Hacili", "latitude": "40.5896", "longitude": "46.6364"}, {"country_code": "AZ", "postal_code": "AZ 2232", "place_name": "Qizil Hacili 1", "latitude": "40.5896", "longitude": "46.6364"}, {"country_code": "AZ", "postal_code": "AZ 2233", "place_name": "Muzdurlar", "latitude": "40.6998", "longitude": "46.6053"}, {"country_code": "AZ", "postal_code": "AZ 2235", "place_name": "Nizami", "latitude": "40.6628", "longitude": "46.5235"}, {"country_code": "AZ", "postal_code": "AZ 2237", "place_name": "S\u0259fik\u00fcrd", "latitude": "40.5434", "longitude": "46.7747"}, {"country_code": "AZ", "postal_code": "AZ 2239", "place_name": "\u015e\u0259f\u0259q", "latitude": "40.4523", "longitude": "46.6423"}, {"country_code": "AZ", "postal_code": "AZ 2240", "place_name": "Tap Qaraqoyunlu", "latitude": "40.4312", "longitude": "46.7705"}, {"country_code": "AZ", "postal_code": "AZ 2241", "place_name": "Veyisli", "latitude": "40.5828", "longitude": "46.7253"}, {"country_code": "AZ", "postal_code": "AZ 2243", "place_name": "Zeyv\u0259", "latitude": "40.4597", "longitude": "46.6831"}, {"country_code": "AZ", "postal_code": "AZ 2248", "place_name": "S\u0259m\u0259dabad", "latitude": "40.6823", "longitude": "46.6505"}, {"country_code": "AZ", "postal_code": "AZ 2300", "place_name": "G\u00f6y\u00e7ay", "latitude": "40.6506", "longitude": "47.7422"}, {"country_code": "AZ", "postal_code": "AZ 2301", "place_name": "1 Sayli", "latitude": "40.6506", "longitude": "47.7422"}, {"country_code": "AZ", "postal_code": "AZ 2302", "place_name": "2 Sayli", "latitude": "40.6506", "longitude": "47.7422"}, {"country_code": "AZ", "postal_code": "AZ 2303", "place_name": "3 Sayli", "latitude": "40.6506", "longitude": "47.7422"}, {"country_code": "AZ", "postal_code": "AZ 2311", "place_name": "Alxasafa", "latitude": "40.5834", "longitude": "47.8416"}, {"country_code": "AZ", "postal_code": "AZ 2312", "place_name": "Alpoud", "latitude": "40.5834", "longitude": "47.8416"}, {"country_code": "AZ", "postal_code": "AZ 2313", "place_name": "B\u0259yd\u00f6v\u00fcl", "latitude": "40.5834", "longitude": "47.8416"}, {"country_code": "AZ", "postal_code": "AZ 2314", "place_name": "Bi\u011fir", "latitude": "40.6052", "longitude": "47.8499"}, {"country_code": "AZ", "postal_code": "AZ 2315", "place_name": "C\u0259yirli", "latitude": "40.5669", "longitude": "47.7155"}, {"country_code": "AZ", "postal_code": "AZ 2316", "place_name": "\u00c7axirlip\u015f", "latitude": "40.5834", "longitude": "47.8416"}, {"country_code": "AZ", "postal_code": "AZ 2317", "place_name": "\u00c7\u0259r\u0259k\u0259", "latitude": "40.5614", "longitude": "47.6872"}, {"country_code": "AZ", "postal_code": "AZ 2318", "place_name": "Qarayazi", "latitude": "40.6281", "longitude": "47.9813"}, {"country_code": "AZ", "postal_code": "AZ 2319", "place_name": "In\u00e7\u0259", "latitude": "40.5555", "longitude": "47.9742"}, {"country_code": "AZ", "postal_code": "AZ 2320", "place_name": "K\u00fcrd\u015faban", "latitude": "40.5325", "longitude": "47.7522"}, {"country_code": "AZ", "postal_code": "AZ 2321", "place_name": "Qarabaqqal", "latitude": "40.6335", "longitude": "47.7908"}, {"country_code": "AZ", "postal_code": "AZ 2322", "place_name": "Qaraman", "latitude": "40.6024", "longitude": "47.8133"}, {"country_code": "AZ", "postal_code": "AZ 2323", "place_name": "Qaram\u0259ry\u0259m", "latitude": "40.6127", "longitude": "48.015"}, {"country_code": "AZ", "postal_code": "AZ 2324", "place_name": "Qizila\u011fac", "latitude": "40.5693", "longitude": "47.7467"}, {"country_code": "AZ", "postal_code": "AZ 2325", "place_name": "L\u0259k\u00e7iplaq", "latitude": "40.581", "longitude": "47.8044"}, {"country_code": "AZ", "postal_code": "AZ 2326", "place_name": "Malli \u015eixli", "latitude": "40.5952", "longitude": "47.6761"}, {"country_code": "AZ", "postal_code": "AZ 2327", "place_name": "M\u0259likk\u0259nd", "latitude": "40.5335", "longitude": "47.7882"}, {"country_code": "AZ", "postal_code": "AZ 2328", "place_name": "Mirti", "latitude": "40.5691", "longitude": "47.8525"}, {"country_code": "AZ", "postal_code": "AZ 2329", "place_name": "M\u00fc\u015fk\u00fcrl\u00fc", "latitude": "40.581", "longitude": "47.8044"}, {"country_code": "AZ", "postal_code": "AZ 2330", "place_name": "Potu", "latitude": "40.6153", "longitude": "47.7409"}, {"country_code": "AZ", "postal_code": "AZ 2331", "place_name": "\u018fr\u0259bc\u0259birli", "latitude": "40.5853", "longitude": "47.7639"}, {"country_code": "AZ", "postal_code": "AZ 2332", "place_name": "Yeniarx", "latitude": "40.5713", "longitude": "47.6697"}, {"country_code": "AZ", "postal_code": "AZ 2333", "place_name": "\u015e\u0259k\u0259r", "latitude": "40.5693", "longitude": "47.881"}, {"country_code": "AZ", "postal_code": "AZ 2500", "place_name": "G\u00f6y-G\u00f6l", "latitude": "40.617", "longitude": "46.3129"}, {"country_code": "AZ", "postal_code": "AZ 2501", "place_name": "1 Sayli", "latitude": "40.617", "longitude": "46.3129"}, {"country_code": "AZ", "postal_code": "AZ 2511", "place_name": "A\u015fiqli", "latitude": "40.5358", "longitude": "46.3348"}, {"country_code": "AZ", "postal_code": "AZ 2512", "place_name": "\u00c7ayk\u0259nd", "latitude": "40.6121", "longitude": "46.3035"}, {"country_code": "AZ", "postal_code": "AZ 2516", "place_name": "Bal\u00e7ili", "latitude": "40.6883", "longitude": "46.2723"}, {"country_code": "AZ", "postal_code": "AZ 2517", "place_name": "Qirixli", "latitude": "40.6121", "longitude": "46.3035"}, {"country_code": "AZ", "postal_code": "AZ 2520", "place_name": "Qu\u015fqara", "latitude": "40.7183", "longitude": "46.2998"}, {"country_code": "AZ", "postal_code": "AZ 2521", "place_name": "Mollac\u0259lilli", "latitude": "40.5925", "longitude": "46.3708"}, {"country_code": "AZ", "postal_code": "AZ 2522", "place_name": "Nadel", "latitude": "40.7399", "longitude": "46.29"}, {"country_code": "AZ", "postal_code": "AZ 2525", "place_name": "To\u011fana", "latitude": "40.6198", "longitude": "46.3183"}, {"country_code": "AZ", "postal_code": "AZ 2526", "place_name": "Topalh\u0259s\u0259nli", "latitude": "40.5569", "longitude": "46.2767"}, {"country_code": "AZ", "postal_code": "AZ 2527", "place_name": "\u00dc\u00e7t\u0259p\u0259", "latitude": "40.6198", "longitude": "46.3183"}, {"country_code": "AZ", "postal_code": "AZ 2528", "place_name": "Yeni Zod", "latitude": "40.4914", "longitude": "46.3542"}, {"country_code": "AZ", "postal_code": "AZ 2400", "place_name": "Haciqabul", "latitude": "40.0387", "longitude": "48.9429"}, {"country_code": "AZ", "postal_code": "AZ 2401", "place_name": "1 Sayli", "latitude": "40.0387", "longitude": "48.9429"}, {"country_code": "AZ", "postal_code": "AZ 2411", "place_name": "Abdulabad", "latitude": "40.0954", "longitude": "48.6588"}, {"country_code": "AZ", "postal_code": "AZ 2412", "place_name": "Atbulaq", "latitude": "39.9731", "longitude": "49.2624"}, {"country_code": "AZ", "postal_code": "AZ 2413", "place_name": "Qarasu", "latitude": "40.1618", "longitude": "48.6777"}, {"country_code": "AZ", "postal_code": "AZ 2414", "place_name": "Meyniman", "latitude": "40.03", "longitude": "48.7682"}, {"country_code": "AZ", "postal_code": "AZ 2415", "place_name": "Mu\u011fan", "latitude": "40.099", "longitude": "48.8189"}, {"country_code": "AZ", "postal_code": "AZ 2416", "place_name": "N\u0259vahi", "latitude": "40.0403", "longitude": "49.0995"}, {"country_code": "AZ", "postal_code": "AZ 2417", "place_name": "R\u0259ncb\u0259r", "latitude": "40.0936", "longitude": "49.0696"}, {"country_code": "AZ", "postal_code": "AZ 2418", "place_name": "Tali\u015f", "latitude": "40.0655", "longitude": "48.6877"}, {"country_code": "AZ", "postal_code": "AZ 2419", "place_name": "Udulu", "latitude": "40.2625", "longitude": "48.8688"}, {"country_code": "AZ", "postal_code": "AZ 2420", "place_name": "Qubali Balao\u011flan", "latitude": "40.0817", "longitude": "48.8907"}, {"country_code": "AZ", "postal_code": "AZ 2421", "place_name": "Padar Q\u0259s\u0259b\u0259", "latitude": "40.0817", "longitude": "48.8907"}, {"country_code": "AZ", "postal_code": "AZ 3000", "place_name": "Imi\u015fli", "latitude": "39.8709", "longitude": "48.0599"}, {"country_code": "AZ", "postal_code": "AZ 3011", "place_name": "A\u011fam\u0259mm\u0259dli", "latitude": "39.9589", "longitude": "47.99"}, {"country_code": "AZ", "postal_code": "AZ 3012", "place_name": "Aranli", "latitude": "39.6981", "longitude": "48.1035"}, {"country_code": "AZ", "postal_code": "AZ 3013", "place_name": "B\u0259cr\u0259van", "latitude": "39.8012", "longitude": "48.0174"}, {"country_code": "AZ", "postal_code": "AZ 3014", "place_name": "B\u0259hr\u0259mt\u0259p\u0259", "latitude": "39.7467", "longitude": "47.9589"}, {"country_code": "AZ", "postal_code": "AZ 3018", "place_name": "\u018fliqullar", "latitude": "39.8012", "longitude": "48.0174"}, {"country_code": "AZ", "postal_code": "AZ 3022", "place_name": "Qaradonlu", "latitude": "39.79", "longitude": "48.0626"}, {"country_code": "AZ", "postal_code": "AZ 3024", "place_name": "Qaralar", "latitude": "39.8262", "longitude": "48.0848"}, {"country_code": "AZ", "postal_code": "AZ 3026", "place_name": "Qizilk\u0259nd", "latitude": "39.7168", "longitude": "48.0794"}, {"country_code": "AZ", "postal_code": "AZ 3028", "place_name": "M\u0259mm\u0259dli", "latitude": "39.7764", "longitude": "48.0642"}, {"country_code": "AZ", "postal_code": "AZ 3029", "place_name": "M\u0259zr\u0259li", "latitude": "39.7728", "longitude": "48.0298"}, {"country_code": "AZ", "postal_code": "AZ 3030", "place_name": "Otuzikil\u0259r", "latitude": "40.3864", "longitude": "47.2397"}, {"country_code": "AZ", "postal_code": "AZ 3031", "place_name": "Muradxanli", "latitude": "39.9275", "longitude": "47.9542"}, {"country_code": "AZ", "postal_code": "AZ 3034", "place_name": "R\u0259sullu", "latitude": "39.8361", "longitude": "48.033"}, {"country_code": "AZ", "postal_code": "AZ 3035", "place_name": "\u015eahverdili", "latitude": "39.7962", "longitude": "47.9879"}, {"country_code": "AZ", "postal_code": "AZ 3036", "place_name": "Sarixanli", "latitude": "39.8232", "longitude": "47.9227"}, {"country_code": "AZ", "postal_code": "AZ 3037", "place_name": "Soltanmuradli", "latitude": "39.8042", "longitude": "48.0746"}, {"country_code": "AZ", "postal_code": "AZ 3039", "place_name": "G\u00f6b\u0259ktala", "latitude": "39.8102", "longitude": "48.0072"}, {"country_code": "AZ", "postal_code": "AZ 3100", "place_name": "Ismayilli", "latitude": "40.7848", "longitude": "48.1514"}, {"country_code": "AZ", "postal_code": "AZ 3101", "place_name": "1 Sayli", "latitude": "40.7848", "longitude": "48.1514"}, {"country_code": "AZ", "postal_code": "AZ 3111", "place_name": "Basqal", "latitude": "40.7552", "longitude": "48.391"}, {"country_code": "AZ", "postal_code": "AZ 3112", "place_name": "A\u015fiqbayramli", "latitude": "40.7136", "longitude": "48.0466"}, {"country_code": "AZ", "postal_code": "AZ 3113", "place_name": "Hacih\u0259t\u0259mli", "latitude": "40.7", "longitude": "47.9059"}, {"country_code": "AZ", "postal_code": "AZ 3114", "place_name": "Ivanovka", "latitude": "40.7467", "longitude": "48.0314"}, {"country_code": "AZ", "postal_code": "AZ 3115", "place_name": "Diyalli", "latitude": "40.7699", "longitude": "48.2298"}, {"country_code": "AZ", "postal_code": "AZ 3116", "place_name": "K\u00fcrdma\u015fi", "latitude": "40.6684", "longitude": "48.0341"}, {"country_code": "AZ", "postal_code": "AZ 3117", "place_name": "Qala\u00e7iq", "latitude": "40.9602", "longitude": "48.045"}, {"country_code": "AZ", "postal_code": "AZ 3118", "place_name": "Qalagah", "latitude": "40.7144", "longitude": "47.9364"}, {"country_code": "AZ", "postal_code": "AZ 3119", "place_name": "Qalin\u00e7aq", "latitude": "40.8179", "longitude": "48.0901"}, {"country_code": "AZ", "postal_code": "AZ 3121", "place_name": "Qubax\u0259lilli", "latitude": "40.6119", "longitude": "48.1252"}, {"country_code": "AZ", "postal_code": "AZ 3122", "place_name": "Qu\u015fenc\u0259", "latitude": "40.7861", "longitude": "48.1838"}, {"country_code": "AZ", "postal_code": "AZ 3123", "place_name": "Lahic", "latitude": "40.8462", "longitude": "48.3823"}, {"country_code": "AZ", "postal_code": "AZ 3124", "place_name": "Ru\u015fan", "latitude": "40.8027", "longitude": "47.9993"}, {"country_code": "AZ", "postal_code": "AZ 3125", "place_name": "Talistan", "latitude": "40.7967", "longitude": "48.196"}, {"country_code": "AZ", "postal_code": "AZ 3126", "place_name": "T\u0259z\u0259k\u0259nd", "latitude": "40.7436", "longitude": "48.2682"}, {"country_code": "AZ", "postal_code": "AZ 3127", "place_name": "Tircan", "latitude": "40.7377", "longitude": "48.331"}, {"country_code": "AZ", "postal_code": "AZ 3128", "place_name": "Top\u00e7u", "latitude": "40.8749", "longitude": "48.0637"}, {"country_code": "AZ", "postal_code": "AZ 3129", "place_name": "Qurban\u0259f\u0259ndi", "latitude": "40.8752", "longitude": "48.1051"}, {"country_code": "AZ", "postal_code": "AZ 3130", "place_name": "G\u00fclyan", "latitude": "40.6491", "longitude": "48.04"}, {"country_code": "AZ", "postal_code": "AZ 3131", "place_name": "X\u0259lilli", "latitude": "40.6164", "longitude": "48.1984"}, {"country_code": "AZ", "postal_code": "AZ 3135", "place_name": "Mollaisaqli", "latitude": "40.6817", "longitude": "47.8816"}, {"country_code": "AZ", "postal_code": "AZ 3136", "place_name": "Suma\u011fali", "latitude": "40.6491", "longitude": "48.04"}, {"country_code": "AZ", "postal_code": "AZ 3200", "place_name": "K\u0259lb\u0259c\u0259r", "latitude": "40.1098", "longitude": "46.0445"}, {"country_code": "AZ", "postal_code": "AZ 3218", "place_name": "Zar (G\u0259nj\u0259)", "latitude": "40.1098", "longitude": "46.0445"}, {"country_code": "AZ", "postal_code": "AZ 3300", "place_name": "K\u00fcrd\u0259mir", "latitude": "40.3453", "longitude": "48.1508"}, {"country_code": "AZ", "postal_code": "AZ 3301", "place_name": "1 Sayli", "latitude": "40.3453", "longitude": "48.1508"}, {"country_code": "AZ", "postal_code": "AZ 3313", "place_name": "C\u0259yli", "latitude": "40.4353", "longitude": "48.267"}, {"country_code": "AZ", "postal_code": "AZ 3314", "place_name": "Karrar Q\u0259s\u0259b\u0259", "latitude": "40.3042", "longitude": "48.1924"}, {"country_code": "AZ", "postal_code": "AZ 3315", "place_name": "Xirdapay", "latitude": "40.3647", "longitude": "48.1544"}, {"country_code": "AZ", "postal_code": "AZ 3316", "place_name": "Karrar", "latitude": "40.2824", "longitude": "48.3657"}, {"country_code": "AZ", "postal_code": "AZ 3317", "place_name": "K\u00f6h\u00fcnl\u00fc", "latitude": "40.1344", "longitude": "47.9825"}, {"country_code": "AZ", "postal_code": "AZ 3320", "place_name": "Mollak\u0259nd", "latitude": "40.1169", "longitude": "48.1039"}, {"country_code": "AZ", "postal_code": "AZ 3321", "place_name": "Muradxan", "latitude": "40.1903", "longitude": "48.1461"}, {"country_code": "AZ", "postal_code": "AZ 3323", "place_name": "Si\u011firli", "latitude": "40.2676", "longitude": "48.4092"}, {"country_code": "AZ", "postal_code": "AZ 3324", "place_name": "Sor-Sor", "latitude": "40.299", "longitude": "48.1701"}, {"country_code": "AZ", "postal_code": "AZ 3325", "place_name": "\u015eiximli", "latitude": "40.3637", "longitude": "48.1853"}, {"country_code": "AZ", "postal_code": "AZ 3326", "place_name": "\u015eilyan ", "latitude": "40.3293", "longitude": "48.011"}, {"country_code": "AZ", "postal_code": "AZ 3327", "place_name": "Topalh\u0259s\u0259nli", "latitude": "40.3845", "longitude": "48.1957"}, {"country_code": "AZ", "postal_code": "AZ 3328", "place_name": "Yenik\u0259nd", "latitude": "40.3897", "longitude": "48.1384"}, {"country_code": "AZ", "postal_code": "AZ 3329", "place_name": "Ataki\u015fili", "latitude": "40.3498", "longitude": "48.171"}, {"country_code": "AZ", "postal_code": "AZ 3332", "place_name": "Qarasaqqal", "latitude": "40.3815", "longitude": "48.2869"}, {"country_code": "AZ", "postal_code": "AZ 3333", "place_name": "\u00c7\u00f6hranli", "latitude": "40.2829", "longitude": "48.1919"}, {"country_code": "AZ", "postal_code": "AZ 3334", "place_name": "Mehdili", "latitude": "40.0459", "longitude": "48.2953"}, {"country_code": "AZ", "postal_code": "AZ 4100", "place_name": "La\u00e7in", "latitude": "39.5988", "longitude": "46.5504"}, {"country_code": "AZ", "postal_code": "AZ 4200", "place_name": "L\u0259nk\u0259ran", "latitude": "38.7543", "longitude": "48.8506"}, {"country_code": "AZ", "postal_code": "AZ 4201", "place_name": "1 Sayli", "latitude": "38.7543", "longitude": "48.8506"}, {"country_code": "AZ", "postal_code": "AZ 4202", "place_name": "2 Sayli", "latitude": "38.7543", "longitude": "48.8506"}, {"country_code": "AZ", "postal_code": "AZ 4203", "place_name": "3 Sayli", "latitude": "38.7543", "longitude": "48.8506"}, {"country_code": "AZ", "postal_code": "AZ 4204", "place_name": "4 Sayli", "latitude": "38.7543", "longitude": "48.8506"}, {"country_code": "AZ", "postal_code": "AZ 4205", "place_name": "5 Sayli", "latitude": "38.7543", "longitude": "48.8506"}, {"country_code": "AZ", "postal_code": "AZ 4212", "place_name": "Boladi", "latitude": "38.8904", "longitude": "48.7658"}, {"country_code": "AZ", "postal_code": "AZ 4214", "place_name": "G\u0259rm\u0259t\u00fck", "latitude": "38.7214", "longitude": "48.8328"}, {"country_code": "AZ", "postal_code": "AZ 4215", "place_name": "Gird\u0259ni", "latitude": "38.7972", "longitude": "48.7861"}, {"country_code": "AZ", "postal_code": "AZ 4216", "place_name": "Haftoni", "latitude": "38.7633", "longitude": "48.7622"}, {"country_code": "AZ", "postal_code": "AZ 4217", "place_name": "Hirkan", "latitude": "38.6604", "longitude": "48.8121"}, {"country_code": "AZ", "postal_code": "AZ 4219", "place_name": "Istisu", "latitude": "38.794", "longitude": "48.736"}, {"country_code": "AZ", "postal_code": "AZ 4221", "place_name": "K\u0259rg\u0259lan", "latitude": "38.7381", "longitude": "48.8079"}, {"country_code": "AZ", "postal_code": "AZ 4222", "place_name": "Liman", "latitude": "38.8742", "longitude": "48.8083"}, {"country_code": "AZ", "postal_code": "AZ 4223", "place_name": "Mamusta", "latitude": "38.6585", "longitude": "48.845"}, {"country_code": "AZ", "postal_code": "AZ 4224", "place_name": "N\u0259rimanabad-1p\u015f", "latitude": "38.7774", "longitude": "48.7711"}, {"country_code": "AZ", "postal_code": "AZ 4226", "place_name": "Osak\u00fc\u00e7\u0259", "latitude": "38.8094", "longitude": "48.7021"}, {"country_code": "AZ", "postal_code": "AZ 4227", "place_name": "Rvo", "latitude": "38.7172", "longitude": "48.7469"}, {"country_code": "AZ", "postal_code": "AZ 4228", "place_name": "Separadi", "latitude": "38.8671", "longitude": "48.7161"}, {"country_code": "AZ", "postal_code": "AZ 4230", "place_name": "\u015ea\u011flaser", "latitude": "38.8638", "longitude": "48.7371"}, {"country_code": "AZ", "postal_code": "AZ 4231", "place_name": "\u015e\u00fcr\u00fck", "latitude": "38.7752", "longitude": "48.7894"}, {"country_code": "AZ", "postal_code": "AZ 4232", "place_name": "Vel", "latitude": "38.6763", "longitude": "48.8702"}, {"country_code": "AZ", "postal_code": "AZ 4233", "place_name": "Veravul", "latitude": "38.8156", "longitude": "48.7624"}, {"country_code": "AZ", "postal_code": "AZ 4234", "place_name": "Vilvan", "latitude": "38.8257", "longitude": "48.7431"}, {"country_code": "AZ", "postal_code": "AZ 4235", "place_name": "B\u00fcrc\u0259li", "latitude": "38.6642", "longitude": "48.7951"}, {"country_code": "AZ", "postal_code": "AZ 4239", "place_name": "G\u00f6y\u015faban", "latitude": "38.8058", "longitude": "48.8283"}, {"country_code": "AZ", "postal_code": "AZ 4243", "place_name": "\u015eilavar", "latitude": "38.7511", "longitude": "48.8296"}, {"country_code": "AZ", "postal_code": "AZ 4244", "place_name": "Sut\u0259murdov", "latitude": "38.7449", "longitude": "48.8614"}, {"country_code": "AZ", "postal_code": "AZ 4300", "place_name": "Lerik", "latitude": "38.7739", "longitude": "48.415"}, {"country_code": "AZ", "postal_code": "AZ 4311", "place_name": "G\u00fcn\u0259\u015fli", "latitude": "38.7903", "longitude": "48.4809"}, {"country_code": "AZ", "postal_code": "AZ 4312", "place_name": "Bilab\u0259nd", "latitude": "38.7375", "longitude": "48.4265"}, {"country_code": "AZ", "postal_code": "AZ 4316", "place_name": "\u00c7ayrud", "latitude": "38.7149", "longitude": "48.4981"}, {"country_code": "AZ", "postal_code": "AZ 4318", "place_name": "\u018fliabad", "latitude": "38.7475", "longitude": "48.4685"}, {"country_code": "AZ", "postal_code": "AZ 4320", "place_name": "K\u0259l\u0259xan", "latitude": "38.6472", "longitude": "48.3404"}, {"country_code": "AZ", "postal_code": "AZ 4321", "place_name": "Kir\u0259vud", "latitude": "38.876", "longitude": "48.4467"}, {"country_code": "AZ", "postal_code": "AZ 4322", "place_name": "Qosmalyan", "latitude": "38.6732", "longitude": "48.3704"}, {"country_code": "AZ", "postal_code": "AZ 4323", "place_name": "Liv\u0259dirq\u0259", "latitude": "38.8179", "longitude": "48.3953"}, {"country_code": "AZ", "postal_code": "AZ 4324", "place_name": "Monidigah", "latitude": "38.7242", "longitude": "48.4481"}, {"country_code": "AZ", "postal_code": "AZ 4327", "place_name": "Piran", "latitude": "38.7307", "longitude": "48.6558"}, {"country_code": "AZ", "postal_code": "AZ 4328", "place_name": "Pirasora", "latitude": "38.719", "longitude": "48.3771"}, {"country_code": "AZ", "postal_code": "AZ 4329", "place_name": "Rvarud", "latitude": "38.6952", "longitude": "48.4935"}, {"country_code": "AZ", "postal_code": "AZ 4331", "place_name": "\u015eing\u0259dulan", "latitude": "38.8595", "longitude": "48.397"}, {"country_code": "AZ", "postal_code": "AZ 4332", "place_name": "Tik\u0259b\u0259nd", "latitude": "38.7099", "longitude": "48.5456"}, {"country_code": "AZ", "postal_code": "AZ 4335", "place_name": "Viz\u0259z\u0259min", "latitude": "38.7709", "longitude": "48.5192"}, {"country_code": "AZ", "postal_code": "AZ 4336", "place_name": "Z\u00fcv\u00fcc", "latitude": "38.8627", "longitude": "48.3346"}, {"country_code": "AZ", "postal_code": "AZ 4400", "place_name": "Masalli", "latitude": "39.0353", "longitude": "48.6654"}, {"country_code": "AZ", "postal_code": "AZ 4402", "place_name": "2 Sayli", "latitude": "39.0353", "longitude": "48.6654"}, {"country_code": "AZ", "postal_code": "AZ 4403", "place_name": "3 Sayli", "latitude": "39.0353", "longitude": "48.6654"}, {"country_code": "AZ", "postal_code": "AZ 4404", "place_name": "4 Sayli", "latitude": "39.0353", "longitude": "48.6654"}, {"country_code": "AZ", "postal_code": "AZ 4405", "place_name": "5 Sayli", "latitude": "39.0353", "longitude": "48.6654"}, {"country_code": "AZ", "postal_code": "AZ 4411", "place_name": "Bamba\u015fi", "latitude": "39.0087", "longitude": "48.6685"}, {"country_code": "AZ", "postal_code": "AZ 4412", "place_name": "B\u0259d\u0259lan", "latitude": "38.9524", "longitude": "48.6846"}, {"country_code": "AZ", "postal_code": "AZ 4413", "place_name": "Boradigah", "latitude": "38.9301", "longitude": "48.7092"}, {"country_code": "AZ", "postal_code": "AZ 4414", "place_name": "\u00c7axirli", "latitude": "39.0896", "longitude": "48.6654"}, {"country_code": "AZ", "postal_code": "AZ 4415", "place_name": "\u018frkivan", "latitude": "39.0171", "longitude": "48.6431"}, {"country_code": "AZ", "postal_code": "AZ 4416", "place_name": "G\u0259y\u0259\u00e7\u00f6l", "latitude": "39.0087", "longitude": "48.6685"}, {"country_code": "AZ", "postal_code": "AZ 4417", "place_name": "G\u00fcll\u00fct\u0259p\u0259", "latitude": "39.0493", "longitude": "48.5759"}, {"country_code": "AZ", "postal_code": "AZ 4418", "place_name": "H\u0259s\u0259nli", "latitude": "39.1115", "longitude": "48.7019"}, {"country_code": "AZ", "postal_code": "AZ 4419", "place_name": "Hi\u015fk\u0259d\u0259r\u0259", "latitude": "38.911", "longitude": "48.6997"}, {"country_code": "AZ", "postal_code": "AZ 4420", "place_name": "Xil", "latitude": "38.974", "longitude": "48.7241"}, {"country_code": "AZ", "postal_code": "AZ 4421", "place_name": "Xirmandali", "latitude": "39.1619", "longitude": "48.7175"}, {"country_code": "AZ", "postal_code": "AZ 4422", "place_name": "Kalinovka", "latitude": "39.0427", "longitude": "48.7796"}, {"country_code": "AZ", "postal_code": "AZ 4423", "place_name": "Kolatan", "latitude": "39.0259", "longitude": "48.7223"}, {"country_code": "AZ", "postal_code": "AZ 4424", "place_name": "K\u00f6hn\u0259 Alvadi", "latitude": "39.0549", "longitude": "48.6184"}, {"country_code": "AZ", "postal_code": "AZ 4425", "place_name": "Qar\u011faliq", "latitude": "39.0777", "longitude": "48.7468"}, {"country_code": "AZ", "postal_code": "AZ 4426", "place_name": "Qizila\u011fac", "latitude": "39.0373", "longitude": "48.811"}, {"country_code": "AZ", "postal_code": "AZ 4427", "place_name": "Qizilavar", "latitude": "38.9647", "longitude": "48.6793"}, {"country_code": "AZ", "postal_code": "AZ 4429", "place_name": "Mahmudavar", "latitude": "38.8939", "longitude": "48.7014"}, {"country_code": "AZ", "postal_code": "AZ 4430", "place_name": "Masalli Va\u011fzal", "latitude": "39.002", "longitude": "48.6685"}, {"country_code": "AZ", "postal_code": "AZ 4431", "place_name": "Musak\u00fc\u00e7\u0259", "latitude": "39.011", "longitude": "48.6957"}, {"country_code": "AZ", "postal_code": "AZ 4432", "place_name": "Si\u011fda\u015f", "latitude": "38.9564", "longitude": "48.6162"}, {"country_code": "AZ", "postal_code": "AZ 4433", "place_name": "\u015e\u0259r\u0259f\u0259", "latitude": "39.0661", "longitude": "48.6821"}, {"country_code": "AZ", "postal_code": "AZ 4434", "place_name": "T\u0259z\u0259 Alvadi", "latitude": "39.0872", "longitude": "48.6026"}, {"country_code": "AZ", "postal_code": "AZ 4435", "place_name": "T\u0259z\u0259k\u0259nd10.4.44.35", "latitude": "39.002", "longitude": "48.6685"}, {"country_code": "AZ", "postal_code": "AZ 4436", "place_name": "T\u00fckl\u0259", "latitude": "38.9208", "longitude": "48.6684"}, {"country_code": "AZ", "postal_code": "AZ 4437", "place_name": "T\u00fcrkoba", "latitude": "38.9184", "longitude": "48.7048"}, {"country_code": "AZ", "postal_code": "AZ 4438", "place_name": "Yeddioymaq", "latitude": "39.0289", "longitude": "48.768"}, {"country_code": "AZ", "postal_code": "AZ 4439", "place_name": "Yey\u0259nk\u0259nd", "latitude": "39.0277", "longitude": "48.6103"}, {"country_code": "AZ", "postal_code": "AZ 4440", "place_name": "\u015eixlar", "latitude": "39.023", "longitude": "48.7505"}, {"country_code": "AZ", "postal_code": "AZ 4441", "place_name": "Oncak\u0259l\u0259", "latitude": "39.037", "longitude": "48.6835"}, {"country_code": "AZ", "postal_code": "AZ 4442", "place_name": "Q\u0259ribl\u0259r", "latitude": "38.9981", "longitude": "48.594"}, {"country_code": "AZ", "postal_code": "AZ 4443", "place_name": "S\u0259midxan", "latitude": "39.037", "longitude": "48.6835"}, {"country_code": "AZ", "postal_code": "AZ 4444", "place_name": "L\u00fcr\u0259n", "latitude": "38.991", "longitude": "48.6817"}, {"country_code": "AZ", "postal_code": "AZ 4446", "place_name": "Hacit\u0259p\u0259", "latitude": "39.1358", "longitude": "48.7076"}, {"country_code": "AZ", "postal_code": "AZ 4449", "place_name": "Yeddioymaq-1", "latitude": "39.037", "longitude": "48.6835"}, {"country_code": "AZ", "postal_code": "AZ 4500", "place_name": "Ming\u0259\u00e7evir", "latitude": "40.7639", "longitude": "47.0595"}, {"country_code": "AZ", "postal_code": "AZ 4501", "place_name": "1 Sayli", "latitude": "40.7639", "longitude": "47.0595"}, {"country_code": "AZ", "postal_code": "AZ 4502", "place_name": "2 Sayli", "latitude": "40.7639", "longitude": "47.0595"}, {"country_code": "AZ", "postal_code": "AZ 4504", "place_name": "4 Sayli", "latitude": "40.7639", "longitude": "47.0595"}, {"country_code": "AZ", "postal_code": "AZ 4505", "place_name": "5 Sayli", "latitude": "40.7639", "longitude": "47.0595"}, {"country_code": "AZ", "postal_code": "AZ 4506", "place_name": "6 Sayli", "latitude": "40.7639", "longitude": "47.0595"}, {"country_code": "AZ", "postal_code": "AZ 4507", "place_name": "7 Sayli", "latitude": "40.7639", "longitude": "47.0595"}, {"country_code": "AZ", "postal_code": "AZ 4508", "place_name": "8 Sayli", "latitude": "40.7639", "longitude": "47.0595"}, {"country_code": "AZ", "postal_code": "AZ 4509", "place_name": "9 Sayli", "latitude": "40.7639", "longitude": "47.0595"}, {"country_code": "AZ", "postal_code": "AZ 4510", "place_name": "10 Sayli", "latitude": "40.7639", "longitude": "47.0595"}, {"country_code": "AZ", "postal_code": "AZ 4511", "place_name": "11 Sayli", "latitude": "40.7639", "longitude": "47.0595"}, {"country_code": "AZ", "postal_code": "AZ 4600", "place_name": "Naftalan", "latitude": "40.5082", "longitude": "46.8203"}, {"country_code": "AZ", "postal_code": "AZ 4601", "place_name": "1 Sayli", "latitude": "40.5082", "longitude": "46.8203"}, {"country_code": "AZ", "postal_code": "AZ 4700", "place_name": "Neft\u00e7ala", "latitude": "39.3768", "longitude": "49.247"}, {"country_code": "AZ", "postal_code": "AZ 4701", "place_name": "1 Sayli", "latitude": "39.3768", "longitude": "49.247"}, {"country_code": "AZ", "postal_code": "AZ 4702", "place_name": "2 Sayli", "latitude": "39.3768", "longitude": "49.247"}, {"country_code": "AZ", "postal_code": "AZ 4704", "place_name": "4 Sayli", "latitude": "39.3768", "longitude": "49.247"}, {"country_code": "AZ", "postal_code": "AZ 4705", "place_name": "5 Sayli", "latitude": "39.3768", "longitude": "49.247"}, {"country_code": "AZ", "postal_code": "AZ 4711", "place_name": "A\u015fa\u011fi Qaramanli", "latitude": "39.4299", "longitude": "49.0409"}, {"country_code": "AZ", "postal_code": "AZ 4712", "place_name": "A\u015fa\u011fi Surra", "latitude": "39.4808", "longitude": "49.0082"}, {"country_code": "AZ", "postal_code": "AZ 4713", "place_name": "Bank\u0259", "latitude": "39.4112", "longitude": "49.2479"}, {"country_code": "AZ", "postal_code": "AZ 4715", "place_name": "Boyat", "latitude": "39.3996", "longitude": "49.0847"}, {"country_code": "AZ", "postal_code": "AZ 4717", "place_name": "H\u0259s\u0259nabad", "latitude": "39.3367", "longitude": "49.2141"}, {"country_code": "AZ", "postal_code": "AZ 4719", "place_name": "Xilli", "latitude": "39.4301", "longitude": "49.1017"}, {"country_code": "AZ", "postal_code": "AZ 4720", "place_name": "Xol Qarabucaq", "latitude": "39.3087", "longitude": "48.8182"}, {"country_code": "AZ", "postal_code": "AZ 4723", "place_name": "Qa\u00e7aqk\u0259nd", "latitude": "39.3904", "longitude": "48.7833"}, {"country_code": "AZ", "postal_code": "AZ 4724", "place_name": "Qirmizik\u0259nd", "latitude": "39.3424", "longitude": "48.7632"}, {"country_code": "AZ", "postal_code": "AZ 4728", "place_name": "Yuxari Qaramanli", "latitude": "39.4767", "longitude": "49.0251"}, {"country_code": "AZ", "postal_code": "AZ 4729", "place_name": "K\u00fcrk\u0259nd", "latitude": "39.4021", "longitude": "49.2592"}, {"country_code": "AZ", "postal_code": "AZ 4800", "place_name": "O\u011fuz", "latitude": "41.0713", "longitude": "47.4653"}, {"country_code": "AZ", "postal_code": "AZ 4812", "place_name": "Bayan", "latitude": "41.0261", "longitude": "47.4493"}, {"country_code": "AZ", "postal_code": "AZ 4814", "place_name": "Bucaq", "latitude": "41.078", "longitude": "47.3698"}, {"country_code": "AZ", "postal_code": "AZ 4815", "place_name": "Calud", "latitude": "41.0315", "longitude": "47.4775"}, {"country_code": "AZ", "postal_code": "AZ 4817", "place_name": "Xa\u00e7maz", "latitude": "41.0446", "longitude": "47.6045"}, {"country_code": "AZ", "postal_code": "AZ 4819", "place_name": "K\u0259rimli", "latitude": "40.9772", "longitude": "47.4865"}, {"country_code": "AZ", "postal_code": "AZ 4821", "place_name": "Qumlaq", "latitude": "41.0248", "longitude": "47.4878"}, {"country_code": "AZ", "postal_code": "AZ 4823", "place_name": "Padar", "latitude": "40.9632", "longitude": "47.517"}, {"country_code": "AZ", "postal_code": "AZ 4824", "place_name": "Sincan", "latitude": "40.9428", "longitude": "47.5856"}, {"country_code": "AZ", "postal_code": "AZ 4825", "place_name": "\u015eirvanli", "latitude": "41.0191", "longitude": "47.5019"}, {"country_code": "AZ", "postal_code": "AZ 4826", "place_name": "Yaqublu", "latitude": "40.9226", "longitude": "47.4614"}, {"country_code": "AZ", "postal_code": "AZ 3600", "place_name": "Q\u0259b\u0259l\u0259", "latitude": "40.9825", "longitude": "47.8491"}, {"country_code": "AZ", "postal_code": "AZ 3601", "place_name": "1 Sayli", "latitude": "40.9825", "longitude": "47.8491"}, {"country_code": "AZ", "postal_code": "AZ 3602", "place_name": "2 Sayli", "latitude": "40.9825", "longitude": "47.8491"}, {"country_code": "AZ", "postal_code": "AZ 3611", "place_name": "Bum", "latitude": "41.0144", "longitude": "47.7781"}, {"country_code": "AZ", "postal_code": "AZ 3612", "place_name": "Bunud", "latitude": "40.9191", "longitude": "47.9895"}, {"country_code": "AZ", "postal_code": "AZ 3613", "place_name": "\u00c7uxur Q\u0259b\u0259l\u0259", "latitude": "40.8907", "longitude": "47.6944"}, {"country_code": "AZ", "postal_code": "AZ 3614", "place_name": "Dizaxli", "latitude": "40.8525", "longitude": "47.6781"}, {"country_code": "AZ", "postal_code": "AZ 3615", "place_name": "\u018fmirvan", "latitude": "40.8309", "longitude": "47.8956"}, {"country_code": "AZ", "postal_code": "AZ 3616", "place_name": "Hacialili", "latitude": "40.8431", "longitude": "47.7297"}, {"country_code": "AZ", "postal_code": "AZ 3617", "place_name": "H\u0259mz\u0259lli", "latitude": "40.9023", "longitude": "47.7814"}, {"country_code": "AZ", "postal_code": "AZ 3618", "place_name": "K\u00fcrd", "latitude": "40.8063", "longitude": "47.6896"}, {"country_code": "AZ", "postal_code": "AZ 3619", "place_name": "Q\u0259m\u0259rvan", "latitude": "41.061", "longitude": "47.7961"}, {"country_code": "AZ", "postal_code": "AZ 3620", "place_name": "M\u0259likli", "latitude": "40.7984", "longitude": "47.8491"}, {"country_code": "AZ", "postal_code": "AZ 3621", "place_name": "Mixliqovaq", "latitude": "40.9767", "longitude": "47.7066"}, {"country_code": "AZ", "postal_code": "AZ 3622", "place_name": "Mirz\u0259b\u0259yli", "latitude": "40.9189", "longitude": "47.725"}, {"country_code": "AZ", "postal_code": "AZ 3623", "place_name": "Nic-1", "latitude": "40.902", "longitude": "47.8192"}, {"country_code": "AZ", "postal_code": "AZ 3624", "place_name": "Nic-2", "latitude": "40.902", "longitude": "47.8192"}, {"country_code": "AZ", "postal_code": "AZ 3625", "place_name": "Pir\u0259li", "latitude": "40.902", "longitude": "47.8192"}, {"country_code": "AZ", "postal_code": "AZ 3627", "place_name": "T\u00fcnt\u00fcl", "latitude": "40.93", "longitude": "47.8811"}, {"country_code": "AZ", "postal_code": "AZ 3628", "place_name": "V\u0259ndam", "latitude": "40.946", "longitude": "47.9436"}, {"country_code": "AZ", "postal_code": "AZ 3629", "place_name": "Zalam", "latitude": "40.8419", "longitude": "47.8096"}, {"country_code": "AZ", "postal_code": "AZ 3630", "place_name": "Zaragan", "latitude": "40.9321", "longitude": "47.8046"}, {"country_code": "AZ", "postal_code": "AZ 3632", "place_name": "Nohurqi\u015flaq", "latitude": "40.944", "longitude": "47.8976"}, {"country_code": "AZ", "postal_code": "AZ 3635", "place_name": "B\u00f6y\u00fck \u018fmilli", "latitude": "40.938", "longitude": "47.8511"}, {"country_code": "AZ", "postal_code": "AZ 3636", "place_name": "Soltan Nuxa", "latitude": "40.938", "longitude": "47.8511"}, {"country_code": "AZ", "postal_code": "AZ 3638", "place_name": "Zaragan-1", "latitude": "40.938", "longitude": "47.8511"}, {"country_code": "AZ", "postal_code": "AZ 3400", "place_name": "Qax", "latitude": "41.4183", "longitude": "46.9204"}, {"country_code": "AZ", "postal_code": "AZ 3401", "place_name": "1 Sayli", "latitude": "41.4183", "longitude": "46.9204"}, {"country_code": "AZ", "postal_code": "AZ 3411", "place_name": "Alat\u0259mir", "latitude": "41.4234", "longitude": "46.8704"}, {"country_code": "AZ", "postal_code": "AZ 3412", "place_name": "Almali", "latitude": "41.3397", "longitude": "46.764"}, {"country_code": "AZ", "postal_code": "AZ 3413", "place_name": "C\u0259layer", "latitude": "41.4234", "longitude": "46.8704"}, {"country_code": "AZ", "postal_code": "AZ 3414", "place_name": "\u018flib\u0259yli ", "latitude": "41.3814", "longitude": "46.8256"}, {"country_code": "AZ", "postal_code": "AZ 3416", "place_name": "G\u00fcll\u00fck", "latitude": "41.5039", "longitude": "46.7589"}, {"country_code": "AZ", "postal_code": "AZ 3417", "place_name": "Ilisu", "latitude": "41.4679", "longitude": "47.0651"}, {"country_code": "AZ", "postal_code": "AZ 3418", "place_name": "K\u00f6t\u00fckl\u00fc", "latitude": "41.4234", "longitude": "46.8704"}, {"country_code": "AZ", "postal_code": "AZ 3419", "place_name": "Qax Ingiloy", "latitude": "41.4241", "longitude": "46.9386"}, {"country_code": "AZ", "postal_code": "AZ 3420", "place_name": "Qora\u011fan", "latitude": "41.3815", "longitude": "46.7312"}, {"country_code": "AZ", "postal_code": "AZ 3421", "place_name": "Qa\u015fqa\u00e7ay", "latitude": "41.387", "longitude": "47.0394"}, {"country_code": "AZ", "postal_code": "AZ 3422", "place_name": "Qip\u00e7aq", "latitude": "41.3025", "longitude": "46.8281"}, {"country_code": "AZ", "postal_code": "AZ 3423", "place_name": "Qum", "latitude": "41.4586", "longitude": "46.9127"}, {"country_code": "AZ", "postal_code": "AZ 3424", "place_name": "L\u0259kit", "latitude": "41.4839", "longitude": "46.849"}, {"country_code": "AZ", "postal_code": "AZ 3425", "place_name": "Tasmali", "latitude": "41.4315", "longitude": "46.7026"}, {"country_code": "AZ", "postal_code": "AZ 3426", "place_name": "Turacli", "latitude": "41.4152", "longitude": "46.7742"}, {"country_code": "AZ", "postal_code": "AZ 3427", "place_name": "\u00dcz\u00fcml\u00fc", "latitude": "41.409", "longitude": "46.815"}, {"country_code": "AZ", "postal_code": "AZ 3428", "place_name": "Z\u0259y\u0259m ", "latitude": "41.4121", "longitude": "46.6826"}, {"country_code": "AZ", "postal_code": "AZ 3500", "place_name": "Qazax", "latitude": "41.0925", "longitude": "45.3656"}, {"country_code": "AZ", "postal_code": "AZ 3501", "place_name": "1 Sayli", "latitude": "41.0925", "longitude": "45.3656"}, {"country_code": "AZ", "postal_code": "AZ 3502", "place_name": "2 Sayli", "latitude": "41.0925", "longitude": "45.3656"}, {"country_code": "AZ", "postal_code": "AZ 3511", "place_name": "A\u011fk\u00f6yn\u0259k", "latitude": "41.0824", "longitude": "45.3374"}, {"country_code": "AZ", "postal_code": "AZ 3512", "place_name": "Alpoud", "latitude": "41.1226", "longitude": "45.2647"}, {"country_code": "AZ", "postal_code": "AZ 3513", "place_name": "Aslanb\u0259yli", "latitude": "41.2315", "longitude": "45.1653"}, {"country_code": "AZ", "postal_code": "AZ 3516", "place_name": "C\u0259f\u0259rli", "latitude": "41.0335", "longitude": "45.2419"}, {"country_code": "AZ", "postal_code": "AZ 3517", "place_name": "\u00c7ayli", "latitude": "41.1257", "longitude": "45.3107"}, {"country_code": "AZ", "postal_code": "AZ 3518", "place_name": "Da\u015f Salahli", "latitude": "41.14", "longitude": "45.2683"}, {"country_code": "AZ", "postal_code": "AZ 3519", "place_name": "D\u0259mir\u00e7il\u0259r", "latitude": "41.1226", "longitude": "45.2647"}, {"country_code": "AZ", "postal_code": "AZ 3520", "place_name": "Xanliqlar", "latitude": "41.0657", "longitude": "45.2964"}, {"country_code": "AZ", "postal_code": "AZ 3521", "place_name": "K\u0259m\u0259rli", "latitude": "41.208", "longitude": "45.0853"}, {"country_code": "AZ", "postal_code": "AZ 3523", "place_name": "Kosalar", "latitude": "41.1331", "longitude": "45.358"}, {"country_code": "AZ", "postal_code": "AZ 3524", "place_name": "Qaymaqli", "latitude": "41.2242", "longitude": "45.1363"}, {"country_code": "AZ", "postal_code": "AZ 3525", "place_name": "Siniq K\u00f6rp\u00fc (Dgk)", "latitude": "41.164", "longitude": "45.2402"}, {"country_code": "AZ", "postal_code": "AZ 3528", "place_name": "Orta Salahli", "latitude": "41.1891", "longitude": "45.3248"}, {"country_code": "AZ", "postal_code": "AZ 3529", "place_name": "\u015eixli-1", "latitude": "41.164", "longitude": "45.2402"}, {"country_code": "AZ", "postal_code": "AZ 3530", "place_name": "\u015eixli-2", "latitude": "41.3116", "longitude": "45.0992"}, {"country_code": "AZ", "postal_code": "AZ 3532", "place_name": "Yuxari Salahli", "latitude": "41.2435", "longitude": "45.2669"}, {"country_code": "AZ", "postal_code": "AZ 3533", "place_name": "N\u0259rimanov Q\u0259s\u0259b\u0259si", "latitude": "41.1935", "longitude": "45.2188"}, {"country_code": "AZ", "postal_code": "AZ 3534", "place_name": "H\u00fcseynb\u0259yli", "latitude": "41.1144", "longitude": "45.3641"}, {"country_code": "AZ", "postal_code": "AZ 3536", "place_name": "F\u0259r\u0259hli", "latitude": "41.1044", "longitude": "45.1451"}, {"country_code": "AZ", "postal_code": "AZ 3700", "place_name": "Qobustan", "latitude": "40.5336", "longitude": "48.9282"}, {"country_code": "AZ", "postal_code": "AZ 3701", "place_name": "1 Sayli", "latitude": "40.5336", "longitude": "48.9282"}, {"country_code": "AZ", "postal_code": "AZ 3711", "place_name": "C\u0259yirli", "latitude": "40.579", "longitude": "48.8643"}, {"country_code": "AZ", "postal_code": "AZ 3713", "place_name": "\u018fr\u0259b\u015falba\u015f", "latitude": "40.6183", "longitude": "48.7613"}, {"country_code": "AZ", "postal_code": "AZ 3714", "place_name": "Xilmilli", "latitude": "40.6913", "longitude": "48.8665"}, {"country_code": "AZ", "postal_code": "AZ 3715", "place_name": "Nabur", "latitude": "40.6316", "longitude": "48.9177"}, {"country_code": "AZ", "postal_code": "AZ 3717", "place_name": "Poladli", "latitude": "40.42", "longitude": "48.8176"}, {"country_code": "AZ", "postal_code": "AZ 3719", "place_name": "T\u0259kl\u0259", "latitude": "40.588", "longitude": "48.8455"}, {"country_code": "AZ", "postal_code": "AZ 4000", "place_name": "Quba", "latitude": "41.3611", "longitude": "48.5134"}, {"country_code": "AZ", "postal_code": "AZ 4001", "place_name": "1 Sayli", "latitude": "41.3611", "longitude": "48.5134"}, {"country_code": "AZ", "postal_code": "AZ 4002", "place_name": "2 Sayli", "latitude": "41.3611", "longitude": "48.5134"}, {"country_code": "AZ", "postal_code": "AZ 4003", "place_name": "3 Sayli", "latitude": "41.3611", "longitude": "48.5134"}, {"country_code": "AZ", "postal_code": "AZ 4011", "place_name": "Alekseyevka", "latitude": "41.3762", "longitude": "48.578"}, {"country_code": "AZ", "postal_code": "AZ 4012", "place_name": "Alpan", "latitude": "41.3866", "longitude": "48.4301"}, {"country_code": "AZ", "postal_code": "AZ 4013", "place_name": "Amsar", "latitude": "41.3289", "longitude": "48.5403"}, {"country_code": "AZ", "postal_code": "AZ 4014", "place_name": "\u00c7i\u00e7i", "latitude": "41.2124", "longitude": "48.6776"}, {"country_code": "AZ", "postal_code": "AZ 4015", "place_name": "A\u015fa\u011fi Atuc", "latitude": "41.4475", "longitude": "48.5705"}, {"country_code": "AZ", "postal_code": "AZ 4019", "place_name": "Xucbala", "latitude": "41.4149", "longitude": "48.4661"}, {"country_code": "AZ", "postal_code": "AZ 4022", "place_name": "Kup\u00e7al", "latitude": "41.3312", "longitude": "48.3829"}, {"country_code": "AZ", "postal_code": "AZ 4023", "place_name": "Q\u0259\u00e7r\u0259\u015f", "latitude": "41.3216", "longitude": "48.3869"}, {"country_code": "AZ", "postal_code": "AZ 4024", "place_name": "Qirmizi Q\u0259s\u0259b\u0259", "latitude": "41.3716", "longitude": "48.5176"}, {"country_code": "AZ", "postal_code": "AZ 4025", "place_name": "Qonaqk\u0259nd", "latitude": "41.0731", "longitude": "48.6084"}, {"country_code": "AZ", "postal_code": "AZ 4026", "place_name": "N\u00fcg\u0259di-1", "latitude": "41.2695", "longitude": "48.4946"}, {"country_code": "AZ", "postal_code": "AZ 4027", "place_name": "N\u00fcg\u0259di-2", "latitude": "41.2695", "longitude": "48.4946"}, {"country_code": "AZ", "postal_code": "AZ 4028", "place_name": "Rustov", "latitude": "41.2501", "longitude": "48.5771"}, {"country_code": "AZ", "postal_code": "AZ 4030", "place_name": "Talabi", "latitude": "41.267", "longitude": "48.6597"}, {"country_code": "AZ", "postal_code": "AZ 4031", "place_name": "V\u0259l-V\u0259l\u0259", "latitude": "41.3655", "longitude": "48.6359"}, {"country_code": "AZ", "postal_code": "AZ 4032", "place_name": "Vladimirovka", "latitude": "41.3983", "longitude": "48.5483"}, {"country_code": "AZ", "postal_code": "AZ 4033", "place_name": "Hacih\u00fcseynli", "latitude": "41.3655", "longitude": "48.6359"}, {"country_code": "AZ", "postal_code": "AZ 4035", "place_name": "Z\u0259rdabi", "latitude": "41.3969", "longitude": "48.64"}, {"country_code": "AZ", "postal_code": "AZ 4038", "place_name": "Barli", "latitude": "41.3998", "longitude": "48.6957"}, {"country_code": "AZ", "postal_code": "AZ 3900", "place_name": "Qubadli", "latitude": "39.3444", "longitude": "46.5818"}, {"country_code": "AZ", "postal_code": "AZ 3800", "place_name": "Qusar", "latitude": "41.4275", "longitude": "48.4302"}, {"country_code": "AZ", "postal_code": "AZ 3802", "place_name": "2 Sayli", "latitude": "41.4275", "longitude": "48.4302"}, {"country_code": "AZ", "postal_code": "AZ 3803", "place_name": "3 Sayli", "latitude": "41.4275", "longitude": "48.4302"}, {"country_code": "AZ", "postal_code": "AZ 3811", "place_name": "A\u015fa\u011fi L\u0259y\u0259r", "latitude": "41.453", "longitude": "48.2958"}, {"country_code": "AZ", "postal_code": "AZ 3814", "place_name": "D\u00fcztahir", "latitude": "41.4095", "longitude": "48.1529"}, {"country_code": "AZ", "postal_code": "AZ 3816", "place_name": "\u018fniq", "latitude": "41.3329", "longitude": "48.2197"}, {"country_code": "AZ", "postal_code": "AZ 3817", "place_name": "G\u0259d\u0259zeyxur", "latitude": "41.4884", "longitude": "48.4242"}, {"country_code": "AZ", "postal_code": "AZ 3818", "place_name": "G\u00fcnd\u00fczqala", "latitude": "41.5294", "longitude": "48.4321"}, {"country_code": "AZ", "postal_code": "AZ 3819", "place_name": "H\u0259zr\u0259", "latitude": "41.5046", "longitude": "48.2502"}, {"country_code": "AZ", "postal_code": "AZ 3820", "place_name": "Hil", "latitude": "41.4677", "longitude": "48.3444"}, {"country_code": "AZ", "postal_code": "AZ 3824", "place_name": "Imamquluk\u0259nd", "latitude": "41.4013", "longitude": "48.2429"}, {"country_code": "AZ", "postal_code": "AZ 3826", "place_name": "Kuzun Qi\u015flaq", "latitude": "41.4013", "longitude": "48.2429"}, {"country_code": "AZ", "postal_code": "AZ 3827", "place_name": "Kuzun", "latitude": "41.335", "longitude": "48.1414"}, {"country_code": "AZ", "postal_code": "AZ 3830", "place_name": "Quxur Oba", "latitude": "41.5725", "longitude": "48.4237"}, {"country_code": "AZ", "postal_code": "AZ 3831", "place_name": "Qullar", "latitude": "41.6399", "longitude": "48.4719"}, {"country_code": "AZ", "postal_code": "AZ 3833", "place_name": "Piral", "latitude": "41.495", "longitude": "48.2857"}, {"country_code": "AZ", "postal_code": "AZ 3834", "place_name": "\u015eirvanovka", "latitude": "41.696", "longitude": "48.4888"}, {"country_code": "AZ", "postal_code": "AZ 3835", "place_name": "Urva", "latitude": "41.5423", "longitude": "48.5936"}, {"country_code": "AZ", "postal_code": "AZ 3836", "place_name": "Yasab", "latitude": "41.4926", "longitude": "48.3203"}, {"country_code": "AZ", "postal_code": "AZ 3838", "place_name": "Yuxari Zeyxur", "latitude": "41.5692", "longitude": "48.3817"}, {"country_code": "AZ", "postal_code": "AZ 3840", "place_name": "Samur Sdk G\u00f6mr\u00fck", "latitude": "41.4806", "longitude": "48.3501"}, {"country_code": "AZ", "postal_code": "AZ 4900", "place_name": "Saatli", "latitude": "39.9321", "longitude": "48.3689"}, {"country_code": "AZ", "postal_code": "AZ 4901", "place_name": "1 Sayli", "latitude": "39.9321", "longitude": "48.3689"}, {"country_code": "AZ", "postal_code": "AZ 4911", "place_name": "Azadk\u0259nd", "latitude": "39.7906", "longitude": "48.5566"}, {"country_code": "AZ", "postal_code": "AZ 4912", "place_name": "B\u0259ylik", "latitude": "39.9563", "longitude": "48.4106"}, {"country_code": "AZ", "postal_code": "AZ 4913", "place_name": "D\u0259d\u0259 Qorqud", "latitude": "39.8708", "longitude": "48.3903"}, {"country_code": "AZ", "postal_code": "AZ 4914", "place_name": "\u018flisoltanli", "latitude": "39.9023", "longitude": "48.3391"}, {"country_code": "AZ", "postal_code": "AZ 4915", "place_name": "F\u0259t\u0259lik\u0259nd", "latitude": "39.8759", "longitude": "48.555"}, {"country_code": "AZ", "postal_code": "AZ 4916", "place_name": "Haciqasimli", "latitude": "39.9135", "longitude": "48.244"}, {"country_code": "AZ", "postal_code": "AZ 4917", "place_name": "Xanlark\u0259nd", "latitude": "39.8873", "longitude": "48.617"}, {"country_code": "AZ", "postal_code": "AZ 4918", "place_name": "Qara Nuru", "latitude": "39.9238", "longitude": "48.4993"}, {"country_code": "AZ", "postal_code": "AZ 4919", "place_name": "Qara\u00e7alar", "latitude": "39.887", "longitude": "48.311"}, {"country_code": "AZ", "postal_code": "AZ 4920", "place_name": "Qarayevk\u0259nd", "latitude": "39.9122", "longitude": "48.653"}, {"country_code": "AZ", "postal_code": "AZ 4921", "place_name": "Qiraqli", "latitude": "39.9449", "longitude": "48.392"}, {"country_code": "AZ", "postal_code": "AZ 4922", "place_name": "M\u0259mm\u0259dabad", "latitude": "39.8615", "longitude": "48.4691"}, {"country_code": "AZ", "postal_code": "AZ 4923", "place_name": "Mirc\u0259lalk\u0259nd", "latitude": "39.8912", "longitude": "48.4977"}, {"country_code": "AZ", "postal_code": "AZ 4924", "place_name": "Mollavazli", "latitude": "39.9196", "longitude": "48.3451"}, {"country_code": "AZ", "postal_code": "AZ 4925", "place_name": "N\u0259rimank\u0259nd", "latitude": "39.8912", "longitude": "48.4977"}, {"country_code": "AZ", "postal_code": "AZ 4926", "place_name": "N\u0259simik\u0259nd", "latitude": "39.8385", "longitude": "48.6133"}, {"country_code": "AZ", "postal_code": "AZ 4927", "place_name": "Saatlik\u0259nd", "latitude": "39.8912", "longitude": "48.4977"}, {"country_code": "AZ", "postal_code": "AZ 4928", "place_name": "Saracalar", "latitude": "39.8912", "longitude": "48.4977"}, {"country_code": "AZ", "postal_code": "AZ 4929", "place_name": "\u015eirinb\u0259yli", "latitude": "39.8707", "longitude": "48.5136"}, {"country_code": "AZ", "postal_code": "AZ 4930", "place_name": "Varxank\u0259nd", "latitude": "39.8945", "longitude": "48.4589"}, {"country_code": "AZ", "postal_code": "AZ 5400", "place_name": "Sabirabad", "latitude": "40.0087", "longitude": "48.477"}, {"country_code": "AZ", "postal_code": "AZ 5401", "place_name": "1 Sayli", "latitude": "40.0087", "longitude": "48.477"}, {"country_code": "AZ", "postal_code": "AZ 5403", "place_name": "3 Sayli", "latitude": "40.0087", "longitude": "48.477"}, {"country_code": "AZ", "postal_code": "AZ 5411", "place_name": "Axisxa", "latitude": "40.0855", "longitude": "48.5398"}, {"country_code": "AZ", "postal_code": "AZ 5412", "place_name": "Axta\u00e7i", "latitude": "40.0163", "longitude": "48.7175"}, {"country_code": "AZ", "postal_code": "AZ 5415", "place_name": "Cavad", "latitude": "40.0418", "longitude": "48.4694"}, {"country_code": "AZ", "postal_code": "AZ 5418", "place_name": "\u018fhm\u0259dabad", "latitude": "39.9963", "longitude": "48.618"}, {"country_code": "AZ", "postal_code": "AZ 5420", "place_name": "H\u0259\u015fimxanli", "latitude": "40.0093", "longitude": "48.6077"}, {"country_code": "AZ", "postal_code": "AZ 5422", "place_name": "K\u00fcrk\u0259ndi", "latitude": "40.0262", "longitude": "48.4821"}, {"country_code": "AZ", "postal_code": "AZ 5423", "place_name": "Qala\u011fayin", "latitude": "39.9812", "longitude": "48.4796"}, {"country_code": "AZ", "postal_code": "AZ 5424", "place_name": "Qarag\u00fcney", "latitude": "39.9707", "longitude": "48.8499"}, {"country_code": "AZ", "postal_code": "AZ 5425", "place_name": "Quruzma", "latitude": "40.0896", "longitude": "48.6096"}, {"country_code": "AZ", "postal_code": "AZ 5426", "place_name": "Qarat\u0259p\u0259", "latitude": "39.9645", "longitude": "48.6145"}, {"country_code": "AZ", "postal_code": "AZ 5427", "place_name": "Qasimb\u0259yli", "latitude": "40.0346", "longitude": "48.3392"}, {"country_code": "AZ", "postal_code": "AZ 5428", "place_name": "Q\u0259zli", "latitude": "40.085", "longitude": "48.6089"}, {"country_code": "AZ", "postal_code": "AZ 5429", "place_name": "Minba\u015fi", "latitude": "39.9229", "longitude": "48.8778"}, {"country_code": "AZ", "postal_code": "AZ 5430", "place_name": "Moranli", "latitude": "39.7868", "longitude": "48.7381"}, {"country_code": "AZ", "postal_code": "AZ 5432", "place_name": "M\u00fcrs\u0259lli", "latitude": "40.0834", "longitude": "48.5603"}, {"country_code": "AZ", "postal_code": "AZ 5433", "place_name": "Surra", "latitude": "40.0785", "longitude": "48.5302"}, {"country_code": "AZ", "postal_code": "AZ 5434", "place_name": "Nizamik\u0259nd", "latitude": "39.9927", "longitude": "48.6572"}, {"country_code": "AZ", "postal_code": "AZ 5435", "place_name": "Suqovu\u015fan ", "latitude": "39.9927", "longitude": "48.6572"}, {"country_code": "AZ", "postal_code": "AZ 5436", "place_name": "\u015e\u0259hriyar", "latitude": "39.9445", "longitude": "48.7138"}, {"country_code": "AZ", "postal_code": "AZ 5437", "place_name": "\u015eix Salahli", "latitude": "39.9927", "longitude": "48.8068"}, {"country_code": "AZ", "postal_code": "AZ 5439", "place_name": "Ulacali", "latitude": "40.0706", "longitude": "48.5939"}, {"country_code": "AZ", "postal_code": "AZ 5440", "place_name": "Yol\u00e7ub\u0259yli", "latitude": "40.058", "longitude": "48.3901"}, {"country_code": "AZ", "postal_code": "AZ 5441", "place_name": "Z\u0259ng\u0259n\u0259", "latitude": "40.0934", "longitude": "48.4135"}, {"country_code": "AZ", "postal_code": "AZ 5443", "place_name": "Qaralar", "latitude": "40.033", "longitude": "48.5139"}, {"country_code": "AZ", "postal_code": "AZ 5446", "place_name": "X\u0259lf\u0259li", "latitude": "39.9559", "longitude": "48.6782"}, {"country_code": "AZ", "postal_code": "AZ 5500", "place_name": "\u015e\u0259ki", "latitude": "41.1919", "longitude": "47.1706"}, {"country_code": "AZ", "postal_code": "AZ 5501", "place_name": "1 Sayli", "latitude": "41.1919", "longitude": "47.1706"}, {"country_code": "AZ", "postal_code": "AZ 5502", "place_name": "2 Sayli", "latitude": "41.1919", "longitude": "47.1706"}, {"country_code": "AZ", "postal_code": "AZ 5503", "place_name": "3 Sayli", "latitude": "41.1919", "longitude": "47.1706"}, {"country_code": "AZ", "postal_code": "AZ 5504", "place_name": "4 Sayli", "latitude": "41.1919", "longitude": "47.1706"}, {"country_code": "AZ", "postal_code": "AZ 5505", "place_name": "5 Sayli", "latitude": "41.1919", "longitude": "47.1706"}, {"country_code": "AZ", "postal_code": "AZ 5506", "place_name": "6 Sayli", "latitude": "41.1919", "longitude": "47.1706"}, {"country_code": "AZ", "postal_code": "AZ 5507", "place_name": "7 Sayli", "latitude": "41.1919", "longitude": "47.1706"}, {"country_code": "AZ", "postal_code": "AZ 5508", "place_name": "8 Sayli", "latitude": "41.1919", "longitude": "47.1706"}, {"country_code": "AZ", "postal_code": "AZ 5511", "place_name": "A\u015fa\u011fi G\u00f6yn\u00fck", "latitude": "41.2848", "longitude": "47.0227"}, {"country_code": "AZ", "postal_code": "AZ 5512", "place_name": "A\u015fa\u011fi K\u00fcng\u00fct", "latitude": "41.065", "longitude": "47.2546"}, {"country_code": "AZ", "postal_code": "AZ 5513", "place_name": "Baltali", "latitude": "41.1867", "longitude": "47.0899"}, {"country_code": "AZ", "postal_code": "AZ 5514", "place_name": "Ba\u015f G\u00f6yn\u00fck", "latitude": "41.3258", "longitude": "47.1136"}, {"country_code": "AZ", "postal_code": "AZ 5515", "place_name": "Ba\u015f K\u00fcng\u00fct", "latitude": "41.162", "longitude": "47.3233"}, {"country_code": "AZ", "postal_code": "AZ 5516", "place_name": "Ba\u015f Layiski", "latitude": "41.1509", "longitude": "47.165"}, {"country_code": "AZ", "postal_code": "AZ 5517", "place_name": "Ba\u015f Z\u0259yzit", "latitude": "41.1903", "longitude": "47.247"}, {"country_code": "AZ", "postal_code": "AZ 5518", "place_name": "B\u00f6y\u00fck D\u0259hn\u0259", "latitude": "40.9733", "longitude": "47.114"}, {"country_code": "AZ", "postal_code": "AZ 5519", "place_name": "C\u0259f\u0259rabad", "latitude": "41.0195", "longitude": "47.1547"}, {"country_code": "AZ", "postal_code": "AZ 5520", "place_name": "C\u0259yirli", "latitude": "41.1233", "longitude": "47.1802"}, {"country_code": "AZ", "postal_code": "AZ 5521", "place_name": "Cumayk\u0259nd", "latitude": "41.1233", "longitude": "47.1802"}, {"country_code": "AZ", "postal_code": "AZ 5523", "place_name": "In\u00e7\u0259", "latitude": "41.2526", "longitude": "47.1103"}, {"country_code": "AZ", "postal_code": "AZ 5524", "place_name": "Ki\u00e7ik D\u0259hn\u0259", "latitude": "40.9942", "longitude": "47.0803"}, {"country_code": "AZ", "postal_code": "AZ 5525", "place_name": "Ki\u015f", "latitude": "41.1233", "longitude": "47.1802"}, {"country_code": "AZ", "postal_code": "AZ 5526", "place_name": "Qoxmuq", "latitude": "41.2113", "longitude": "47.1407"}, {"country_code": "AZ", "postal_code": "AZ 5527", "place_name": "Oxud", "latitude": "41.2374", "longitude": "47.1586"}, {"country_code": "AZ", "postal_code": "AZ 5528", "place_name": "Orta Z\u0259yzit", "latitude": "41.1697", "longitude": "47.2479"}, {"country_code": "AZ", "postal_code": "AZ 5529", "place_name": "Sarica", "latitude": "40.8747", "longitude": "47.3432"}, {"country_code": "AZ", "postal_code": "AZ 5530", "place_name": "Su\u00e7ma", "latitude": "40.9598", "longitude": "47.1336"}, {"country_code": "AZ", "postal_code": "AZ 5531", "place_name": "\u015e\u0259kik\u0259nd", "latitude": "41.0751", "longitude": "47.1556"}, {"country_code": "AZ", "postal_code": "AZ 5532", "place_name": "\u015eorsu", "latitude": "41.1598", "longitude": "46.9905"}, {"country_code": "AZ", "postal_code": "AZ 5533", "place_name": "Turan", "latitude": "40.8564", "longitude": "47.2451"}, {"country_code": "AZ", "postal_code": "AZ 5534", "place_name": "Bil\u0259cik", "latitude": "41.3322", "longitude": "46.9437"}, {"country_code": "AZ", "postal_code": "AZ 5535", "place_name": "Aydinbulaq", "latitude": "40.994", "longitude": "47.2802"}, {"country_code": "AZ", "postal_code": "AZ 5536", "place_name": "Oravan", "latitude": "41.1482", "longitude": "47.3407"}, {"country_code": "AZ", "postal_code": "AZ 5537", "place_name": "Ba\u015f G\u00f6yn\u00fck-2", "latitude": "41.0751", "longitude": "47.1556"}, {"country_code": "AZ", "postal_code": "AZ 5540", "place_name": "K\u00f6b\u0259r Z\u0259yzid", "latitude": "41.137", "longitude": "47.1682"}, {"country_code": "AZ", "postal_code": "AZ 5200", "place_name": "Salyan", "latitude": "39.5962", "longitude": "48.9848"}, {"country_code": "AZ", "postal_code": "AZ 5201", "place_name": "1 Sayli", "latitude": "39.5962", "longitude": "48.9848"}, {"country_code": "AZ", "postal_code": "AZ 5205", "place_name": "5 Sayli", "latitude": "39.5962", "longitude": "48.9848"}, {"country_code": "AZ", "postal_code": "AZ 5206", "place_name": "6 Sayli", "latitude": "39.5962", "longitude": "48.9848"}, {"country_code": "AZ", "postal_code": "AZ 5211", "place_name": "Arbatan", "latitude": "39.5782", "longitude": "48.9488"}, {"country_code": "AZ", "postal_code": "AZ 5213", "place_name": "\u00c7uxanli", "latitude": "39.6396", "longitude": "48.9728"}, {"country_code": "AZ", "postal_code": "AZ 5214", "place_name": "H\u0259s\u0259nli", "latitude": "39.736", "longitude": "49.0516"}, {"country_code": "AZ", "postal_code": "AZ 5215", "place_name": "Xalac", "latitude": "39.75", "longitude": "49.0411"}, {"country_code": "AZ", "postal_code": "AZ 5216", "place_name": "Xidirli", "latitude": "39.8432", "longitude": "49.3209"}, {"country_code": "AZ", "postal_code": "AZ 5218", "place_name": "K\u00fcr Qaraqa\u015fli", "latitude": "39.5802", "longitude": "48.9803"}, {"country_code": "AZ", "postal_code": "AZ 5219", "place_name": "K\u00fcrs\u0259ngi", "latitude": "39.6879", "longitude": "49.0526"}, {"country_code": "AZ", "postal_code": "AZ 5220", "place_name": "Qaraba\u011fli", "latitude": "39.7675", "longitude": "48.9679"}, {"country_code": "AZ", "postal_code": "AZ 5221", "place_name": "Qara\u00e7ala", "latitude": "39.8161", "longitude": "48.9379"}, {"country_code": "AZ", "postal_code": "AZ 5222", "place_name": "Qizila\u011fac", "latitude": "39.5116", "longitude": "48.9181"}, {"country_code": "AZ", "postal_code": "AZ 5223", "place_name": "Mari\u015fli", "latitude": "39.5646", "longitude": "48.9226"}, {"country_code": "AZ", "postal_code": "AZ 5224", "place_name": "Noxudlu", "latitude": "39.6455", "longitude": "48.9544"}, {"country_code": "AZ", "postal_code": "AZ 5227", "place_name": "Sarvan", "latitude": "39.4825", "longitude": "48.8963"}, {"country_code": "AZ", "postal_code": "AZ 5228", "place_name": "\u015eorsulu", "latitude": "39.4236", "longitude": "48.8246"}, {"country_code": "AZ", "postal_code": "AZ 5230", "place_name": "Yenik\u0259nd", "latitude": "39.7101", "longitude": "49.0897"}, {"country_code": "AZ", "postal_code": "AZ 5233", "place_name": "\u015e\u0259k\u0259rli", "latitude": "39.6942", "longitude": "49.0668"}, {"country_code": "AZ", "postal_code": "AZ 5600", "place_name": "\u015eamaxi", "latitude": "40.6314", "longitude": "48.6414"}, {"country_code": "AZ", "postal_code": "AZ 5601", "place_name": "1 Sayli", "latitude": "40.6314", "longitude": "48.6414"}, {"country_code": "AZ", "postal_code": "AZ 5602", "place_name": "2 Sayli", "latitude": "40.6314", "longitude": "48.6414"}, {"country_code": "AZ", "postal_code": "AZ 5611", "place_name": "Qizmeydan", "latitude": "40.7745", "longitude": "48.7416"}, {"country_code": "AZ", "postal_code": "AZ 5612", "place_name": "Ba\u011firli", "latitude": "40.4567", "longitude": "48.5953"}, {"country_code": "AZ", "postal_code": "AZ 5613", "place_name": "Cabani", "latitude": "40.6692", "longitude": "48.7079"}, {"country_code": "AZ", "postal_code": "AZ 5614", "place_name": "\u00c7uxuryurd", "latitude": "40.7118", "longitude": "48.6319"}, {"country_code": "AZ", "postal_code": "AZ 5615", "place_name": "G\u00f6yl\u0259r", "latitude": "40.6505", "longitude": "48.6541"}, {"country_code": "AZ", "postal_code": "AZ 5616", "place_name": "G\u00fcn\u0259\u015fli", "latitude": "40.6505", "longitude": "48.6541"}, {"country_code": "AZ", "postal_code": "AZ 5617", "place_name": "M\u0259dr\u0259s\u0259", "latitude": "40.6129", "longitude": "48.5615"}, {"country_code": "AZ", "postal_code": "AZ 5618", "place_name": "Na\u011faraxana", "latitude": "40.7422", "longitude": "48.6341"}, {"country_code": "AZ", "postal_code": "AZ 5619", "place_name": "Sabir", "latitude": "40.586", "longitude": "48.7067"}, {"country_code": "AZ", "postal_code": "AZ 5620", "place_name": "Qu\u015f\u00e7u", "latitude": "40.4364", "longitude": "48.7355"}, {"country_code": "AZ", "postal_code": "AZ 5621", "place_name": "Mirik\u0259nd", "latitude": "40.6457", "longitude": "48.5445"}, {"country_code": "AZ", "postal_code": "AZ 5623", "place_name": "\u00c7arhan", "latitude": "40.5523", "longitude": "48.6469"}, {"country_code": "AZ", "postal_code": "AZ 5626", "place_name": "Pirqulu", "latitude": "40.5886", "longitude": "48.629"}, {"country_code": "AZ", "postal_code": "AZ 5627", "place_name": "Mu\u011fanli", "latitude": "40.6666", "longitude": "48.5298"}, {"country_code": "AZ", "postal_code": "AZ 5628", "place_name": "M\u0259lik\u00e7obanli", "latitude": "40.5406", "longitude": "48.6857"}, {"country_code": "AZ", "postal_code": "AZ 5629", "place_name": "M\u0259lh\u0259m", "latitude": "40.6899", "longitude": "48.6316"}, {"country_code": "AZ", "postal_code": "AZ 5700", "place_name": "\u015e\u0259mkir", "latitude": "40.8297", "longitude": "46.0178"}, {"country_code": "AZ", "postal_code": "AZ 5704", "place_name": "4 Sayli", "latitude": "40.8297", "longitude": "46.0178"}, {"country_code": "AZ", "postal_code": "AZ 5705", "place_name": "5 Sayli", "latitude": "40.8297", "longitude": "46.0178"}, {"country_code": "AZ", "postal_code": "AZ 5706", "place_name": "6 Sayli", "latitude": "40.8297", "longitude": "46.0178"}, {"country_code": "AZ", "postal_code": "AZ 5711", "place_name": "A\u015fa\u011fi Seyf\u0259li", "latitude": "40.7609", "longitude": "46.1275"}, {"country_code": "AZ", "postal_code": "AZ 5712", "place_name": "\u00c7\u0259nlibel", "latitude": "40.7469", "longitude": "45.8802"}, {"country_code": "AZ", "postal_code": "AZ 5713", "place_name": "\u00c7inarli", "latitude": "40.7754", "longitude": "46.1125"}, {"country_code": "AZ", "postal_code": "AZ 5714", "place_name": "D\u0259ll\u0259r C\u0259yir", "latitude": "40.8825", "longitude": "46.0367"}, {"country_code": "AZ", "postal_code": "AZ 5715", "place_name": "D\u0259ll\u0259r", "latitude": "40.8628", "longitude": "46.0349"}, {"country_code": "AZ", "postal_code": "AZ 5716", "place_name": "D\u00fcy\u0259rli", "latitude": "40.9166", "longitude": "45.8481"}, {"country_code": "AZ", "postal_code": "AZ 5717", "place_name": "\u018fliyaqublu", "latitude": "40.8354", "longitude": "46.0834"}, {"country_code": "AZ", "postal_code": "AZ 5718", "place_name": "Irma\u015fli", "latitude": "40.8431", "longitude": "45.8911"}, {"country_code": "AZ", "postal_code": "AZ 5719", "place_name": "K\u00f6n\u00fcll\u00fc", "latitude": "40.7849", "longitude": "46.2426"}, {"country_code": "AZ", "postal_code": "AZ 5720", "place_name": "K\u00fcr", "latitude": "40.9058", "longitude": "46.1852"}, {"country_code": "AZ", "postal_code": "AZ 5721", "place_name": "Qarac\u0259mirli", "latitude": "40.8501", "longitude": "46.2166"}, {"country_code": "AZ", "postal_code": "AZ 5722", "place_name": "Muxtariyy\u0259t", "latitude": "40.8187", "longitude": "46.1051"}, {"country_code": "AZ", "postal_code": "AZ 5723", "place_name": "Plank\u0259nd", "latitude": "40.8815", "longitude": "46.1391"}, {"country_code": "AZ", "postal_code": "AZ 5724", "place_name": "Sabirk\u0259nd", "latitude": "40.8981", "longitude": "45.923"}, {"country_code": "AZ", "postal_code": "AZ 5725", "place_name": "\u015e\u0259mkir Va\u011fzal", "latitude": "40.8692", "longitude": "46.0447"}, {"country_code": "AZ", "postal_code": "AZ 5726", "place_name": "\u015ei\u015ft\u0259p\u0259", "latitude": "40.846", "longitude": "45.9283"}, {"country_code": "AZ", "postal_code": "AZ 5729", "place_name": "Z\u0259y\u0259m Cirdaxan", "latitude": "40.8845", "longitude": "45.8153"}, {"country_code": "AZ", "postal_code": "AZ 5730", "place_name": "Z\u0259y\u0259m - 3g Muveqqeti", "latitude": "40.8648", "longitude": "46.0708"}, {"country_code": "AZ", "postal_code": "AZ 5732", "place_name": "Ip\u0259k Yolu", "latitude": "40.8648", "longitude": "46.0708"}, {"country_code": "AZ", "postal_code": "AZ 5733", "place_name": "\u00c7aparli", "latitude": "40.8568", "longitude": "46.0915"}, {"country_code": "AZ", "postal_code": "AZ 5734", "place_name": "Mahmudlu", "latitude": "40.8529", "longitude": "46.1602"}, {"country_code": "AZ", "postal_code": "AZ 5735", "place_name": "Xuluf (A\u015fa\u011fi Ke\u00e7ili)", "latitude": "40.8648", "longitude": "46.0708"}, {"country_code": "AZ", "postal_code": "AZ 5736", "place_name": "Bayramli", "latitude": "40.9351", "longitude": "45.9273"}, {"country_code": "AZ", "postal_code": "AZ 5737", "place_name": "D\u0259ll\u0259r Cirdaxan", "latitude": "40.8981", "longitude": "46.0795"}, {"country_code": "AZ", "postal_code": "AZ 5739", "place_name": "Yeni H\u0259yat", "latitude": "40.7812", "longitude": "46.0957"}, {"country_code": "AZ", "postal_code": "AZ 5740", "place_name": "Qapanli", "latitude": "40.8689", "longitude": "46.2153"}, {"country_code": "AZ", "postal_code": "AZ 5741", "place_name": "Tatarli", "latitude": "40.8552", "longitude": "45.7391"}, {"country_code": "AZ", "postal_code": "AZ 5742", "place_name": "Qasimallar", "latitude": "40.8611", "longitude": "46.055"}, {"country_code": "AZ", "postal_code": "AZ 5743", "place_name": "Qilincb\u0259yli", "latitude": "40.8173", "longitude": "46.2212"}, {"country_code": "AZ", "postal_code": "AZ 5745", "place_name": "D\u0259ll\u0259r Da\u015fbulaq", "latitude": "40.9029", "longitude": "46.0444"}, {"country_code": "AZ", "postal_code": "AZ 5100", "place_name": "Samux", "latitude": "40.7649", "longitude": "46.4087"}, {"country_code": "AZ", "postal_code": "AZ 5101", "place_name": "1 Sayli", "latitude": "40.7649", "longitude": "46.4087"}, {"country_code": "AZ", "postal_code": "AZ 5102", "place_name": "2 Sayli R\u015f", "latitude": "40.7649", "longitude": "46.4087"}, {"country_code": "AZ", "postal_code": "AZ 5111", "place_name": "\u00c7oban Abdalli", "latitude": "40.7522", "longitude": "46.4355"}, {"country_code": "AZ", "postal_code": "AZ 5112", "place_name": "\u018fhm\u0259db\u0259yli", "latitude": "40.7435", "longitude": "46.4711"}, {"country_code": "AZ", "postal_code": "AZ 5114", "place_name": "Institut", "latitude": "40.7214", "longitude": "46.4144"}, {"country_code": "AZ", "postal_code": "AZ 5116", "place_name": "Qarayeri", "latitude": "40.7872", "longitude": "46.3171"}, {"country_code": "AZ", "postal_code": "AZ 5117", "place_name": "Qirmizi Samux", "latitude": "40.9397", "longitude": "46.3789"}, {"country_code": "AZ", "postal_code": "AZ 5118", "place_name": "Qovlarsari", "latitude": "40.7864", "longitude": "46.3461"}, {"country_code": "AZ", "postal_code": "AZ 5119", "place_name": "L\u0259k", "latitude": "40.7936", "longitude": "46.4764"}, {"country_code": "AZ", "postal_code": "AZ 5120", "place_name": "Poylu", "latitude": "41.1393", "longitude": "46.272"}, {"country_code": "AZ", "postal_code": "AZ 5121", "place_name": "Seyidl\u0259r", "latitude": "40.8494", "longitude": "46.2966"}, {"country_code": "AZ", "postal_code": "AZ 5122", "place_name": "Zazali", "latitude": "40.6957", "longitude": "46.5117"}, {"country_code": "AZ", "postal_code": "AZ 5123", "place_name": "Ziyadli", "latitude": "40.7711", "longitude": "46.3644"}, {"country_code": "AZ", "postal_code": "AZ 5125", "place_name": "\u018fliu\u015fa\u011fi", "latitude": "40.6946", "longitude": "46.4747"}, {"country_code": "AZ", "postal_code": "AZ 5128", "place_name": "Sariqami\u015f", "latitude": "40.8261", "longitude": "46.3354"}, {"country_code": "AZ", "postal_code": "AZ 5129", "place_name": "S\u0259rkar-2", "latitude": "40.8294", "longitude": "46.3758"}, {"country_code": "AZ", "postal_code": "AZ 5131", "place_name": "Yenik\u0259nd", "latitude": "40.9247", "longitude": "46.3086"}, {"country_code": "AZ", "postal_code": "AZ 5134", "place_name": "Yuxari A\u011fasib\u0259yli", "latitude": "40.7555", "longitude": "46.5038"}, {"country_code": "AZ", "postal_code": "AZ 5300", "place_name": "Siy\u0259z\u0259n", "latitude": "41.0781", "longitude": "49.1156"}, {"country_code": "AZ", "postal_code": "AZ 5301", "place_name": "1 Sayli R\u015f", "latitude": "41.0781", "longitude": "49.1156"}, {"country_code": "AZ", "postal_code": "AZ 5312", "place_name": "Yenik\u0259nd ", "latitude": "41.1642", "longitude": "49.0839"}, {"country_code": "AZ", "postal_code": "AZ 5313", "place_name": "H\u0259my\u0259", "latitude": "41.069", "longitude": "49.0907"}, {"country_code": "AZ", "postal_code": "AZ 5314", "place_name": "S\u0259dan", "latitude": "41.0652", "longitude": "49.0391"}, {"country_code": "AZ", "postal_code": "AZ 5315", "place_name": "Zarat", "latitude": "40.9491", "longitude": "49.2821"}, {"country_code": "AZ", "postal_code": "AZ 5316", "place_name": "M\u0259srif", "latitude": "41.0977", "longitude": "48.9578"}, {"country_code": "AZ", "postal_code": "AZ 5000", "place_name": "Sumqayit", "latitude": "40.5897", "longitude": "49.6686"}, {"country_code": "AZ", "postal_code": "AZ 5001", "place_name": "1 Sayli", "latitude": "40.5897", "longitude": "49.6686"}, {"country_code": "AZ", "postal_code": "AZ 5003", "place_name": "3 Sayli", "latitude": "40.5897", "longitude": "49.6686"}, {"country_code": "AZ", "postal_code": "AZ 5004", "place_name": "4 Sayli", "latitude": "40.5897", "longitude": "49.6686"}, {"country_code": "AZ", "postal_code": "AZ 5005", "place_name": "5 Sayli", "latitude": "40.5897", "longitude": "49.6686"}, {"country_code": "AZ", "postal_code": "AZ 5006", "place_name": "6 Sayli", "latitude": "40.5897", "longitude": "49.6686"}, {"country_code": "AZ", "postal_code": "AZ 5007", "place_name": "7 Sayli", "latitude": "40.5897", "longitude": "49.6686"}, {"country_code": "AZ", "postal_code": "AZ 5008", "place_name": "8 Sayli", "latitude": "40.5897", "longitude": "49.6686"}, {"country_code": "AZ", "postal_code": "AZ 5009", "place_name": "9 Sayli", "latitude": "40.5897", "longitude": "49.6686"}, {"country_code": "AZ", "postal_code": "AZ 5011", "place_name": "11 Sayli ", "latitude": "40.5911", "longitude": "49.6619"}, {"country_code": "AZ", "postal_code": "AZ 5021", "place_name": "Corat", "latitude": "40.5718", "longitude": "49.7051"}, {"country_code": "AZ", "postal_code": "AZ 5022", "place_name": "Haci Zeynalabdin", "latitude": "40.6233", "longitude": "49.5586"}, {"country_code": "AZ", "postal_code": "AZ 5800", "place_name": "\u015eu\u015fa", "latitude": "39.7607", "longitude": "46.766"}, {"country_code": "AZ", "postal_code": "AZ 5900", "place_name": "T\u0259r-T\u0259r", "latitude": "40.4031", "longitude": "46.9727"}, {"country_code": "AZ", "postal_code": "AZ 5902", "place_name": "2 Sayli", "latitude": "40.4031", "longitude": "46.9727"}, {"country_code": "AZ", "postal_code": "AZ 5911", "place_name": "Azadqaraqoyunlu", "latitude": "40.4228", "longitude": "46.9344"}, {"country_code": "AZ", "postal_code": "AZ 5912", "place_name": "B\u0259yimsarov", "latitude": "40.4768", "longitude": "46.9483"}, {"country_code": "AZ", "postal_code": "AZ 5915", "place_name": "D\u0259mir\u00e7il\u0259r", "latitude": "40.4222", "longitude": "46.8984"}, {"country_code": "AZ", "postal_code": "AZ 5918", "place_name": "Haciq\u0259rv\u0259nd", "latitude": "40.3694", "longitude": "46.9564"}, {"country_code": "AZ", "postal_code": "AZ 5922", "place_name": "Qarada\u011fli", "latitude": "40.4346", "longitude": "46.9474"}, {"country_code": "AZ", "postal_code": "AZ 5923", "place_name": "Qara\u011faci", "latitude": "40.4637", "longitude": "47.1475"}, {"country_code": "AZ", "postal_code": "AZ 5924", "place_name": "Qaynaq", "latitude": "40.264", "longitude": "47.0136"}, {"country_code": "AZ", "postal_code": "AZ 5926", "place_name": "Sarov", "latitude": "40.4768", "longitude": "46.9483"}, {"country_code": "AZ", "postal_code": "AZ 5927", "place_name": "Seydimli", "latitude": "40.3706", "longitude": "46.9324"}, {"country_code": "AZ", "postal_code": "AZ 5928", "place_name": "\u018fl\u0259sg\u0259rli", "latitude": "40.3416", "longitude": "46.9785"}, {"country_code": "AZ", "postal_code": "AZ 5929", "place_name": "S\u0259hlabad", "latitude": "40.3919", "longitude": "46.9946"}, {"country_code": "AZ", "postal_code": "AZ 6000", "place_name": "Tovuz", "latitude": "40.9925", "longitude": "45.6284"}, {"country_code": "AZ", "postal_code": "AZ 6001", "place_name": "1 Sayli", "latitude": "40.9925", "longitude": "45.6284"}, {"country_code": "AZ", "postal_code": "AZ 6002", "place_name": "2 Sayli", "latitude": "40.9925", "longitude": "45.6284"}, {"country_code": "AZ", "postal_code": "AZ 6011", "place_name": "Abulb\u0259yli", "latitude": "40.9961", "longitude": "45.607"}, {"country_code": "AZ", "postal_code": "AZ 6012", "place_name": "Alakol", "latitude": "40.9068", "longitude": "45.7703"}, {"country_code": "AZ", "postal_code": "AZ 6014", "place_name": "\u018fyyublu", "latitude": "40.9655", "longitude": "45.6572"}, {"country_code": "AZ", "postal_code": "AZ 6015", "place_name": "A\u015fa\u011fi Qu\u015f\u00e7u", "latitude": "40.9571", "longitude": "45.6804"}, {"country_code": "AZ", "postal_code": "AZ 6016", "place_name": "A\u015fa\u011fi \u00d6ys\u00fczl\u00fc", "latitude": "40.9727", "longitude": "45.5909"}, {"country_code": "AZ", "postal_code": "AZ 6017", "place_name": "Azafli", "latitude": "40.9655", "longitude": "45.6572"}, {"country_code": "AZ", "postal_code": "AZ 6018", "place_name": "Bozalqanli", "latitude": "40.9948", "longitude": "45.6376"}, {"country_code": "AZ", "postal_code": "AZ 6022", "place_name": "Dondar Qu\u015fcu", "latitude": "40.9539", "longitude": "45.6194"}, {"country_code": "AZ", "postal_code": "AZ 6023", "place_name": "D\u00f6n\u00fck Qirixli", "latitude": "40.9632", "longitude": "45.6033"}, {"country_code": "AZ", "postal_code": "AZ 6024", "place_name": "D\u00fcz Cirdaxan", "latitude": "41.0184", "longitude": "45.6091"}, {"country_code": "AZ", "postal_code": "AZ 6025", "place_name": "D\u00fcz Qirixli", "latitude": "40.9632", "longitude": "45.6033"}, {"country_code": "AZ", "postal_code": "AZ 6026", "place_name": "\u018flib\u0259yli", "latitude": "40.94", "longitude": "45.489"}, {"country_code": "AZ", "postal_code": "AZ 6027", "place_name": "\u018flim\u0259rdanli", "latitude": "41.0398", "longitude": "45.673"}, {"country_code": "AZ", "postal_code": "AZ 6028", "place_name": "\u018fsrik Cirdaxan", "latitude": "40.864", "longitude": "45.6261"}, {"country_code": "AZ", "postal_code": "AZ 6030", "place_name": "Qaraxanli", "latitude": "41.0436", "longitude": "45.6553"}, {"country_code": "AZ", "postal_code": "AZ 6033", "place_name": "Xatinli", "latitude": "41.0439", "longitude": "45.6478"}, {"country_code": "AZ", "postal_code": "AZ 6035", "place_name": "Qovlar", "latitude": "40.946", "longitude": "45.7317"}, {"country_code": "AZ", "postal_code": "AZ 6039", "place_name": "Yanixli", "latitude": "41.0112", "longitude": "45.6783"}, {"country_code": "AZ", "postal_code": "AZ 6040", "place_name": "Yuxari \u00d6ys\u00fczl\u00fc", "latitude": "40.9455", "longitude": "45.546"}, {"country_code": "AZ", "postal_code": "AZ 6041", "place_name": "Ibrahimhacili", "latitude": "40.8966", "longitude": "45.7471"}, {"country_code": "AZ", "postal_code": "AZ 6044", "place_name": "Mulkulu", "latitude": "40.9458", "longitude": "45.5029"}, {"country_code": "AZ", "postal_code": "AZ 6100", "place_name": "Ucar", "latitude": "40.519", "longitude": "47.6542"}, {"country_code": "AZ", "postal_code": "AZ 6102", "place_name": "2 Sayli", "latitude": "40.519", "longitude": "47.6542"}, {"country_code": "AZ", "postal_code": "AZ 6111", "place_name": "Qaziqumlaq", "latitude": "40.5364", "longitude": "47.5244"}, {"country_code": "AZ", "postal_code": "AZ 6112", "place_name": "Alpout", "latitude": "40.4579", "longitude": "47.6046"}, {"country_code": "AZ", "postal_code": "AZ 6113", "place_name": "B\u0259rg\u00fc\u015fad", "latitude": "40.3956", "longitude": "47.8464"}, {"country_code": "AZ", "postal_code": "AZ 6114", "place_name": "K\u00fc\u00e7\u0259k\u0259nd", "latitude": "40.4756", "longitude": "47.8"}, {"country_code": "AZ", "postal_code": "AZ 6115", "place_name": "Boyat", "latitude": "40.393", "longitude": "47.7495"}, {"country_code": "AZ", "postal_code": "AZ 6116", "place_name": "Qarab\u00f6rk", "latitude": "40.485", "longitude": "47.6627"}, {"country_code": "AZ", "postal_code": "AZ 6117", "place_name": "Qaracalli", "latitude": "40.4416", "longitude": "47.8514"}, {"country_code": "AZ", "postal_code": "AZ 6118", "place_name": "Qarada\u011fli", "latitude": "40.4905", "longitude": "47.5723"}, {"country_code": "AZ", "postal_code": "AZ 6119", "place_name": "Q\u0259zyan", "latitude": "40.4595", "longitude": "47.7014"}, {"country_code": "AZ", "postal_code": "AZ 6120", "place_name": "Qulab\u0259nd", "latitude": "40.4283", "longitude": "47.6914"}, {"country_code": "AZ", "postal_code": "AZ 6121", "place_name": "L\u0259k", "latitude": "40.3759", "longitude": "47.6629"}, {"country_code": "AZ", "postal_code": "AZ 6122", "place_name": "Ramal", "latitude": "40.4987", "longitude": "47.4925"}, {"country_code": "AZ", "postal_code": "AZ 6123", "place_name": "T\u0259z\u0259 \u015eilyan", "latitude": "40.4078", "longitude": "47.9383"}, {"country_code": "AZ", "postal_code": "AZ 6124", "place_name": "Yuxari \u015eilyan", "latitude": "40.3312", "longitude": "47.8125"}, {"country_code": "AZ", "postal_code": "AZ 6125", "place_name": "M\u00fcs\u00fcsl\u00fc", "latitude": "40.4539", "longitude": "47.9073"}, {"country_code": "AZ", "postal_code": "AZ 6126", "place_name": "M\u0259likballi", "latitude": "40.5472", "longitude": "47.5436"}, {"country_code": "AZ", "postal_code": "AZ 6127", "place_name": "X\u0259l\u0259c", "latitude": "40.3426", "longitude": "47.683"}, {"country_code": "AZ", "postal_code": "AZ 6128", "place_name": "\u015eahliq", "latitude": "40.4692", "longitude": "47.4907"}, {"country_code": "AZ", "postal_code": "AZ 2700", "place_name": "Xa\u00e7maz", "latitude": "41.4643", "longitude": "48.8057"}, {"country_code": "AZ", "postal_code": "AZ 2702", "place_name": "2 Sayli", "latitude": "41.4643", "longitude": "48.8057"}, {"country_code": "AZ", "postal_code": "AZ 2703", "place_name": "3 Sayli", "latitude": "41.4643", "longitude": "48.8057"}, {"country_code": "AZ", "postal_code": "AZ 2704", "place_name": "4 Sayli", "latitude": "41.4643", "longitude": "48.8057"}, {"country_code": "AZ", "postal_code": "AZ 2711", "place_name": "Alekseevka", "latitude": "41.4944", "longitude": "48.6669"}, {"country_code": "AZ", "postal_code": "AZ 2712", "place_name": "\u00c7arxi", "latitude": "41.392", "longitude": "48.8696"}, {"country_code": "AZ", "postal_code": "AZ 2713", "place_name": "D\u0259d\u0259li", "latitude": "41.575", "longitude": "48.7663"}, {"country_code": "AZ", "postal_code": "AZ 2714", "place_name": "Haci\u0259lib\u0259y", "latitude": "41.4072", "longitude": "48.6992"}, {"country_code": "AZ", "postal_code": "AZ 2715", "place_name": "H\u0259s\u0259nqala", "latitude": "41.5805", "longitude": "48.6829"}, {"country_code": "AZ", "postal_code": "AZ 2716", "place_name": "H\u00fcl\u00f6vl\u00fc", "latitude": "41.404", "longitude": "48.8101"}, {"country_code": "AZ", "postal_code": "AZ 2717", "place_name": "Xudat", "latitude": "41.6305", "longitude": "48.6816"}, {"country_code": "AZ", "postal_code": "AZ 2718", "place_name": "K\u0259nd Xudat", "latitude": "41.4841", "longitude": "48.7438"}, {"country_code": "AZ", "postal_code": "AZ 2719", "place_name": "Qara\u00e7aycek", "latitude": "41.3887", "longitude": "48.7733"}, {"country_code": "AZ", "postal_code": "AZ 2720", "place_name": "Qimil Qi\u015flaq", "latitude": "41.5898", "longitude": "48.7356"}, {"country_code": "AZ", "postal_code": "AZ 2721", "place_name": "Qusar\u00e7ay", "latitude": "41.5716", "longitude": "48.7297"}, {"country_code": "AZ", "postal_code": "AZ 2722", "place_name": "L\u0259c\u0259t", "latitude": "41.6962", "longitude": "48.6256"}, {"country_code": "AZ", "postal_code": "AZ 2723", "place_name": "Muxtadir", "latitude": "41.5898", "longitude": "48.7356"}, {"country_code": "AZ", "postal_code": "AZ 2724", "place_name": "Nabran", "latitude": "41.7609", "longitude": "48.6926"}, {"country_code": "AZ", "postal_code": "AZ 2725", "place_name": "N\u0259r\u0259can", "latitude": "41.5355", "longitude": "48.746"}, {"country_code": "AZ", "postal_code": "AZ 2726", "place_name": "Niyazoba", "latitude": "41.5174", "longitude": "48.915"}, {"country_code": "AZ", "postal_code": "AZ 2727", "place_name": "M\u00fc\u015fk\u00fcr", "latitude": "41.4922", "longitude": "48.7807"}, {"country_code": "AZ", "postal_code": "AZ 2728", "place_name": "Pirquluoba", "latitude": "41.5551", "longitude": "48.6597"}, {"country_code": "AZ", "postal_code": "AZ 2729", "place_name": "Uzun Oba", "latitude": "41.5898", "longitude": "48.7356"}, {"country_code": "AZ", "postal_code": "AZ 2730", "place_name": "Yalama", "latitude": "41.7594", "longitude": "48.5798"}, {"country_code": "AZ", "postal_code": "AZ 2731", "place_name": "Yeni H\u0259yat", "latitude": "41.5439", "longitude": "48.6116"}, {"country_code": "AZ", "postal_code": "AZ 2732", "place_name": "Yerg\u00fcc", "latitude": "41.4229", "longitude": "48.7434"}, {"country_code": "AZ", "postal_code": "AZ 2734", "place_name": "Xanoba   Gomruk", "latitude": "41.5754", "longitude": "48.6449"}, {"country_code": "AZ", "postal_code": "AZ 2600", "place_name": "Xank\u0259ndi", "latitude": "39.8177", "longitude": "46.7528"}, {"country_code": "AZ", "postal_code": "AZ 8000", "place_name": "Xizi", "latitude": "40.9085", "longitude": "49.0748"}, {"country_code": "AZ", "postal_code": "AZ 8011", "place_name": "Gil\u0259zi", "latitude": "40.8739", "longitude": "49.3438"}, {"country_code": "AZ", "postal_code": "AZ 2900", "place_name": "Xocali", "latitude": "39.913", "longitude": "46.7903"}, {"country_code": "AZ", "postal_code": "AZ 2800", "place_name": "Xocav\u0259nd", "latitude": "39.795", "longitude": "47.1117"}, {"country_code": "AZ", "postal_code": "AZ 6500", "place_name": "Yardimli", "latitude": "38.9077", "longitude": "48.2405"}, {"country_code": "AZ", "postal_code": "AZ 6510", "place_name": "Ava\u015f", "latitude": "38.9037", "longitude": "48.0944"}, {"country_code": "AZ", "postal_code": "AZ 6512", "place_name": "Arus ", "latitude": "38.9504", "longitude": "48.3245"}, {"country_code": "AZ", "postal_code": "AZ 6515", "place_name": "\u00c7ay\u00fcz\u00fc", "latitude": "38.9238", "longitude": "48.2325"}, {"country_code": "AZ", "postal_code": "AZ 6518", "place_name": "K\u00f6ry\u0259di", "latitude": "38.9174", "longitude": "48.2787"}, {"country_code": "AZ", "postal_code": "AZ 6523", "place_name": "\u015e\u0259f\u0259qli", "latitude": "38.9003", "longitude": "48.1591"}, {"country_code": "AZ", "postal_code": "AZ 6526", "place_name": "V\u0259rg\u0259d\u00fcz", "latitude": "38.8989", "longitude": "48.3175"}, {"country_code": "AZ", "postal_code": "AZ 6600", "place_name": "Yevlax", "latitude": "40.6183", "longitude": "47.1501"}, {"country_code": "AZ", "postal_code": "AZ 6601", "place_name": "1 Sayli", "latitude": "40.6183", "longitude": "47.1501"}, {"country_code": "AZ", "postal_code": "AZ 6602", "place_name": "2 Sayli", "latitude": "40.6183", "longitude": "47.1501"}, {"country_code": "AZ", "postal_code": "AZ 6603", "place_name": "3 Sayli", "latitude": "40.6183", "longitude": "47.1501"}, {"country_code": "AZ", "postal_code": "AZ 6604", "place_name": "4 Sayli ", "latitude": "40.6183", "longitude": "47.1501"}, {"country_code": "AZ", "postal_code": "AZ 6605", "place_name": "5 Sayli", "latitude": "40.6183", "longitude": "47.1501"}, {"country_code": "AZ", "postal_code": "AZ 6611", "place_name": "Aran 1", "latitude": "40.7182", "longitude": "47.1452"}, {"country_code": "AZ", "postal_code": "AZ 6612", "place_name": "Aran 2", "latitude": "40.7182", "longitude": "47.1452"}, {"country_code": "AZ", "postal_code": "AZ 6613", "place_name": "A\u015fa\u011fi Bucaq", "latitude": "40.7215", "longitude": "47.2095"}, {"country_code": "AZ", "postal_code": "AZ 6614", "place_name": "N\u0259rimanabad ", "latitude": "40.7182", "longitude": "47.1452"}, {"country_code": "AZ", "postal_code": "AZ 6616", "place_name": "H\u00fcr\u00fcu\u015fa\u011fi", "latitude": "40.7204", "longitude": "47.0206"}, {"country_code": "AZ", "postal_code": "AZ 6617", "place_name": "Haciselli", "latitude": "40.7178", "longitude": "47.1217"}, {"country_code": "AZ", "postal_code": "AZ 6619", "place_name": "Xaldan", "latitude": "40.7131", "longitude": "47.2291"}, {"country_code": "AZ", "postal_code": "AZ 6620", "place_name": "Xanabad", "latitude": "39.97", "longitude": "46.8186"}, {"country_code": "AZ", "postal_code": "AZ 6621", "place_name": "K\u00f6v\u0259r", "latitude": "40.5046", "longitude": "47.1132"}, {"country_code": "AZ", "postal_code": "AZ 6622", "place_name": "Qaramanli", "latitude": "40.4814", "longitude": "46.9934"}, {"country_code": "AZ", "postal_code": "AZ 6623", "place_name": "Qaram\u0259mm\u0259dli", "latitude": "40.4771", "longitude": "47.0541"}, {"country_code": "AZ", "postal_code": "AZ 6624", "place_name": "Qoyunbin\u0259si", "latitude": "40.513", "longitude": "47.0586"}, {"country_code": "AZ", "postal_code": "AZ 6625", "place_name": "Malbin\u0259si", "latitude": "40.5048", "longitude": "47.0824"}, {"country_code": "AZ", "postal_code": "AZ 6626", "place_name": "Meyv\u0259li", "latitude": "40.7562", "longitude": "47.2726"}, {"country_code": "AZ", "postal_code": "AZ 6627", "place_name": "Nem\u0259tabad", "latitude": "40.61", "longitude": "47.0403"}, {"country_code": "AZ", "postal_code": "AZ 6629", "place_name": "Nurallar", "latitude": "40.4771", "longitude": "47.0541"}, {"country_code": "AZ", "postal_code": "AZ 6631", "place_name": "Salahli", "latitude": "40.689", "longitude": "47.0229"}, {"country_code": "AZ", "postal_code": "AZ 6632", "place_name": "S\u0259m\u0259dabad", "latitude": "40.6826", "longitude": "47.133"}, {"country_code": "AZ", "postal_code": "AZ 6633", "place_name": "Tanriqullar", "latitude": "40.6826", "longitude": "47.133"}, {"country_code": "AZ", "postal_code": "AZ 6634", "place_name": "G\u00fcl\u00f6v\u015f\u0259", "latitude": "40.7436", "longitude": "47.1838"}, {"country_code": "AZ", "postal_code": "AZ 6636", "place_name": "Yuxari Qarxun", "latitude": "40.6152", "longitude": "47.1924"}, {"country_code": "AZ", "postal_code": "AZ 6400", "place_name": "Z\u0259ngilan", "latitude": "39.0837", "longitude": "46.6599"}, {"country_code": "AZ", "postal_code": "AZ 6200", "place_name": "Zaqatala", "latitude": "41.6316", "longitude": "46.6448"}, {"country_code": "AZ", "postal_code": "AZ 6201", "place_name": "1sayli", "latitude": "41.6316", "longitude": "46.6448"}, {"country_code": "AZ", "postal_code": "AZ 6202", "place_name": "2 Sayli", "latitude": "41.6316", "longitude": "46.6448"}, {"country_code": "AZ", "postal_code": "AZ 6203", "place_name": "3 Sayli", "latitude": "41.6316", "longitude": "46.6448"}, {"country_code": "AZ", "postal_code": "AZ 6204", "place_name": "4 Sayli", "latitude": "41.6316", "longitude": "46.6448"}, {"country_code": "AZ", "postal_code": "AZ 6205", "place_name": "5 Sayli", "latitude": "41.6316", "longitude": "46.6448"}, {"country_code": "AZ", "postal_code": "AZ 6206", "place_name": "6 Sayli", "latitude": "41.6316", "longitude": "46.6448"}, {"country_code": "AZ", "postal_code": "AZ 6212", "place_name": "A\u015fa\u011fi Tala", "latitude": "41.6026", "longitude": "46.6521"}, {"country_code": "AZ", "postal_code": "AZ 6213", "place_name": "B\u0259hm\u0259dli", "latitude": "41.5671", "longitude": "46.6177"}, {"country_code": "AZ", "postal_code": "AZ 6214", "place_name": "Car", "latitude": "41.6629", "longitude": "46.6776"}, {"country_code": "AZ", "postal_code": "AZ 6215", "place_name": "\u00c7obankol", "latitude": "41.5364", "longitude": "46.7022"}, {"country_code": "AZ", "postal_code": "AZ 6216", "place_name": "Dana\u00e7i", "latitude": "41.5506", "longitude": "46.4217"}, {"country_code": "AZ", "postal_code": "AZ 6217", "place_name": "\u00dc\u00e7\u00fcns\u00fc Tala", "latitude": "41.5671", "longitude": "46.6177"}, {"country_code": "AZ", "postal_code": "AZ 6218", "place_name": "\u018fliabad", "latitude": "41.4829", "longitude": "46.6348"}, {"country_code": "AZ", "postal_code": "AZ 6219", "place_name": "\u018fliabad-1", "latitude": "41.5671", "longitude": "46.6177"}, {"country_code": "AZ", "postal_code": "AZ 6220", "place_name": "Da\u011fli", "latitude": "41.5478", "longitude": "46.6132"}, {"country_code": "AZ", "postal_code": "AZ 6222", "place_name": "G\u00f6y\u0259m", "latitude": "41.62", "longitude": "46.6053"}, {"country_code": "AZ", "postal_code": "AZ 6223", "place_name": "G\u00f6zbarax", "latitude": "41.5218", "longitude": "46.7416"}, {"country_code": "AZ", "postal_code": "AZ 6225", "place_name": "Qandax", "latitude": "41.4755", "longitude": "46.5413"}, {"country_code": "AZ", "postal_code": "AZ 6227", "place_name": "Qimir", "latitude": "41.5293", "longitude": "46.6778"}, {"country_code": "AZ", "postal_code": "AZ 6229", "place_name": "Makov", "latitude": "41.5927", "longitude": "46.4997"}, {"country_code": "AZ", "postal_code": "AZ 6230", "place_name": "Mazix", "latitude": "41.6583", "longitude": "46.5816"}, {"country_code": "AZ", "postal_code": "AZ 6231", "place_name": "Mosul", "latitude": "41.4448", "longitude": "46.5722"}, {"country_code": "AZ", "postal_code": "AZ 6232", "place_name": "Mu\u011fanli", "latitude": "41.4752", "longitude": "46.4887"}, {"country_code": "AZ", "postal_code": "AZ 6233", "place_name": "Muxax", "latitude": "41.5707", "longitude": "46.7067"}, {"country_code": "AZ", "postal_code": "AZ 6236", "place_name": "Yeni Suva\u011fil", "latitude": "41.4817", "longitude": "46.7059"}, {"country_code": "AZ", "postal_code": "AZ 6237", "place_name": "Yengiyan", "latitude": "41.4646", "longitude": "46.5734"}, {"country_code": "AZ", "postal_code": "AZ 6238", "place_name": "Yuxari \u00c7ardaxlar", "latitude": "41.5889", "longitude": "46.7552"}, {"country_code": "AZ", "postal_code": "AZ 6239", "place_name": "Yuxari Tala", "latitude": "41.622", "longitude": "46.6635"}, {"country_code": "AZ", "postal_code": "AZ 6240", "place_name": "Lahic", "latitude": "41.4315", "longitude": "46.6514"}, {"country_code": "AZ", "postal_code": "AZ 6300", "place_name": "Z\u0259rdab", "latitude": "40.2182", "longitude": "47.7103"}, {"country_code": "AZ", "postal_code": "AZ 6301", "place_name": "1 Sayli", "latitude": "40.2182", "longitude": "47.7103"}, {"country_code": "AZ", "postal_code": "AZ 6312", "place_name": "Bi\u00e7aq\u00e7i", "latitude": "40.3026", "longitude": "47.4724"}, {"country_code": "AZ", "postal_code": "AZ 6313", "place_name": "\u00c7alli", "latitude": "40.3168", "longitude": "47.6876"}, {"country_code": "AZ", "postal_code": "AZ 6315", "place_name": "G\u0259lm\u0259", "latitude": "40.218", "longitude": "47.6885"}, {"country_code": "AZ", "postal_code": "AZ 6316", "place_name": "Qoruqba\u011fi", "latitude": "40.1904", "longitude": "47.548"}, {"country_code": "AZ", "postal_code": "AZ 6317", "place_name": "Qarav\u0259lli", "latitude": "40.1696", "longitude": "47.7802"}, {"country_code": "AZ", "postal_code": "AZ 6319", "place_name": "M\u0259likli", "latitude": "40.2088", "longitude": "47.5301"}, {"country_code": "AZ", "postal_code": "AZ 6321", "place_name": "M\u0259mm\u0259dqasimli", "latitude": "40.2022", "longitude": "47.5915"}, {"country_code": "AZ", "postal_code": "AZ 6322", "place_name": "\u018flv\u0259nd", "latitude": "40.1078", "longitude": "47.8747"}, {"country_code": "AZ", "postal_code": "AZ 6323", "place_name": "P\u0259rvanli", "latitude": "40.1889", "longitude": "47.5765"}, {"country_code": "AZ", "postal_code": "AZ 6324", "place_name": "S\u0259fd\u0259xal", "latitude": "40.1772", "longitude": "47.6744"}, {"country_code": "AZ", "postal_code": "AZ 6325", "place_name": "Yarm\u0259mm\u0259dba\u011fi ", "latitude": "40.1826", "longitude": "47.6079"}, {"country_code": "AZ", "postal_code": "AZ 6328", "place_name": "T\u0259z\u0259k\u0259nd", "latitude": "40.2045", "longitude": "47.7214"}]