[{"country_code": "DK", "postal_code": "1050", "place_name": "K\u00f8benhavn K", "latitude": "55.6806", "longitude": "12.5857"}, {"country_code": "DK", "postal_code": "1051", "place_name": "K\u00f8benhavn K", "latitude": "55.68", "longitude": "12.5906"}, {"country_code": "DK", "postal_code": "1052", "place_name": "K\u00f8benhavn K", "latitude": "55.6789", "longitude": "12.5901"}, {"country_code": "DK", "postal_code": "1053", "place_name": "K\u00f8benhavn K", "latitude": "55.678", "longitude": "12.5907"}, {"country_code": "DK", "postal_code": "1054", "place_name": "K\u00f8benhavn K", "latitude": "55.678", "longitude": "12.5888"}, {"country_code": "DK", "postal_code": "1055", "place_name": "K\u00f8benhavn K", "latitude": "55.6781", "longitude": "12.5877"}, {"country_code": "DK", "postal_code": "1056", "place_name": "K\u00f8benhavn K", "latitude": "55.6794", "longitude": "12.5883"}, {"country_code": "DK", "postal_code": "1057", "place_name": "K\u00f8benhavn K", "latitude": "55.6784", "longitude": "12.5893"}, {"country_code": "DK", "postal_code": "1058", "place_name": "K\u00f8benhavn K", "latitude": "55.6773", "longitude": "12.59"}, {"country_code": "DK", "postal_code": "1059", "place_name": "K\u00f8benhavn K", "latitude": "55.6767", "longitude": "12.5869"}, {"country_code": "DK", "postal_code": "1060", "place_name": "K\u00f8benhavn K", "latitude": "55.6778", "longitude": "12.5851"}, {"country_code": "DK", "postal_code": "1061", "place_name": "K\u00f8benhavn K", "latitude": "55.6775", "longitude": "12.5813"}, {"country_code": "DK", "postal_code": "1062", "place_name": "K\u00f8benhavn K", "latitude": "55.6775", "longitude": "12.582"}, {"country_code": "DK", "postal_code": "1063", "place_name": "K\u00f8benhavn K", "latitude": "55.678", "longitude": "12.5838"}, {"country_code": "DK", "postal_code": "1064", "place_name": "K\u00f8benhavn K", "latitude": "55.6784", "longitude": "12.5841"}, {"country_code": "DK", "postal_code": "1065", "place_name": "K\u00f8benhavn K", "latitude": "55.678", "longitude": "12.5812"}, {"country_code": "DK", "postal_code": "1066", "place_name": "K\u00f8benhavn K", "latitude": "55.6777", "longitude": "12.5822"}, {"country_code": "DK", "postal_code": "1067", "place_name": "K\u00f8benhavn K", "latitude": "55.6787", "longitude": "12.5817"}, {"country_code": "DK", "postal_code": "1068", "place_name": "K\u00f8benhavn K", "latitude": "55.6779", "longitude": "12.5828"}, {"country_code": "DK", "postal_code": "1069", "place_name": "K\u00f8benhavn K", "latitude": "55.6785", "longitude": "12.5832"}, {"country_code": "DK", "postal_code": "1070", "place_name": "K\u00f8benhavn K", "latitude": "55.6786", "longitude": "12.5835"}, {"country_code": "DK", "postal_code": "1071", "place_name": "K\u00f8benhavn K", "latitude": "55.6781", "longitude": "12.5832"}, {"country_code": "DK", "postal_code": "1072", "place_name": "K\u00f8benhavn K", "latitude": "55.6785", "longitude": "12.5807"}, {"country_code": "DK", "postal_code": "1073", "place_name": "K\u00f8benhavn K", "latitude": "55.6788", "longitude": "12.5804"}, {"country_code": "DK", "postal_code": "1074", "place_name": "K\u00f8benhavn K", "latitude": "55.6796", "longitude": "12.5836"}, {"country_code": "DK", "postal_code": "1100", "place_name": "K\u00f8benhavn K", "latitude": "55.6798", "longitude": "12.5827"}, {"country_code": "DK", "postal_code": "1101", "place_name": "K\u00f8benhavn K", "latitude": "55.6812", "longitude": "12.5826"}, {"country_code": "DK", "postal_code": "1102", "place_name": "K\u00f8benhavn K", "latitude": "55.6808", "longitude": "12.5827"}, {"country_code": "DK", "postal_code": "1103", "place_name": "K\u00f8benhavn K", "latitude": "55.6808", "longitude": "12.584"}, {"country_code": "DK", "postal_code": "1104", "place_name": "K\u00f8benhavn K", "latitude": "55.6813", "longitude": "12.584"}, {"country_code": "DK", "postal_code": "1105", "place_name": "K\u00f8benhavn K", "latitude": "55.6802", "longitude": "12.5821"}, {"country_code": "DK", "postal_code": "1106", "place_name": "K\u00f8benhavn K", "latitude": "55.6804", "longitude": "12.5812"}, {"country_code": "DK", "postal_code": "1107", "place_name": "K\u00f8benhavn K", "latitude": "55.6813", "longitude": "12.583"}, {"country_code": "DK", "postal_code": "1110", "place_name": "K\u00f8benhavn K", "latitude": "55.6817", "longitude": "12.5823"}, {"country_code": "DK", "postal_code": "1111", "place_name": "K\u00f8benhavn K", "latitude": "55.682", "longitude": "12.581"}, {"country_code": "DK", "postal_code": "1112", "place_name": "K\u00f8benhavn K", "latitude": "55.6807", "longitude": "12.5801"}, {"country_code": "DK", "postal_code": "1113", "place_name": "K\u00f8benhavn K", "latitude": "55.6801", "longitude": "12.58"}, {"country_code": "DK", "postal_code": "1114", "place_name": "K\u00f8benhavn K", "latitude": "55.6807", "longitude": "12.5792"}, {"country_code": "DK", "postal_code": "1115", "place_name": "K\u00f8benhavn K", "latitude": "55.681", "longitude": "12.5784"}, {"country_code": "DK", "postal_code": "1116", "place_name": "K\u00f8benhavn K", "latitude": "55.6818", "longitude": "12.5796"}, {"country_code": "DK", "postal_code": "1117", "place_name": "K\u00f8benhavn K", "latitude": "55.6814", "longitude": "12.5808"}, {"country_code": "DK", "postal_code": "1118", "place_name": "K\u00f8benhavn K", "latitude": "55.6811", "longitude": "12.5807"}, {"country_code": "DK", "postal_code": "1119", "place_name": "K\u00f8benhavn K", "latitude": "55.6825", "longitude": "12.5769"}, {"country_code": "DK", "postal_code": "1120", "place_name": "K\u00f8benhavn K", "latitude": "55.6824", "longitude": "12.5786"}, {"country_code": "DK", "postal_code": "1121", "place_name": "K\u00f8benhavn K", "latitude": "55.6828", "longitude": "12.5788"}, {"country_code": "DK", "postal_code": "1122", "place_name": "K\u00f8benhavn K", "latitude": "55.6826", "longitude": "12.5797"}, {"country_code": "DK", "postal_code": "1123", "place_name": "K\u00f8benhavn K", "latitude": "55.6835", "longitude": "12.5776"}, {"country_code": "DK", "postal_code": "1124", "place_name": "K\u00f8benhavn K", "latitude": "55.6832", "longitude": "12.5762"}, {"country_code": "DK", "postal_code": "1125", "place_name": "K\u00f8benhavn K", "latitude": "55.6823", "longitude": "12.5763"}, {"country_code": "DK", "postal_code": "1126", "place_name": "K\u00f8benhavn K", "latitude": "55.6822", "longitude": "12.5752"}, {"country_code": "DK", "postal_code": "1127", "place_name": "K\u00f8benhavn K", "latitude": "55.6829", "longitude": "12.5756"}, {"country_code": "DK", "postal_code": "1128", "place_name": "K\u00f8benhavn K", "latitude": "55.6828", "longitude": "12.5746"}, {"country_code": "DK", "postal_code": "1129", "place_name": "K\u00f8benhavn K", "latitude": "55.6831", "longitude": "12.5744"}, {"country_code": "DK", "postal_code": "1130", "place_name": "K\u00f8benhavn K", "latitude": "55.6835", "longitude": "12.574"}, {"country_code": "DK", "postal_code": "1131", "place_name": "K\u00f8benhavn K", "latitude": "55.6839", "longitude": "12.5739"}, {"country_code": "DK", "postal_code": "1150", "place_name": "K\u00f8benhavn K", "latitude": "55.6806", "longitude": "12.5775"}, {"country_code": "DK", "postal_code": "1151", "place_name": "K\u00f8benhavn K", "latitude": "55.6798", "longitude": "12.5773"}, {"country_code": "DK", "postal_code": "1152", "place_name": "K\u00f8benhavn K", "latitude": "55.6804", "longitude": "12.5769"}, {"country_code": "DK", "postal_code": "1153", "place_name": "K\u00f8benhavn K", "latitude": "55.6797", "longitude": "12.577"}, {"country_code": "DK", "postal_code": "1154", "place_name": "K\u00f8benhavn K", "latitude": "55.6797", "longitude": "12.5759"}, {"country_code": "DK", "postal_code": "1155", "place_name": "K\u00f8benhavn K", "latitude": "55.68", "longitude": "12.5754"}, {"country_code": "DK", "postal_code": "1156", "place_name": "K\u00f8benhavn K", "latitude": "55.6795", "longitude": "12.5752"}, {"country_code": "DK", "postal_code": "1157", "place_name": "K\u00f8benhavn K", "latitude": "55.6792", "longitude": "12.5753"}, {"country_code": "DK", "postal_code": "1158", "place_name": "K\u00f8benhavn K", "latitude": "55.6786", "longitude": "12.5736"}, {"country_code": "DK", "postal_code": "1159", "place_name": "K\u00f8benhavn K", "latitude": "55.6798", "longitude": "12.5747"}, {"country_code": "DK", "postal_code": "1160", "place_name": "K\u00f8benhavn K", "latitude": "55.6788", "longitude": "12.578"}, {"country_code": "DK", "postal_code": "1161", "place_name": "K\u00f8benhavn K", "latitude": "55.6786", "longitude": "12.575"}, {"country_code": "DK", "postal_code": "1162", "place_name": "K\u00f8benhavn K", "latitude": "55.6789", "longitude": "12.5742"}, {"country_code": "DK", "postal_code": "1164", "place_name": "K\u00f8benhavn K", "latitude": "55.6783", "longitude": "12.5735"}, {"country_code": "DK", "postal_code": "1165", "place_name": "K\u00f8benhavn K", "latitude": "55.6809", "longitude": "12.5712"}, {"country_code": "DK", "postal_code": "1166", "place_name": "K\u00f8benhavn K", "latitude": "55.6791", "longitude": "12.5731"}, {"country_code": "DK", "postal_code": "1167", "place_name": "K\u00f8benhavn K", "latitude": "55.6791", "longitude": "12.5715"}, {"country_code": "DK", "postal_code": "1168", "place_name": "K\u00f8benhavn K", "latitude": "55.6799", "longitude": "12.5722"}, {"country_code": "DK", "postal_code": "1169", "place_name": "K\u00f8benhavn K", "latitude": "55.6806", "longitude": "12.5746"}, {"country_code": "DK", "postal_code": "1170", "place_name": "K\u00f8benhavn K", "latitude": "55.6802", "longitude": "12.5747"}, {"country_code": "DK", "postal_code": "1171", "place_name": "K\u00f8benhavn K", "latitude": "55.6814", "longitude": "12.5726"}, {"country_code": "DK", "postal_code": "1172", "place_name": "K\u00f8benhavn K", "latitude": "55.6808", "longitude": "12.5734"}, {"country_code": "DK", "postal_code": "1173", "place_name": "K\u00f8benhavn K", "latitude": "55.6817", "longitude": "12.574"}, {"country_code": "DK", "postal_code": "1174", "place_name": "K\u00f8benhavn K", "latitude": "55.6823", "longitude": "12.5728"}, {"country_code": "DK", "postal_code": "1175", "place_name": "K\u00f8benhavn K", "latitude": "55.6824", "longitude": "12.5738"}, {"country_code": "DK", "postal_code": "1200", "place_name": "K\u00f8benhavn K", "latitude": "55.6784", "longitude": "12.58"}, {"country_code": "DK", "postal_code": "1201", "place_name": "K\u00f8benhavn K", "latitude": "55.6781", "longitude": "12.5781"}, {"country_code": "DK", "postal_code": "1202", "place_name": "K\u00f8benhavn K", "latitude": "55.6777", "longitude": "12.5784"}, {"country_code": "DK", "postal_code": "1203", "place_name": "K\u00f8benhavn K", "latitude": "55.6764", "longitude": "12.5761"}, {"country_code": "DK", "postal_code": "1204", "place_name": "K\u00f8benhavn K", "latitude": "55.6765", "longitude": "12.5755"}, {"country_code": "DK", "postal_code": "1205", "place_name": "K\u00f8benhavn K", "latitude": "55.6771", "longitude": "12.5765"}, {"country_code": "DK", "postal_code": "1206", "place_name": "K\u00f8benhavn K", "latitude": "55.6775", "longitude": "12.5771"}, {"country_code": "DK", "postal_code": "1207", "place_name": "K\u00f8benhavn K", "latitude": "55.6781", "longitude": "12.5766"}, {"country_code": "DK", "postal_code": "1208", "place_name": "K\u00f8benhavn K", "latitude": "55.6771", "longitude": "12.5753"}, {"country_code": "DK", "postal_code": "1209", "place_name": "K\u00f8benhavn K", "latitude": "55.678", "longitude": "12.5753"}, {"country_code": "DK", "postal_code": "1210", "place_name": "K\u00f8benhavn K", "latitude": "55.6775", "longitude": "12.575"}, {"country_code": "DK", "postal_code": "1211", "place_name": "K\u00f8benhavn K", "latitude": "55.6776", "longitude": "12.5747"}, {"country_code": "DK", "postal_code": "1212", "place_name": "K\u00f8benhavn K", "latitude": "55.6769", "longitude": "12.5789"}, {"country_code": "DK", "postal_code": "1213", "place_name": "K\u00f8benhavn K", "latitude": "55.6764", "longitude": "12.5783"}, {"country_code": "DK", "postal_code": "1214", "place_name": "K\u00f8benhavn K", "latitude": "55.6747", "longitude": "12.579"}, {"country_code": "DK", "postal_code": "1215", "place_name": "K\u00f8benhavn K", "latitude": "55.6756", "longitude": "12.5846"}, {"country_code": "DK", "postal_code": "1216", "place_name": "K\u00f8benhavn K", "latitude": "55.6752", "longitude": "12.584"}, {"country_code": "DK", "postal_code": "1218", "place_name": "K\u00f8benhavn K", "latitude": "55.6757", "longitude": "12.5795"}, {"country_code": "DK", "postal_code": "1219", "place_name": "K\u00f8benhavn K", "latitude": "55.6731", "longitude": "12.5818"}, {"country_code": "DK", "postal_code": "1220", "place_name": "K\u00f8benhavn K", "latitude": "55.6742", "longitude": "12.5772"}, {"country_code": "DK", "postal_code": "1221", "place_name": "K\u00f8benhavn K", "latitude": "55.6743", "longitude": "12.5845"}, {"country_code": "DK", "postal_code": "1250", "place_name": "K\u00f8benhavn K", "latitude": "55.6815", "longitude": "12.5915"}, {"country_code": "DK", "postal_code": "1251", "place_name": "K\u00f8benhavn K", "latitude": "55.6798", "longitude": "12.5935"}, {"country_code": "DK", "postal_code": "1252", "place_name": "K\u00f8benhavn K", "latitude": "55.6813", "longitude": "12.5953"}, {"country_code": "DK", "postal_code": "1253", "place_name": "K\u00f8benhavn K", "latitude": "55.6831", "longitude": "12.594"}, {"country_code": "DK", "postal_code": "1254", "place_name": "K\u00f8benhavn K", "latitude": "55.6809", "longitude": "12.5901"}, {"country_code": "DK", "postal_code": "1255", "place_name": "K\u00f8benhavn K", "latitude": "55.6811", "longitude": "12.5887"}, {"country_code": "DK", "postal_code": "1256", "place_name": "K\u00f8benhavn K", "latitude": "55.6848", "longitude": "12.5936"}, {"country_code": "DK", "postal_code": "1257", "place_name": "K\u00f8benhavn K", "latitude": "55.6842", "longitude": "12.5929"}, {"country_code": "DK", "postal_code": "1259", "place_name": "K\u00f8benhavn K", "latitude": "55.69", "longitude": "12.5995"}, {"country_code": "DK", "postal_code": "1260", "place_name": "K\u00f8benhavn K", "latitude": "55.6839", "longitude": "12.59"}, {"country_code": "DK", "postal_code": "1261", "place_name": "K\u00f8benhavn K", "latitude": "55.6819", "longitude": "12.5869"}, {"country_code": "DK", "postal_code": "1263", "place_name": "K\u00f8benhavn K", "latitude": "55.6875", "longitude": "12.5935"}, {"country_code": "DK", "postal_code": "1264", "place_name": "K\u00f8benhavn K", "latitude": "55.685", "longitude": "12.5879"}, {"country_code": "DK", "postal_code": "1265", "place_name": "K\u00f8benhavn K", "latitude": "55.6849", "longitude": "12.5902"}, {"country_code": "DK", "postal_code": "1266", "place_name": "K\u00f8benhavn K", "latitude": "55.6878", "longitude": "12.5911"}, {"country_code": "DK", "postal_code": "1267", "place_name": "K\u00f8benhavn K", "latitude": "55.6884", "longitude": "12.5907"}, {"country_code": "DK", "postal_code": "1268", "place_name": "K\u00f8benhavn K", "latitude": "55.6888", "longitude": "12.5903"}, {"country_code": "DK", "postal_code": "1270", "place_name": "K\u00f8benhavn K", "latitude": "55.689", "longitude": "12.591"}, {"country_code": "DK", "postal_code": "1271", "place_name": "K\u00f8benhavn K", "latitude": "55.6892", "longitude": "12.5898"}, {"country_code": "DK", "postal_code": "1300", "place_name": "K\u00f8benhavn K", "latitude": "55.685", "longitude": "12.5863"}, {"country_code": "DK", "postal_code": "1301", "place_name": "K\u00f8benhavn K", "latitude": "55.6832", "longitude": "12.5856"}, {"country_code": "DK", "postal_code": "1302", "place_name": "K\u00f8benhavn K", "latitude": "55.6839", "longitude": "12.5862"}, {"country_code": "DK", "postal_code": "1303", "place_name": "K\u00f8benhavn K", "latitude": "55.686", "longitude": "12.5882"}, {"country_code": "DK", "postal_code": "1304", "place_name": "K\u00f8benhavn K", "latitude": "55.6846", "longitude": "12.5843"}, {"country_code": "DK", "postal_code": "1306", "place_name": "K\u00f8benhavn K", "latitude": "55.6857", "longitude": "12.5834"}, {"country_code": "DK", "postal_code": "1307", "place_name": "K\u00f8benhavn K", "latitude": "55.6878", "longitude": "12.5789"}, {"country_code": "DK", "postal_code": "1308", "place_name": "K\u00f8benhavn K", "latitude": "55.6866", "longitude": "12.5847"}, {"country_code": "DK", "postal_code": "1309", "place_name": "K\u00f8benhavn K", "latitude": "55.6873", "longitude": "12.5836"}, {"country_code": "DK", "postal_code": "1310", "place_name": "K\u00f8benhavn K", "latitude": "55.6864", "longitude": "12.5884"}, {"country_code": "DK", "postal_code": "1311", "place_name": "K\u00f8benhavn K", "latitude": "55.6872", "longitude": "12.5868"}, {"country_code": "DK", "postal_code": "1312", "place_name": "K\u00f8benhavn K", "latitude": "55.6875", "longitude": "12.5858"}, {"country_code": "DK", "postal_code": "1313", "place_name": "K\u00f8benhavn K", "latitude": "55.6875", "longitude": "12.5871"}, {"country_code": "DK", "postal_code": "1314", "place_name": "K\u00f8benhavn K", "latitude": "55.6878", "longitude": "12.5869"}, {"country_code": "DK", "postal_code": "1315", "place_name": "K\u00f8benhavn K", "latitude": "55.6876", "longitude": "12.5879"}, {"country_code": "DK", "postal_code": "1316", "place_name": "K\u00f8benhavn K", "latitude": "55.6881", "longitude": "12.583"}, {"country_code": "DK", "postal_code": "1317", "place_name": "K\u00f8benhavn K", "latitude": "55.689", "longitude": "12.5829"}, {"country_code": "DK", "postal_code": "1318", "place_name": "K\u00f8benhavn K", "latitude": "55.6885", "longitude": "12.5848"}, {"country_code": "DK", "postal_code": "1319", "place_name": "K\u00f8benhavn K", "latitude": "55.6882", "longitude": "12.5872"}, {"country_code": "DK", "postal_code": "1320", "place_name": "K\u00f8benhavn K", "latitude": "55.6886", "longitude": "12.5873"}, {"country_code": "DK", "postal_code": "1321", "place_name": "K\u00f8benhavn K", "latitude": "55.6879", "longitude": "12.5894"}, {"country_code": "DK", "postal_code": "1322", "place_name": "K\u00f8benhavn K", "latitude": "55.6889", "longitude": "12.5873"}, {"country_code": "DK", "postal_code": "1323", "place_name": "K\u00f8benhavn K", "latitude": "55.6897", "longitude": "12.5857"}, {"country_code": "DK", "postal_code": "1324", "place_name": "K\u00f8benhavn K", "latitude": "55.6891", "longitude": "12.588"}, {"country_code": "DK", "postal_code": "1325", "place_name": "K\u00f8benhavn K", "latitude": "55.6895", "longitude": "12.5876"}, {"country_code": "DK", "postal_code": "1326", "place_name": "K\u00f8benhavn K", "latitude": "55.6897", "longitude": "12.5879"}, {"country_code": "DK", "postal_code": "1327", "place_name": "K\u00f8benhavn K", "latitude": "55.6902", "longitude": "12.5876"}, {"country_code": "DK", "postal_code": "1328", "place_name": "K\u00f8benhavn K", "latitude": "55.6902", "longitude": "12.5882"}, {"country_code": "DK", "postal_code": "1329", "place_name": "K\u00f8benhavn K", "latitude": "55.689", "longitude": "12.5851"}, {"country_code": "DK", "postal_code": "1350", "place_name": "K\u00f8benhavn K", "latitude": "55.6885", "longitude": "12.5813"}, {"country_code": "DK", "postal_code": "1352", "place_name": "K\u00f8benhavn K", "latitude": "55.6896", "longitude": "12.5726"}, {"country_code": "DK", "postal_code": "1353", "place_name": "K\u00f8benhavn K", "latitude": "55.6879", "longitude": "12.572"}, {"country_code": "DK", "postal_code": "1354", "place_name": "K\u00f8benhavn K", "latitude": "55.6893", "longitude": "12.5719"}, {"country_code": "DK", "postal_code": "1355", "place_name": "K\u00f8benhavn K", "latitude": "55.6891", "longitude": "12.5713"}, {"country_code": "DK", "postal_code": "1356", "place_name": "K\u00f8benhavn K", "latitude": "55.6869", "longitude": "12.5676"}, {"country_code": "DK", "postal_code": "1357", "place_name": "K\u00f8benhavn K", "latitude": "55.6884", "longitude": "12.569"}, {"country_code": "DK", "postal_code": "1358", "place_name": "K\u00f8benhavn K", "latitude": "55.6819", "longitude": "12.5701"}, {"country_code": "DK", "postal_code": "1359", "place_name": "K\u00f8benhavn K", "latitude": "55.6833", "longitude": "12.5655"}, {"country_code": "DK", "postal_code": "1360", "place_name": "K\u00f8benhavn K", "latitude": "55.6843", "longitude": "12.5698"}, {"country_code": "DK", "postal_code": "1361", "place_name": "K\u00f8benhavn K", "latitude": "55.684", "longitude": "12.5706"}, {"country_code": "DK", "postal_code": "1362", "place_name": "K\u00f8benhavn K", "latitude": "55.6843", "longitude": "12.5691"}, {"country_code": "DK", "postal_code": "1363", "place_name": "K\u00f8benhavn K", "latitude": "55.6844", "longitude": "12.5671"}, {"country_code": "DK", "postal_code": "1364", "place_name": "K\u00f8benhavn K", "latitude": "55.683", "longitude": "12.5662"}, {"country_code": "DK", "postal_code": "1365", "place_name": "K\u00f8benhavn K", "latitude": "55.6821", "longitude": "12.5644"}, {"country_code": "DK", "postal_code": "1366", "place_name": "K\u00f8benhavn K", "latitude": "55.6833", "longitude": "12.5649"}, {"country_code": "DK", "postal_code": "1367", "place_name": "K\u00f8benhavn K", "latitude": "55.6831", "longitude": "12.5635"}, {"country_code": "DK", "postal_code": "1368", "place_name": "K\u00f8benhavn K", "latitude": "55.6815", "longitude": "12.5632"}, {"country_code": "DK", "postal_code": "1369", "place_name": "K\u00f8benhavn K", "latitude": "55.6808", "longitude": "12.5622"}, {"country_code": "DK", "postal_code": "1370", "place_name": "K\u00f8benhavn K", "latitude": "55.6833", "longitude": "12.563"}, {"country_code": "DK", "postal_code": "1371", "place_name": "K\u00f8benhavn K", "latitude": "55.686", "longitude": "12.5651"}, {"country_code": "DK", "postal_code": "1400", "place_name": "K\u00f8benhavn K", "latitude": "55.6726", "longitude": "12.591"}, {"country_code": "DK", "postal_code": "1401", "place_name": "K\u00f8benhavn K", "latitude": "55.6752", "longitude": "12.5922"}, {"country_code": "DK", "postal_code": "1402", "place_name": "K\u00f8benhavn K", "latitude": "55.6724", "longitude": "12.5864"}, {"country_code": "DK", "postal_code": "1403", "place_name": "K\u00f8benhavn K", "latitude": "55.6755", "longitude": "12.594"}, {"country_code": "DK", "postal_code": "1406", "place_name": "K\u00f8benhavn K", "latitude": "55.6752", "longitude": "12.593"}, {"country_code": "DK", "postal_code": "1407", "place_name": "K\u00f8benhavn K", "latitude": "55.6741", "longitude": "12.5946"}, {"country_code": "DK", "postal_code": "1408", "place_name": "K\u00f8benhavn K", "latitude": "55.6733", "longitude": "12.5903"}, {"country_code": "DK", "postal_code": "1409", "place_name": "K\u00f8benhavn K", "latitude": "55.6737", "longitude": "12.5877"}, {"country_code": "DK", "postal_code": "1410", "place_name": "K\u00f8benhavn K", "latitude": "55.672", "longitude": "12.5911"}, {"country_code": "DK", "postal_code": "1411", "place_name": "K\u00f8benhavn K", "latitude": "55.6704", "longitude": "12.5849"}, {"country_code": "DK", "postal_code": "1412", "place_name": "K\u00f8benhavn K", "latitude": "55.6706", "longitude": "12.586"}, {"country_code": "DK", "postal_code": "1413", "place_name": "K\u00f8benhavn K", "latitude": "55.6706", "longitude": "12.5866"}, {"country_code": "DK", "postal_code": "1414", "place_name": "K\u00f8benhavn K", "latitude": "55.6729", "longitude": "12.5908"}, {"country_code": "DK", "postal_code": "1415", "place_name": "K\u00f8benhavn K", "latitude": "55.6733", "longitude": "12.5929"}, {"country_code": "DK", "postal_code": "1416", "place_name": "K\u00f8benhavn K", "latitude": "55.6731", "longitude": "12.5931"}, {"country_code": "DK", "postal_code": "1417", "place_name": "K\u00f8benhavn K", "latitude": "55.6728", "longitude": "12.5924"}, {"country_code": "DK", "postal_code": "1418", "place_name": "K\u00f8benhavn K", "latitude": "55.671", "longitude": "12.5908"}, {"country_code": "DK", "postal_code": "1419", "place_name": "K\u00f8benhavn K", "latitude": "55.6705", "longitude": "12.5888"}, {"country_code": "DK", "postal_code": "1420", "place_name": "K\u00f8benhavn K", "latitude": "55.6716", "longitude": "12.5912"}, {"country_code": "DK", "postal_code": "1421", "place_name": "K\u00f8benhavn K", "latitude": "55.6703", "longitude": "12.5882"}, {"country_code": "DK", "postal_code": "1422", "place_name": "K\u00f8benhavn K", "latitude": "55.6732", "longitude": "12.5956"}, {"country_code": "DK", "postal_code": "1423", "place_name": "K\u00f8benhavn K", "latitude": "55.6707", "longitude": "12.5926"}, {"country_code": "DK", "postal_code": "1424", "place_name": "K\u00f8benhavn K", "latitude": "55.6704", "longitude": "12.5917"}, {"country_code": "DK", "postal_code": "1425", "place_name": "K\u00f8benhavn K", "latitude": "55.6718", "longitude": "12.5942"}, {"country_code": "DK", "postal_code": "1426", "place_name": "K\u00f8benhavn K", "latitude": "55.6723", "longitude": "12.5969"}, {"country_code": "DK", "postal_code": "1427", "place_name": "K\u00f8benhavn K", "latitude": "55.6751", "longitude": "12.597"}, {"country_code": "DK", "postal_code": "1428", "place_name": "K\u00f8benhavn K", "latitude": "55.6758", "longitude": "12.5979"}, {"country_code": "DK", "postal_code": "1429", "place_name": "K\u00f8benhavn K", "latitude": "55.6755", "longitude": "12.5986"}, {"country_code": "DK", "postal_code": "1430", "place_name": "K\u00f8benhavn K", "latitude": "55.6764", "longitude": "12.5993"}, {"country_code": "DK", "postal_code": "1432", "place_name": "K\u00f8benhavn K", "latitude": "55.6878", "longitude": "12.6129"}, {"country_code": "DK", "postal_code": "1433", "place_name": "K\u00f8benhavn K", "latitude": "55.7119", "longitude": "12.6981"}, {"country_code": "DK", "postal_code": "1434", "place_name": "K\u00f8benhavn K", "latitude": "55.6797", "longitude": "12.6028"}, {"country_code": "DK", "postal_code": "1435", "place_name": "K\u00f8benhavn K", "latitude": "55.6806", "longitude": "12.6053"}, {"country_code": "DK", "postal_code": "1436", "place_name": "K\u00f8benhavn K", "latitude": "55.6775", "longitude": "12.6034"}, {"country_code": "DK", "postal_code": "1437", "place_name": "K\u00f8benhavn K", "latitude": "55.6801", "longitude": "12.6043"}, {"country_code": "DK", "postal_code": "1438", "place_name": "K\u00f8benhavn K", "latitude": "55.6823", "longitude": "12.6021"}, {"country_code": "DK", "postal_code": "1439", "place_name": "K\u00f8benhavn K", "latitude": "55.6865", "longitude": "12.6085"}, {"country_code": "DK", "postal_code": "1440", "place_name": "K\u00f8benhavn K", "latitude": "55.6748", "longitude": "12.6034"}, {"country_code": "DK", "postal_code": "1441", "place_name": "K\u00f8benhavn K", "latitude": "55.6769", "longitude": "12.6099"}, {"country_code": "DK", "postal_code": "1450", "place_name": "K\u00f8benhavn K", "latitude": "55.6775", "longitude": "12.5734"}, {"country_code": "DK", "postal_code": "1451", "place_name": "K\u00f8benhavn K", "latitude": "55.6801", "longitude": "12.5695"}, {"country_code": "DK", "postal_code": "1452", "place_name": "K\u00f8benhavn K", "latitude": "55.6795", "longitude": "12.5684"}, {"country_code": "DK", "postal_code": "1453", "place_name": "K\u00f8benhavn K", "latitude": "55.6791", "longitude": "12.5686"}, {"country_code": "DK", "postal_code": "1454", "place_name": "K\u00f8benhavn K", "latitude": "55.6784", "longitude": "12.5694"}, {"country_code": "DK", "postal_code": "1455", "place_name": "K\u00f8benhavn K", "latitude": "55.6785", "longitude": "12.5692"}, {"country_code": "DK", "postal_code": "1456", "place_name": "K\u00f8benhavn K", "latitude": "55.6777", "longitude": "12.57"}, {"country_code": "DK", "postal_code": "1457", "place_name": "K\u00f8benhavn K", "latitude": "55.6782", "longitude": "12.5719"}, {"country_code": "DK", "postal_code": "1458", "place_name": "K\u00f8benhavn K", "latitude": "55.677", "longitude": "12.5714"}, {"country_code": "DK", "postal_code": "1459", "place_name": "K\u00f8benhavn K", "latitude": "55.6772", "longitude": "12.5709"}, {"country_code": "DK", "postal_code": "1460", "place_name": "K\u00f8benhavn K", "latitude": "55.6766", "longitude": "12.571"}, {"country_code": "DK", "postal_code": "1461", "place_name": "K\u00f8benhavn K", "latitude": "55.6768", "longitude": "12.5728"}, {"country_code": "DK", "postal_code": "1462", "place_name": "K\u00f8benhavn K", "latitude": "55.6763", "longitude": "12.5717"}, {"country_code": "DK", "postal_code": "1463", "place_name": "K\u00f8benhavn K", "latitude": "55.6758", "longitude": "12.5723"}, {"country_code": "DK", "postal_code": "1464", "place_name": "K\u00f8benhavn K", "latitude": "55.6765", "longitude": "12.5728"}, {"country_code": "DK", "postal_code": "1465", "place_name": "K\u00f8benhavn K", "latitude": "55.6761", "longitude": "12.5735"}, {"country_code": "DK", "postal_code": "1466", "place_name": "K\u00f8benhavn K", "latitude": "55.6768", "longitude": "12.5741"}, {"country_code": "DK", "postal_code": "1467", "place_name": "K\u00f8benhavn K", "latitude": "55.6761", "longitude": "12.5741"}, {"country_code": "DK", "postal_code": "1468", "place_name": "K\u00f8benhavn K", "latitude": "55.6755", "longitude": "12.5735"}, {"country_code": "DK", "postal_code": "1470", "place_name": "K\u00f8benhavn K", "latitude": "55.6751", "longitude": "12.574"}, {"country_code": "DK", "postal_code": "1471", "place_name": "K\u00f8benhavn K", "latitude": "55.6743", "longitude": "12.5756"}, {"country_code": "DK", "postal_code": "1472", "place_name": "K\u00f8benhavn K", "latitude": "55.6737", "longitude": "12.5765"}, {"country_code": "DK", "postal_code": "1473", "place_name": "K\u00f8benhavn K", "latitude": "55.6722", "longitude": "12.579"}, {"country_code": "DK", "postal_code": "1550", "place_name": "K\u00f8benhavn V", "latitude": "55.6761", "longitude": "12.5695"}, {"country_code": "DK", "postal_code": "1551", "place_name": "K\u00f8benhavn V", "latitude": "55.6788", "longitude": "12.566"}, {"country_code": "DK", "postal_code": "1552", "place_name": "K\u00f8benhavn V", "latitude": "55.675", "longitude": "12.5724"}, {"country_code": "DK", "postal_code": "1553", "place_name": "K\u00f8benhavn V", "latitude": "55.6744", "longitude": "12.5711"}, {"country_code": "DK", "postal_code": "1554", "place_name": "K\u00f8benhavn V", "latitude": "55.6771", "longitude": "12.5654"}, {"country_code": "DK", "postal_code": "1555", "place_name": "K\u00f8benhavn V", "latitude": "55.6746", "longitude": "12.5739"}, {"country_code": "DK", "postal_code": "1556", "place_name": "K\u00f8benhavn V", "latitude": "55.6736", "longitude": "12.5735"}, {"country_code": "DK", "postal_code": "1557", "place_name": "K\u00f8benhavn V", "latitude": "55.6731", "longitude": "12.5748"}, {"country_code": "DK", "postal_code": "1558", "place_name": "K\u00f8benhavn V", "latitude": "55.672", "longitude": "12.577"}, {"country_code": "DK", "postal_code": "1559", "place_name": "K\u00f8benhavn V", "latitude": "55.6716", "longitude": "12.5776"}, {"country_code": "DK", "postal_code": "1560", "place_name": "K\u00f8benhavn V", "latitude": "55.6664", "longitude": "12.569"}, {"country_code": "DK", "postal_code": "1561", "place_name": "K\u00f8benhavn V", "latitude": "55.6607", "longitude": "12.5628"}, {"country_code": "DK", "postal_code": "1562", "place_name": "K\u00f8benhavn V", "latitude": "55.6705", "longitude": "12.5741"}, {"country_code": "DK", "postal_code": "1563", "place_name": "K\u00f8benhavn V", "latitude": "55.6709", "longitude": "12.5741"}, {"country_code": "DK", "postal_code": "1564", "place_name": "K\u00f8benhavn V", "latitude": "55.672", "longitude": "12.5755"}, {"country_code": "DK", "postal_code": "1567", "place_name": "K\u00f8benhavn V", "latitude": "55.6703", "longitude": "12.5709"}, {"country_code": "DK", "postal_code": "1568", "place_name": "K\u00f8benhavn V", "latitude": "55.67", "longitude": "12.5713"}, {"country_code": "DK", "postal_code": "1569", "place_name": "K\u00f8benhavn V", "latitude": "55.6713", "longitude": "12.5708"}, {"country_code": "DK", "postal_code": "1570", "place_name": "K\u00f8benhavn V", "latitude": "55.6735", "longitude": "12.5642"}, {"country_code": "DK", "postal_code": "1571", "place_name": "K\u00f8benhavn V", "latitude": "55.6711", "longitude": "12.5728"}, {"country_code": "DK", "postal_code": "1572", "place_name": "K\u00f8benhavn V", "latitude": "55.6716", "longitude": "12.5732"}, {"country_code": "DK", "postal_code": "1573", "place_name": "K\u00f8benhavn V", "latitude": "55.6716", "longitude": "12.5745"}, {"country_code": "DK", "postal_code": "1574", "place_name": "K\u00f8benhavn V", "latitude": "55.6718", "longitude": "12.5724"}, {"country_code": "DK", "postal_code": "1575", "place_name": "K\u00f8benhavn V", "latitude": "55.6718", "longitude": "12.5709"}, {"country_code": "DK", "postal_code": "1576", "place_name": "K\u00f8benhavn V", "latitude": "55.6712", "longitude": "12.57"}, {"country_code": "DK", "postal_code": "1577", "place_name": "K\u00f8benhavn V", "latitude": "55.669", "longitude": "12.5663"}, {"country_code": "DK", "postal_code": "1600", "place_name": "K\u00f8benhavn V", "latitude": "55.6801", "longitude": "12.5619"}, {"country_code": "DK", "postal_code": "1601", "place_name": "K\u00f8benhavn V", "latitude": "55.6782", "longitude": "12.56"}, {"country_code": "DK", "postal_code": "1602", "place_name": "K\u00f8benhavn V", "latitude": "55.6786", "longitude": "12.561"}, {"country_code": "DK", "postal_code": "1603", "place_name": "K\u00f8benhavn V", "latitude": "55.6792", "longitude": "12.5623"}, {"country_code": "DK", "postal_code": "1604", "place_name": "K\u00f8benhavn V", "latitude": "55.6777", "longitude": "12.5614"}, {"country_code": "DK", "postal_code": "1605", "place_name": "K\u00f8benhavn V", "latitude": "55.6761", "longitude": "12.5607"}, {"country_code": "DK", "postal_code": "1606", "place_name": "K\u00f8benhavn V", "latitude": "55.6772", "longitude": "12.5623"}, {"country_code": "DK", "postal_code": "1607", "place_name": "K\u00f8benhavn V", "latitude": "55.6782", "longitude": "12.5634"}, {"country_code": "DK", "postal_code": "1608", "place_name": "K\u00f8benhavn V", "latitude": "55.6761", "longitude": "12.5658"}, {"country_code": "DK", "postal_code": "1609", "place_name": "K\u00f8benhavn V", "latitude": "55.6758", "longitude": "12.5648"}, {"country_code": "DK", "postal_code": "1610", "place_name": "K\u00f8benhavn V", "latitude": "55.6739", "longitude": "12.5548"}, {"country_code": "DK", "postal_code": "1611", "place_name": "K\u00f8benhavn V", "latitude": "55.676", "longitude": "12.5638"}, {"country_code": "DK", "postal_code": "1612", "place_name": "K\u00f8benhavn V", "latitude": "55.6752", "longitude": "12.562"}, {"country_code": "DK", "postal_code": "1613", "place_name": "K\u00f8benhavn V", "latitude": "55.6745", "longitude": "12.5617"}, {"country_code": "DK", "postal_code": "1614", "place_name": "K\u00f8benhavn V", "latitude": "55.6739", "longitude": "12.5606"}, {"country_code": "DK", "postal_code": "1615", "place_name": "K\u00f8benhavn V", "latitude": "55.6737", "longitude": "12.5591"}, {"country_code": "DK", "postal_code": "1616", "place_name": "K\u00f8benhavn V", "latitude": "55.6732", "longitude": "12.557"}, {"country_code": "DK", "postal_code": "1617", "place_name": "K\u00f8benhavn V", "latitude": "55.673", "longitude": "12.5545"}, {"country_code": "DK", "postal_code": "1618", "place_name": "K\u00f8benhavn V", "latitude": "55.6736", "longitude": "12.551"}, {"country_code": "DK", "postal_code": "1619", "place_name": "K\u00f8benhavn V", "latitude": "55.6737", "longitude": "12.5501"}, {"country_code": "DK", "postal_code": "1620", "place_name": "K\u00f8benhavn V", "latitude": "55.6722", "longitude": "12.5507"}, {"country_code": "DK", "postal_code": "1621", "place_name": "K\u00f8benhavn V", "latitude": "55.6729", "longitude": "12.548"}, {"country_code": "DK", "postal_code": "1622", "place_name": "K\u00f8benhavn V", "latitude": "55.6724", "longitude": "12.5463"}, {"country_code": "DK", "postal_code": "1623", "place_name": "K\u00f8benhavn V", "latitude": "55.6719", "longitude": "12.5453"}, {"country_code": "DK", "postal_code": "1624", "place_name": "K\u00f8benhavn V", "latitude": "55.6721", "longitude": "12.546"}, {"country_code": "DK", "postal_code": "1631", "place_name": "K\u00f8benhavn V", "latitude": "55.6827", "longitude": "12.5555"}, {"country_code": "DK", "postal_code": "1632", "place_name": "K\u00f8benhavn V", "latitude": "55.6827", "longitude": "12.5549"}, {"country_code": "DK", "postal_code": "1633", "place_name": "K\u00f8benhavn V", "latitude": "55.6823", "longitude": "12.5564"}, {"country_code": "DK", "postal_code": "1634", "place_name": "K\u00f8benhavn V", "latitude": "55.6819", "longitude": "12.5558"}, {"country_code": "DK", "postal_code": "1635", "place_name": "K\u00f8benhavn V", "latitude": "55.6829", "longitude": "12.5561"}, {"country_code": "DK", "postal_code": "1650", "place_name": "K\u00f8benhavn V", "latitude": "55.6697", "longitude": "12.5549"}, {"country_code": "DK", "postal_code": "1651", "place_name": "K\u00f8benhavn V", "latitude": "55.6722", "longitude": "12.5637"}, {"country_code": "DK", "postal_code": "1652", "place_name": "K\u00f8benhavn V", "latitude": "55.6718", "longitude": "12.5626"}, {"country_code": "DK", "postal_code": "1653", "place_name": "K\u00f8benhavn V", "latitude": "55.672", "longitude": "12.5612"}, {"country_code": "DK", "postal_code": "1654", "place_name": "K\u00f8benhavn V", "latitude": "55.6715", "longitude": "12.5595"}, {"country_code": "DK", "postal_code": "1655", "place_name": "K\u00f8benhavn V", "latitude": "55.6714", "longitude": "12.5581"}, {"country_code": "DK", "postal_code": "1656", "place_name": "K\u00f8benhavn V", "latitude": "55.6711", "longitude": "12.5568"}, {"country_code": "DK", "postal_code": "1657", "place_name": "K\u00f8benhavn V", "latitude": "55.6704", "longitude": "12.5558"}, {"country_code": "DK", "postal_code": "1658", "place_name": "K\u00f8benhavn V", "latitude": "55.6704", "longitude": "12.5548"}, {"country_code": "DK", "postal_code": "1659", "place_name": "K\u00f8benhavn V", "latitude": "55.6718", "longitude": "12.5545"}, {"country_code": "DK", "postal_code": "1660", "place_name": "K\u00f8benhavn V", "latitude": "55.67", "longitude": "12.5528"}, {"country_code": "DK", "postal_code": "1661", "place_name": "K\u00f8benhavn V", "latitude": "55.6714", "longitude": "12.5518"}, {"country_code": "DK", "postal_code": "1662", "place_name": "K\u00f8benhavn V", "latitude": "55.6698", "longitude": "12.551"}, {"country_code": "DK", "postal_code": "1663", "place_name": "K\u00f8benhavn V", "latitude": "55.6692", "longitude": "12.5499"}, {"country_code": "DK", "postal_code": "1664", "place_name": "K\u00f8benhavn V", "latitude": "55.6719", "longitude": "12.5492"}, {"country_code": "DK", "postal_code": "1665", "place_name": "K\u00f8benhavn V", "latitude": "55.6687", "longitude": "12.549"}, {"country_code": "DK", "postal_code": "1666", "place_name": "K\u00f8benhavn V", "latitude": "55.6699", "longitude": "12.5485"}, {"country_code": "DK", "postal_code": "1667", "place_name": "K\u00f8benhavn V", "latitude": "55.6691", "longitude": "12.547"}, {"country_code": "DK", "postal_code": "1668", "place_name": "K\u00f8benhavn V", "latitude": "55.6684", "longitude": "12.548"}, {"country_code": "DK", "postal_code": "1669", "place_name": "K\u00f8benhavn V", "latitude": "55.6672", "longitude": "12.5474"}, {"country_code": "DK", "postal_code": "1670", "place_name": "K\u00f8benhavn V", "latitude": "55.667", "longitude": "12.546"}, {"country_code": "DK", "postal_code": "1671", "place_name": "K\u00f8benhavn V", "latitude": "55.6667", "longitude": "12.5461"}, {"country_code": "DK", "postal_code": "1672", "place_name": "K\u00f8benhavn V", "latitude": "55.6685", "longitude": "12.5464"}, {"country_code": "DK", "postal_code": "1673", "place_name": "K\u00f8benhavn V", "latitude": "55.668", "longitude": "12.5465"}, {"country_code": "DK", "postal_code": "1674", "place_name": "K\u00f8benhavn V", "latitude": "55.6685", "longitude": "12.5447"}, {"country_code": "DK", "postal_code": "1675", "place_name": "K\u00f8benhavn V", "latitude": "55.6665", "longitude": "12.5468"}, {"country_code": "DK", "postal_code": "1676", "place_name": "K\u00f8benhavn V", "latitude": "55.6662", "longitude": "12.5485"}, {"country_code": "DK", "postal_code": "1677", "place_name": "K\u00f8benhavn V", "latitude": "55.666", "longitude": "12.5469"}, {"country_code": "DK", "postal_code": "1699", "place_name": "K\u00f8benhavn V", "latitude": "55.6677", "longitude": "12.5619"}, {"country_code": "DK", "postal_code": "1700", "place_name": "K\u00f8benhavn V", "latitude": "55.6695", "longitude": "12.5597"}, {"country_code": "DK", "postal_code": "1701", "place_name": "K\u00f8benhavn V", "latitude": "55.6718", "longitude": "12.5633"}, {"country_code": "DK", "postal_code": "1702", "place_name": "K\u00f8benhavn V", "latitude": "55.6713", "longitude": "12.5637"}, {"country_code": "DK", "postal_code": "1703", "place_name": "K\u00f8benhavn V", "latitude": "55.6705", "longitude": "12.5629"}, {"country_code": "DK", "postal_code": "1704", "place_name": "K\u00f8benhavn V", "latitude": "55.6711", "longitude": "12.567"}, {"country_code": "DK", "postal_code": "1705", "place_name": "K\u00f8benhavn V", "latitude": "55.6647", "longitude": "12.5522"}, {"country_code": "DK", "postal_code": "1706", "place_name": "K\u00f8benhavn V", "latitude": "55.6707", "longitude": "12.56"}, {"country_code": "DK", "postal_code": "1707", "place_name": "K\u00f8benhavn V", "latitude": "55.6718", "longitude": "12.5607"}, {"country_code": "DK", "postal_code": "1708", "place_name": "K\u00f8benhavn V", "latitude": "55.6696", "longitude": "12.5575"}, {"country_code": "DK", "postal_code": "1709", "place_name": "K\u00f8benhavn V", "latitude": "55.6685", "longitude": "12.5543"}, {"country_code": "DK", "postal_code": "1710", "place_name": "K\u00f8benhavn V", "latitude": "55.6703", "longitude": "12.5625"}, {"country_code": "DK", "postal_code": "1711", "place_name": "K\u00f8benhavn V", "latitude": "55.6679", "longitude": "12.5596"}, {"country_code": "DK", "postal_code": "1712", "place_name": "K\u00f8benhavn V", "latitude": "55.6683", "longitude": "12.5577"}, {"country_code": "DK", "postal_code": "1714", "place_name": "K\u00f8benhavn V", "latitude": "55.6663", "longitude": "12.5586"}, {"country_code": "DK", "postal_code": "1715", "place_name": "K\u00f8benhavn V", "latitude": "55.6686", "longitude": "12.5609"}, {"country_code": "DK", "postal_code": "1716", "place_name": "K\u00f8benhavn V", "latitude": "55.6689", "longitude": "12.5588"}, {"country_code": "DK", "postal_code": "1717", "place_name": "K\u00f8benhavn V", "latitude": "55.6667", "longitude": "12.5574"}, {"country_code": "DK", "postal_code": "1718", "place_name": "K\u00f8benhavn V", "latitude": "55.6666", "longitude": "12.5561"}, {"country_code": "DK", "postal_code": "1719", "place_name": "K\u00f8benhavn V", "latitude": "55.6663", "longitude": "12.5554"}, {"country_code": "DK", "postal_code": "1720", "place_name": "K\u00f8benhavn V", "latitude": "55.6654", "longitude": "12.5481"}, {"country_code": "DK", "postal_code": "1721", "place_name": "K\u00f8benhavn V", "latitude": "55.6663", "longitude": "12.5524"}, {"country_code": "DK", "postal_code": "1722", "place_name": "K\u00f8benhavn V", "latitude": "55.666", "longitude": "12.5548"}, {"country_code": "DK", "postal_code": "1723", "place_name": "K\u00f8benhavn V", "latitude": "55.6674", "longitude": "12.5524"}, {"country_code": "DK", "postal_code": "1724", "place_name": "K\u00f8benhavn V", "latitude": "55.668", "longitude": "12.552"}, {"country_code": "DK", "postal_code": "1725", "place_name": "K\u00f8benhavn V", "latitude": "55.6655", "longitude": "12.5542"}, {"country_code": "DK", "postal_code": "1726", "place_name": "K\u00f8benhavn V", "latitude": "55.6654", "longitude": "12.5529"}, {"country_code": "DK", "postal_code": "1727", "place_name": "K\u00f8benhavn V", "latitude": "55.6651", "longitude": "12.5517"}, {"country_code": "DK", "postal_code": "1728", "place_name": "K\u00f8benhavn V", "latitude": "55.6648", "longitude": "12.5506"}, {"country_code": "DK", "postal_code": "1729", "place_name": "K\u00f8benhavn V", "latitude": "55.6646", "longitude": "12.5492"}, {"country_code": "DK", "postal_code": "1730", "place_name": "K\u00f8benhavn V", "latitude": "55.6644", "longitude": "12.5482"}, {"country_code": "DK", "postal_code": "1731", "place_name": "K\u00f8benhavn V", "latitude": "55.6641", "longitude": "12.5468"}, {"country_code": "DK", "postal_code": "1732", "place_name": "K\u00f8benhavn V", "latitude": "55.6639", "longitude": "12.5458"}, {"country_code": "DK", "postal_code": "1733", "place_name": "K\u00f8benhavn V", "latitude": "55.6637", "longitude": "12.5443"}, {"country_code": "DK", "postal_code": "1734", "place_name": "K\u00f8benhavn V", "latitude": "55.6652", "longitude": "12.5457"}, {"country_code": "DK", "postal_code": "1735", "place_name": "K\u00f8benhavn V", "latitude": "55.665", "longitude": "12.5452"}, {"country_code": "DK", "postal_code": "1736", "place_name": "K\u00f8benhavn V", "latitude": "55.6654", "longitude": "12.5441"}, {"country_code": "DK", "postal_code": "1737", "place_name": "K\u00f8benhavn V", "latitude": "55.6648", "longitude": "12.5444"}, {"country_code": "DK", "postal_code": "1738", "place_name": "K\u00f8benhavn V", "latitude": "55.6646", "longitude": "12.5437"}, {"country_code": "DK", "postal_code": "1739", "place_name": "K\u00f8benhavn V", "latitude": "55.6644", "longitude": "12.543"}, {"country_code": "DK", "postal_code": "1749", "place_name": "K\u00f8benhavn V", "latitude": "55.6696", "longitude": "12.5369"}, {"country_code": "DK", "postal_code": "1750", "place_name": "K\u00f8benhavn V", "latitude": "55.6678", "longitude": "12.5397"}, {"country_code": "DK", "postal_code": "1751", "place_name": "K\u00f8benhavn V", "latitude": "55.6703", "longitude": "12.5446"}, {"country_code": "DK", "postal_code": "1752", "place_name": "K\u00f8benhavn V", "latitude": "55.6701", "longitude": "12.5432"}, {"country_code": "DK", "postal_code": "1753", "place_name": "K\u00f8benhavn V", "latitude": "55.6696", "longitude": "12.5433"}, {"country_code": "DK", "postal_code": "1754", "place_name": "K\u00f8benhavn V", "latitude": "55.6692", "longitude": "12.5441"}, {"country_code": "DK", "postal_code": "1755", "place_name": "K\u00f8benhavn V", "latitude": "55.6696", "longitude": "12.5428"}, {"country_code": "DK", "postal_code": "1756", "place_name": "K\u00f8benhavn V", "latitude": "55.6695", "longitude": "12.5418"}, {"country_code": "DK", "postal_code": "1757", "place_name": "K\u00f8benhavn V", "latitude": "55.6691", "longitude": "12.5408"}, {"country_code": "DK", "postal_code": "1758", "place_name": "K\u00f8benhavn V", "latitude": "55.6682", "longitude": "12.542"}, {"country_code": "DK", "postal_code": "1759", "place_name": "K\u00f8benhavn V", "latitude": "55.6686", "longitude": "12.5435"}, {"country_code": "DK", "postal_code": "1760", "place_name": "K\u00f8benhavn V", "latitude": "55.6657", "longitude": "12.5448"}, {"country_code": "DK", "postal_code": "1761", "place_name": "K\u00f8benhavn V", "latitude": "55.6666", "longitude": "12.5401"}, {"country_code": "DK", "postal_code": "1762", "place_name": "K\u00f8benhavn V", "latitude": "55.6651", "longitude": "12.5408"}, {"country_code": "DK", "postal_code": "1763", "place_name": "K\u00f8benhavn V", "latitude": "55.6651", "longitude": "12.5417"}, {"country_code": "DK", "postal_code": "1764", "place_name": "K\u00f8benhavn V", "latitude": "55.665", "longitude": "12.5408"}, {"country_code": "DK", "postal_code": "1765", "place_name": "K\u00f8benhavn V", "latitude": "55.6643", "longitude": "12.5391"}, {"country_code": "DK", "postal_code": "1766", "place_name": "K\u00f8benhavn V", "latitude": "55.6641", "longitude": "12.5407"}, {"country_code": "DK", "postal_code": "1770", "place_name": "K\u00f8benhavn V", "latitude": "55.6686", "longitude": "12.538"}, {"country_code": "DK", "postal_code": "1771", "place_name": "K\u00f8benhavn V", "latitude": "55.6685", "longitude": "12.5392"}, {"country_code": "DK", "postal_code": "1772", "place_name": "K\u00f8benhavn V", "latitude": "55.6684", "longitude": "12.5386"}, {"country_code": "DK", "postal_code": "1773", "place_name": "K\u00f8benhavn V", "latitude": "55.6682", "longitude": "12.538"}, {"country_code": "DK", "postal_code": "1774", "place_name": "K\u00f8benhavn V", "latitude": "55.6678", "longitude": "12.5383"}, {"country_code": "DK", "postal_code": "1775", "place_name": "K\u00f8benhavn V", "latitude": "55.6679", "longitude": "12.5368"}, {"country_code": "DK", "postal_code": "1777", "place_name": "K\u00f8benhavn V", "latitude": "55.6675", "longitude": "12.5376"}, {"country_code": "DK", "postal_code": "1799", "place_name": "K\u00f8benhavn V", "latitude": "55.6661", "longitude": "12.5347"}, {"country_code": "DK", "postal_code": "2100", "place_name": "K\u00f8benhavn \u00d8", "latitude": "55.7072", "longitude": "12.572"}, {"country_code": "DK", "postal_code": "2150", "place_name": "Nordhavn", "latitude": "55.7119", "longitude": "12.5984"}, {"country_code": "DK", "postal_code": "2200", "place_name": "K\u00f8benhavn N", "latitude": "55.6948", "longitude": "12.5503"}, {"country_code": "DK", "postal_code": "2300", "place_name": "K\u00f8benhavn S", "latitude": "55.6511", "longitude": "12.603"}, {"country_code": "DK", "postal_code": "2400", "place_name": "K\u00f8benhavn NV", "latitude": "55.7086", "longitude": "12.5263"}, {"country_code": "DK", "postal_code": "2450", "place_name": "K\u00f8benhavn SV", "latitude": "55.6484", "longitude": "12.5359"}, {"country_code": "DK", "postal_code": "2500", "place_name": "Valby", "latitude": "55.661", "longitude": "12.5006"}, {"country_code": "DK", "postal_code": "2700", "place_name": "Br\u00f8nsh\u00f8j", "latitude": "55.7069", "longitude": "12.4845"}, {"country_code": "DK", "postal_code": "2720", "place_name": "Vanl\u00f8se", "latitude": "55.6896", "longitude": "12.4869"}, {"country_code": "DK", "postal_code": "1800", "place_name": "Frederiksberg C", "latitude": "55.6707", "longitude": "12.5345"}, {"country_code": "DK", "postal_code": "1801", "place_name": "Frederiksberg C", "latitude": "55.6693", "longitude": "12.5342"}, {"country_code": "DK", "postal_code": "1802", "place_name": "Frederiksberg C", "latitude": "55.6698", "longitude": "12.534"}, {"country_code": "DK", "postal_code": "1803", "place_name": "Frederiksberg C", "latitude": "55.6701", "longitude": "12.5335"}, {"country_code": "DK", "postal_code": "1804", "place_name": "Frederiksberg C", "latitude": "55.6698", "longitude": "12.5322"}, {"country_code": "DK", "postal_code": "1805", "place_name": "Frederiksberg C", "latitude": "55.668", "longitude": "12.5313"}, {"country_code": "DK", "postal_code": "1806", "place_name": "Frederiksberg C", "latitude": "55.6722", "longitude": "12.5334"}, {"country_code": "DK", "postal_code": "1807", "place_name": "Frederiksberg C", "latitude": "55.6714", "longitude": "12.5333"}, {"country_code": "DK", "postal_code": "1808", "place_name": "Frederiksberg C", "latitude": "55.6715", "longitude": "12.5342"}, {"country_code": "DK", "postal_code": "1809", "place_name": "Frederiksberg C", "latitude": "55.6724", "longitude": "12.5358"}, {"country_code": "DK", "postal_code": "1810", "place_name": "Frederiksberg C", "latitude": "55.6719", "longitude": "12.5397"}, {"country_code": "DK", "postal_code": "1811", "place_name": "Frederiksberg C", "latitude": "55.673", "longitude": "12.5369"}, {"country_code": "DK", "postal_code": "1812", "place_name": "Frederiksberg C", "latitude": "55.6721", "longitude": "12.5375"}, {"country_code": "DK", "postal_code": "1813", "place_name": "Frederiksberg C", "latitude": "55.6722", "longitude": "12.5387"}, {"country_code": "DK", "postal_code": "1814", "place_name": "Frederiksberg C", "latitude": "55.6724", "longitude": "12.5412"}, {"country_code": "DK", "postal_code": "1815", "place_name": "Frederiksberg C", "latitude": "55.6728", "longitude": "12.5424"}, {"country_code": "DK", "postal_code": "1816", "place_name": "Frederiksberg C", "latitude": "55.6728", "longitude": "12.5435"}, {"country_code": "DK", "postal_code": "1817", "place_name": "Frederiksberg C", "latitude": "55.6722", "longitude": "12.543"}, {"country_code": "DK", "postal_code": "1818", "place_name": "Frederiksberg C", "latitude": "55.6727", "longitude": "12.5446"}, {"country_code": "DK", "postal_code": "1819", "place_name": "Frederiksberg C", "latitude": "55.6736", "longitude": "12.5496"}, {"country_code": "DK", "postal_code": "1820", "place_name": "Frederiksberg C", "latitude": "55.6739", "longitude": "12.5418"}, {"country_code": "DK", "postal_code": "1822", "place_name": "Frederiksberg C", "latitude": "55.6726", "longitude": "12.5458"}, {"country_code": "DK", "postal_code": "1823", "place_name": "Frederiksberg C", "latitude": "55.6729", "longitude": "12.5454"}, {"country_code": "DK", "postal_code": "1824", "place_name": "Frederiksberg C", "latitude": "55.6743", "longitude": "12.547"}, {"country_code": "DK", "postal_code": "1825", "place_name": "Frederiksberg C", "latitude": "55.6745", "longitude": "12.5456"}, {"country_code": "DK", "postal_code": "1826", "place_name": "Frederiksberg C", "latitude": "55.6748", "longitude": "12.5445"}, {"country_code": "DK", "postal_code": "1827", "place_name": "Frederiksberg C", "latitude": "55.6749", "longitude": "12.5433"}, {"country_code": "DK", "postal_code": "1828", "place_name": "Frederiksberg C", "latitude": "55.675", "longitude": "12.542"}, {"country_code": "DK", "postal_code": "1829", "place_name": "Frederiksberg C", "latitude": "55.6752", "longitude": "12.541"}, {"country_code": "DK", "postal_code": "1850", "place_name": "Frederiksberg C", "latitude": "55.6763", "longitude": "12.5424"}, {"country_code": "DK", "postal_code": "1851", "place_name": "Frederiksberg C", "latitude": "55.6755", "longitude": "12.5396"}, {"country_code": "DK", "postal_code": "1852", "place_name": "Frederiksberg C", "latitude": "55.6758", "longitude": "12.5382"}, {"country_code": "DK", "postal_code": "1853", "place_name": "Frederiksberg C", "latitude": "55.6754", "longitude": "12.5364"}, {"country_code": "DK", "postal_code": "1854", "place_name": "Frederiksberg C", "latitude": "55.6755", "longitude": "12.5346"}, {"country_code": "DK", "postal_code": "1855", "place_name": "Frederiksberg C", "latitude": "55.6762", "longitude": "12.5355"}, {"country_code": "DK", "postal_code": "1856", "place_name": "Frederiksberg C", "latitude": "55.6768", "longitude": "12.5371"}, {"country_code": "DK", "postal_code": "1857", "place_name": "Frederiksberg C", "latitude": "55.6771", "longitude": "12.5356"}, {"country_code": "DK", "postal_code": "1860", "place_name": "Frederiksberg C", "latitude": "55.6809", "longitude": "12.536"}, {"country_code": "DK", "postal_code": "1861", "place_name": "Frederiksberg C", "latitude": "55.6793", "longitude": "12.5351"}, {"country_code": "DK", "postal_code": "1862", "place_name": "Frederiksberg C", "latitude": "55.6795", "longitude": "12.536"}, {"country_code": "DK", "postal_code": "1863", "place_name": "Frederiksberg C", "latitude": "55.6798", "longitude": "12.5375"}, {"country_code": "DK", "postal_code": "1864", "place_name": "Frederiksberg C", "latitude": "55.6785", "longitude": "12.5383"}, {"country_code": "DK", "postal_code": "1865", "place_name": "Frederiksberg C", "latitude": "55.6789", "longitude": "12.5386"}, {"country_code": "DK", "postal_code": "1866", "place_name": "Frederiksberg C", "latitude": "55.6779", "longitude": "12.5382"}, {"country_code": "DK", "postal_code": "1867", "place_name": "Frederiksberg C", "latitude": "55.6786", "longitude": "12.54"}, {"country_code": "DK", "postal_code": "1868", "place_name": "Frederiksberg C", "latitude": "55.6775", "longitude": "12.5404"}, {"country_code": "DK", "postal_code": "1870", "place_name": "Frederiksberg C", "latitude": "55.6804", "longitude": "12.5417"}, {"country_code": "DK", "postal_code": "1871", "place_name": "Frederiksberg C", "latitude": "55.6812", "longitude": "12.545"}, {"country_code": "DK", "postal_code": "1872", "place_name": "Frederiksberg C", "latitude": "55.6803", "longitude": "12.5452"}, {"country_code": "DK", "postal_code": "1873", "place_name": "Frederiksberg C", "latitude": "55.68", "longitude": "12.5444"}, {"country_code": "DK", "postal_code": "1874", "place_name": "Frederiksberg C", "latitude": "55.6796", "longitude": "12.5465"}, {"country_code": "DK", "postal_code": "1875", "place_name": "Frederiksberg C", "latitude": "55.6789", "longitude": "12.5452"}, {"country_code": "DK", "postal_code": "1876", "place_name": "Frederiksberg C", "latitude": "55.678", "longitude": "12.5449"}, {"country_code": "DK", "postal_code": "1877", "place_name": "Frederiksberg C", "latitude": "55.677", "longitude": "12.5433"}, {"country_code": "DK", "postal_code": "1878", "place_name": "Frederiksberg C", "latitude": "55.6768", "longitude": "12.5446"}, {"country_code": "DK", "postal_code": "1879", "place_name": "Frederiksberg C", "latitude": "55.6802", "longitude": "12.5485"}, {"country_code": "DK", "postal_code": "1900", "place_name": "Frederiksberg C", "latitude": "55.6778", "longitude": "12.555"}, {"country_code": "DK", "postal_code": "1901", "place_name": "Frederiksberg C", "latitude": "55.6761", "longitude": "12.5464"}, {"country_code": "DK", "postal_code": "1902", "place_name": "Frederiksberg C", "latitude": "55.6774", "longitude": "12.5481"}, {"country_code": "DK", "postal_code": "1903", "place_name": "Frederiksberg C", "latitude": "55.677", "longitude": "12.5492"}, {"country_code": "DK", "postal_code": "1904", "place_name": "Frederiksberg C", "latitude": "55.6764", "longitude": "12.5503"}, {"country_code": "DK", "postal_code": "1905", "place_name": "Frederiksberg C", "latitude": "55.6757", "longitude": "12.5508"}, {"country_code": "DK", "postal_code": "1906", "place_name": "Frederiksberg C", "latitude": "55.6752", "longitude": "12.5515"}, {"country_code": "DK", "postal_code": "1908", "place_name": "Frederiksberg C", "latitude": "55.6748", "longitude": "12.5536"}, {"country_code": "DK", "postal_code": "1909", "place_name": "Frederiksberg C", "latitude": "55.6758", "longitude": "12.5525"}, {"country_code": "DK", "postal_code": "1910", "place_name": "Frederiksberg C", "latitude": "55.6794", "longitude": "12.551"}, {"country_code": "DK", "postal_code": "1911", "place_name": "Frederiksberg C", "latitude": "55.6781", "longitude": "12.5509"}, {"country_code": "DK", "postal_code": "1912", "place_name": "Frederiksberg C", "latitude": "55.679", "longitude": "12.5512"}, {"country_code": "DK", "postal_code": "1913", "place_name": "Frederiksberg C", "latitude": "55.6786", "longitude": "12.5524"}, {"country_code": "DK", "postal_code": "1914", "place_name": "Frederiksberg C", "latitude": "55.6781", "longitude": "12.5536"}, {"country_code": "DK", "postal_code": "1915", "place_name": "Frederiksberg C", "latitude": "55.6787", "longitude": "12.5531"}, {"country_code": "DK", "postal_code": "1916", "place_name": "Frederiksberg C", "latitude": "55.6776", "longitude": "12.5554"}, {"country_code": "DK", "postal_code": "1917", "place_name": "Frederiksberg C", "latitude": "55.6769", "longitude": "12.5552"}, {"country_code": "DK", "postal_code": "1920", "place_name": "Frederiksberg C", "latitude": "55.68", "longitude": "12.5516"}, {"country_code": "DK", "postal_code": "1921", "place_name": "Frederiksberg C", "latitude": "55.6799", "longitude": "12.5529"}, {"country_code": "DK", "postal_code": "1922", "place_name": "Frederiksberg C", "latitude": "55.6801", "longitude": "12.5534"}, {"country_code": "DK", "postal_code": "1923", "place_name": "Frederiksberg C", "latitude": "55.6811", "longitude": "12.5503"}, {"country_code": "DK", "postal_code": "1924", "place_name": "Frederiksberg C", "latitude": "55.6812", "longitude": "12.5514"}, {"country_code": "DK", "postal_code": "1925", "place_name": "Frederiksberg C", "latitude": "55.6808", "longitude": "12.5536"}, {"country_code": "DK", "postal_code": "1926", "place_name": "Frederiksberg C", "latitude": "55.6801", "longitude": "12.556"}, {"country_code": "DK", "postal_code": "1927", "place_name": "Frederiksberg C", "latitude": "55.6794", "longitude": "12.5557"}, {"country_code": "DK", "postal_code": "1928", "place_name": "Frederiksberg C", "latitude": "55.6788", "longitude": "12.5558"}, {"country_code": "DK", "postal_code": "1950", "place_name": "Frederiksberg C", "latitude": "55.6817", "longitude": "12.5371"}, {"country_code": "DK", "postal_code": "1951", "place_name": "Frederiksberg C", "latitude": "55.6821", "longitude": "12.5364"}, {"country_code": "DK", "postal_code": "1952", "place_name": "Frederiksberg C", "latitude": "55.6824", "longitude": "12.537"}, {"country_code": "DK", "postal_code": "1953", "place_name": "Frederiksberg C", "latitude": "55.6828", "longitude": "12.5377"}, {"country_code": "DK", "postal_code": "1954", "place_name": "Frederiksberg C", "latitude": "55.6839", "longitude": "12.5392"}, {"country_code": "DK", "postal_code": "1955", "place_name": "Frederiksberg C", "latitude": "55.6836", "longitude": "12.5403"}, {"country_code": "DK", "postal_code": "1956", "place_name": "Frederiksberg C", "latitude": "55.6835", "longitude": "12.5413"}, {"country_code": "DK", "postal_code": "1957", "place_name": "Frederiksberg C", "latitude": "55.6832", "longitude": "12.5421"}, {"country_code": "DK", "postal_code": "1958", "place_name": "Frederiksberg C", "latitude": "55.6848", "longitude": "12.5425"}, {"country_code": "DK", "postal_code": "1959", "place_name": "Frederiksberg C", "latitude": "55.6858", "longitude": "12.5413"}, {"country_code": "DK", "postal_code": "1960", "place_name": "Frederiksberg C", "latitude": "55.6847", "longitude": "12.5512"}, {"country_code": "DK", "postal_code": "1961", "place_name": "Frederiksberg C", "latitude": "55.6816", "longitude": "12.5471"}, {"country_code": "DK", "postal_code": "1962", "place_name": "Frederiksberg C", "latitude": "55.6824", "longitude": "12.5475"}, {"country_code": "DK", "postal_code": "1963", "place_name": "Frederiksberg C", "latitude": "55.6813", "longitude": "12.5481"}, {"country_code": "DK", "postal_code": "1964", "place_name": "Frederiksberg C", "latitude": "55.6842", "longitude": "12.548"}, {"country_code": "DK", "postal_code": "1965", "place_name": "Frederiksberg C", "latitude": "55.6833", "longitude": "12.5483"}, {"country_code": "DK", "postal_code": "1966", "place_name": "Frederiksberg C", "latitude": "55.6833", "longitude": "12.5508"}, {"country_code": "DK", "postal_code": "1967", "place_name": "Frederiksberg C", "latitude": "55.6843", "longitude": "12.5499"}, {"country_code": "DK", "postal_code": "1970", "place_name": "Frederiksberg C", "latitude": "55.6826", "longitude": "12.5499"}, {"country_code": "DK", "postal_code": "1971", "place_name": "Frederiksberg C", "latitude": "55.6841", "longitude": "12.5521"}, {"country_code": "DK", "postal_code": "1972", "place_name": "Frederiksberg C", "latitude": "55.6836", "longitude": "12.5526"}, {"country_code": "DK", "postal_code": "1973", "place_name": "Frederiksberg C", "latitude": "55.6835", "longitude": "12.5538"}, {"country_code": "DK", "postal_code": "1974", "place_name": "Frederiksberg C", "latitude": "55.6828", "longitude": "12.5543"}, {"country_code": "DK", "postal_code": "2000", "place_name": "Frederiksberg", "latitude": "55.6825", "longitude": "12.5179"}, {"country_code": "DK", "postal_code": "2740", "place_name": "Skovlunde", "latitude": "55.7154", "longitude": "12.3989"}, {"country_code": "DK", "postal_code": "2750", "place_name": "Ballerup", "latitude": "55.7333", "longitude": "12.3566"}, {"country_code": "DK", "postal_code": "2760", "place_name": "M\u00e5l\u00f8v", "latitude": "55.7513", "longitude": "12.3197"}, {"country_code": "DK", "postal_code": "2605", "place_name": "Br\u00f8ndby", "latitude": "55.6527", "longitude": "12.4132"}, {"country_code": "DK", "postal_code": "2660", "place_name": "Br\u00f8ndby Strand", "latitude": "55.6227", "longitude": "12.417"}, {"country_code": "DK", "postal_code": "2791", "place_name": "Drag\u00f8r", "latitude": "55.5882", "longitude": "12.6482"}, {"country_code": "DK", "postal_code": "2820", "place_name": "Gentofte", "latitude": "55.751", "longitude": "12.5302"}, {"country_code": "DK", "postal_code": "2870", "place_name": "Dysseg\u00e5rd", "latitude": "55.7328", "longitude": "12.5268"}, {"country_code": "DK", "postal_code": "2900", "place_name": "Hellerup", "latitude": "55.7344", "longitude": "12.5601"}, {"country_code": "DK", "postal_code": "2920", "place_name": "Charlottenlund", "latitude": "55.7582", "longitude": "12.573"}, {"country_code": "DK", "postal_code": "2930", "place_name": "Klampenborg", "latitude": "55.7701", "longitude": "12.5886"}, {"country_code": "DK", "postal_code": "2860", "place_name": "S\u00f8borg", "latitude": "55.7361", "longitude": "12.483"}, {"country_code": "DK", "postal_code": "2880", "place_name": "Bagsv\u00e6rd", "latitude": "55.7571", "longitude": "12.4558"}, {"country_code": "DK", "postal_code": "2600", "place_name": "Glostrup", "latitude": "55.6813", "longitude": "12.4039"}, {"country_code": "DK", "postal_code": "2730", "place_name": "Herlev", "latitude": "55.7338", "longitude": "12.4278"}, {"country_code": "DK", "postal_code": "2620", "place_name": "Albertslund", "latitude": "55.6671", "longitude": "12.349"}, {"country_code": "DK", "postal_code": "2650", "place_name": "Hvidovre", "latitude": "55.6367", "longitude": "12.4717"}, {"country_code": "DK", "postal_code": "2630", "place_name": "Taastrup", "latitude": "55.65", "longitude": "12.2904"}, {"country_code": "DK", "postal_code": "2640", "place_name": "Hedehusene", "latitude": "55.6508", "longitude": "12.1977"}, {"country_code": "DK", "postal_code": "2800", "place_name": "Kongens Lyngby", "latitude": "55.7801", "longitude": "12.5122"}, {"country_code": "DK", "postal_code": "2830", "place_name": "Virum", "latitude": "55.7912", "longitude": "12.4705"}, {"country_code": "DK", "postal_code": "2610", "place_name": "R\u00f8dovre", "latitude": "55.6889", "longitude": "12.451"}, {"country_code": "DK", "postal_code": "2635", "place_name": "Ish\u00f8j", "latitude": "55.6154", "longitude": "12.3395"}, {"country_code": "DK", "postal_code": "2770", "place_name": "Kastrup", "latitude": "55.6227", "longitude": "12.6094"}, {"country_code": "DK", "postal_code": "2625", "place_name": "Vallensb\u00e6k", "latitude": "55.6477", "longitude": "12.3623"}, {"country_code": "DK", "postal_code": "2665", "place_name": "Vallensb\u00e6k Strand", "latitude": "55.6218", "longitude": "12.3864"}, {"country_code": "DK", "postal_code": "3500", "place_name": "V\u00e6rl\u00f8se", "latitude": "55.7763", "longitude": "12.364"}, {"country_code": "DK", "postal_code": "3520", "place_name": "Farum", "latitude": "55.8171", "longitude": "12.3713"}, {"country_code": "DK", "postal_code": "3450", "place_name": "Aller\u00f8d", "latitude": "55.8692", "longitude": "12.3484"}, {"country_code": "DK", "postal_code": "3540", "place_name": "Lynge", "latitude": "55.8379", "longitude": "12.2804"}, {"country_code": "DK", "postal_code": "2980", "place_name": "Kokkedal", "latitude": "55.9115", "longitude": "12.4889"}, {"country_code": "DK", "postal_code": "2990", "place_name": "Niv\u00e5", "latitude": "55.9374", "longitude": "12.5002"}, {"country_code": "DK", "postal_code": "3050", "place_name": "Humleb\u00e6k", "latitude": "55.9604", "longitude": "12.5221"}, {"country_code": "DK", "postal_code": "3480", "place_name": "Fredensborg", "latitude": "55.9727", "longitude": "12.4105"}, {"country_code": "DK", "postal_code": "3000", "place_name": "Helsing\u00f8r", "latitude": "56.0337", "longitude": "12.5881"}, {"country_code": "DK", "postal_code": "3060", "place_name": "Esperg\u00e6rde", "latitude": "55.9917", "longitude": "12.5419"}, {"country_code": "DK", "postal_code": "3070", "place_name": "Snekkersten", "latitude": "56.0119", "longitude": "12.5766"}, {"country_code": "DK", "postal_code": "3080", "place_name": "Tik\u00f8b", "latitude": "56.029", "longitude": "12.4465"}, {"country_code": "DK", "postal_code": "3100", "place_name": "Hornb\u00e6k", "latitude": "56.084", "longitude": "12.4523"}, {"country_code": "DK", "postal_code": "3140", "place_name": "\u00c5lsg\u00e5rde", "latitude": "56.0774", "longitude": "12.5283"}, {"country_code": "DK", "postal_code": "3150", "place_name": "Helleb\u00e6k", "latitude": "56.0668", "longitude": "12.5577"}, {"country_code": "DK", "postal_code": "3490", "place_name": "Kvistg\u00e5rd", "latitude": "55.9961", "longitude": "12.501"}, {"country_code": "DK", "postal_code": "3320", "place_name": "Sk\u00e6vinge", "latitude": "55.9179", "longitude": "12.1528"}, {"country_code": "DK", "postal_code": "3330", "place_name": "G\u00f8rl\u00f8se", "latitude": "55.8839", "longitude": "12.1997"}, {"country_code": "DK", "postal_code": "3400", "place_name": "Hiller\u00f8d", "latitude": "55.9359", "longitude": "12.2918"}, {"country_code": "DK", "postal_code": "2960", "place_name": "Rungsted Kyst", "latitude": "55.8868", "longitude": "12.5306"}, {"country_code": "DK", "postal_code": "2970", "place_name": "H\u00f8rsholm", "latitude": "55.8892", "longitude": "12.4963"}, {"country_code": "DK", "postal_code": "2840", "place_name": "Holte", "latitude": "55.8192", "longitude": "12.4855"}, {"country_code": "DK", "postal_code": "2850", "place_name": "N\u00e6rum", "latitude": "55.8182", "longitude": "12.533"}, {"country_code": "DK", "postal_code": "2942", "place_name": "Skodsborg", "latitude": "55.8275", "longitude": "12.5719"}, {"country_code": "DK", "postal_code": "2950", "place_name": "Vedb\u00e6k", "latitude": "55.8461", "longitude": "12.5454"}, {"country_code": "DK", "postal_code": "3460", "place_name": "Birker\u00f8d", "latitude": "55.8423", "longitude": "12.4296"}, {"country_code": "DK", "postal_code": "2765", "place_name": "Sm\u00f8rum", "latitude": "55.7361", "longitude": "12.2977"}, {"country_code": "DK", "postal_code": "3650", "place_name": "\u00d8lstykke", "latitude": "55.7836", "longitude": "12.1609"}, {"country_code": "DK", "postal_code": "3660", "place_name": "Stenl\u00f8se", "latitude": "55.7772", "longitude": "12.2177"}, {"country_code": "DK", "postal_code": "3670", "place_name": "Veks\u00f8 Sj\u00e6lland", "latitude": "55.7576", "longitude": "12.2386"}, {"country_code": "DK", "postal_code": "3550", "place_name": "Slangerup", "latitude": "55.8462", "longitude": "12.1744"}, {"country_code": "DK", "postal_code": "3600", "place_name": "Frederikssund", "latitude": "55.8383", "longitude": "12.0732"}, {"country_code": "DK", "postal_code": "3630", "place_name": "J\u00e6gerspris", "latitude": "55.8631", "longitude": "11.96"}, {"country_code": "DK", "postal_code": "4050", "place_name": "Skibby", "latitude": "55.7585", "longitude": "11.9552"}, {"country_code": "DK", "postal_code": "3300", "place_name": "Frederiksv\u00e6rk", "latitude": "55.9787", "longitude": "12.0242"}, {"country_code": "DK", "postal_code": "3310", "place_name": "\u00d8lsted", "latitude": "55.9124", "longitude": "12.0604"}, {"country_code": "DK", "postal_code": "3360", "place_name": "Liseleje", "latitude": "56.0078", "longitude": "11.9679"}, {"country_code": "DK", "postal_code": "3370", "place_name": "Melby", "latitude": "55.992", "longitude": "11.9718"}, {"country_code": "DK", "postal_code": "3390", "place_name": "Hundested", "latitude": "55.9662", "longitude": "11.8782"}, {"country_code": "DK", "postal_code": "3120", "place_name": "Dronningm\u00f8lle", "latitude": "56.0969", "longitude": "12.3818"}, {"country_code": "DK", "postal_code": "3200", "place_name": "Helsinge", "latitude": "56.016", "longitude": "12.1849"}, {"country_code": "DK", "postal_code": "3210", "place_name": "Vejby", "latitude": "56.0804", "longitude": "12.1437"}, {"country_code": "DK", "postal_code": "3220", "place_name": "Tisvildeleje", "latitude": "56.0579", "longitude": "12.0915"}, {"country_code": "DK", "postal_code": "3230", "place_name": "Gr\u00e6sted", "latitude": "56.0765", "longitude": "12.2586"}, {"country_code": "DK", "postal_code": "3250", "place_name": "Gilleleje", "latitude": "56.116", "longitude": "12.2866"}, {"country_code": "DK", "postal_code": "3700", "place_name": "R\u00f8nne", "latitude": "55.1065", "longitude": "14.7247"}, {"country_code": "DK", "postal_code": "3720", "place_name": "Aakirkeby", "latitude": "55.053", "longitude": "14.9259"}, {"country_code": "DK", "postal_code": "3730", "place_name": "Nex\u00f8", "latitude": "55.0428", "longitude": "15.1073"}, {"country_code": "DK", "postal_code": "3740", "place_name": "Svaneke", "latitude": "55.1313", "longitude": "15.1295"}, {"country_code": "DK", "postal_code": "3751", "place_name": "\u00d8stermarie", "latitude": "55.1385", "longitude": "15.0191"}, {"country_code": "DK", "postal_code": "3760", "place_name": "Gudhjem", "latitude": "55.1964", "longitude": "14.9504"}, {"country_code": "DK", "postal_code": "3770", "place_name": "Allinge", "latitude": "55.2654", "longitude": "14.805"}, {"country_code": "DK", "postal_code": "3782", "place_name": "Klemensker", "latitude": "55.18", "longitude": "14.8112"}, {"country_code": "DK", "postal_code": "3790", "place_name": "Hasle", "latitude": "55.1928", "longitude": "14.7193"}, {"country_code": "DK", "postal_code": "8700", "place_name": "Horsens", "latitude": "55.8623", "longitude": "9.8468"}, {"country_code": "DK", "postal_code": "8732", "place_name": "Hovedg\u00e5rd", "latitude": "55.9484", "longitude": "9.9577"}, {"country_code": "DK", "postal_code": "8740", "place_name": "Br\u00e6dstrup", "latitude": "55.9727", "longitude": "9.6192"}, {"country_code": "DK", "postal_code": "8751", "place_name": "Gedved", "latitude": "55.9319", "longitude": "9.8467"}, {"country_code": "DK", "postal_code": "8752", "place_name": "\u00d8stbirk", "latitude": "55.9699", "longitude": "9.7518"}, {"country_code": "DK", "postal_code": "8789", "place_name": "Endelave", "latitude": "55.755", "longitude": "10.284"}, {"country_code": "DK", "postal_code": "6933", "place_name": "Kib\u00e6k", "latitude": "56.0102", "longitude": "8.8682"}, {"country_code": "DK", "postal_code": "6973", "place_name": "\u00d8rnh\u00f8j", "latitude": "56.1973", "longitude": "8.5671"}, {"country_code": "DK", "postal_code": "7270", "place_name": "Stakroge", "latitude": "55.8965", "longitude": "8.847"}, {"country_code": "DK", "postal_code": "7280", "place_name": "S\u00f8nder Felding", "latitude": "55.9411", "longitude": "8.7837"}, {"country_code": "DK", "postal_code": "7400", "place_name": "Herning", "latitude": "56.1331", "longitude": "8.9736"}, {"country_code": "DK", "postal_code": "7451", "place_name": "Sunds", "latitude": "56.2173", "longitude": "9.0229"}, {"country_code": "DK", "postal_code": "7480", "place_name": "Vildbjerg", "latitude": "56.1877", "longitude": "8.7674"}, {"country_code": "DK", "postal_code": "7490", "place_name": "Aulum", "latitude": "56.2731", "longitude": "8.8037"}, {"country_code": "DK", "postal_code": "7540", "place_name": "Haderup", "latitude": "56.3566", "longitude": "8.9744"}, {"country_code": "DK", "postal_code": "7550", "place_name": "S\u00f8rvad", "latitude": "56.2605", "longitude": "8.6559"}, {"country_code": "DK", "postal_code": "6990", "place_name": "Ulfborg", "latitude": "56.2967", "longitude": "8.2163"}, {"country_code": "DK", "postal_code": "7500", "place_name": "Holstebro", "latitude": "56.363", "longitude": "8.6301"}, {"country_code": "DK", "postal_code": "7570", "place_name": "Vemb", "latitude": "56.3474", "longitude": "8.3622"}, {"country_code": "DK", "postal_code": "7830", "place_name": "Vinderup", "latitude": "56.4743", "longitude": "8.7959"}, {"country_code": "DK", "postal_code": "7620", "place_name": "Lemvig", "latitude": "56.541", "longitude": "8.292"}, {"country_code": "DK", "postal_code": "7650", "place_name": "B\u00f8vlingbjerg", "latitude": "56.4376", "longitude": "8.2097"}, {"country_code": "DK", "postal_code": "7660", "place_name": "B\u00e6kmarksbro", "latitude": "56.4146", "longitude": "8.3202"}, {"country_code": "DK", "postal_code": "7673", "place_name": "Harbo\u00f8re", "latitude": "56.6012", "longitude": "8.1592"}, {"country_code": "DK", "postal_code": "7680", "place_name": "Thybor\u00f8n", "latitude": "56.6984", "longitude": "8.2122"}, {"country_code": "DK", "postal_code": "7560", "place_name": "Hjerm", "latitude": "56.4395", "longitude": "8.6457"}, {"country_code": "DK", "postal_code": "7600", "place_name": "Struer", "latitude": "56.4925", "longitude": "8.5722"}, {"country_code": "DK", "postal_code": "7790", "place_name": "Thyholm", "latitude": "56.6368", "longitude": "8.5454"}, {"country_code": "DK", "postal_code": "8400", "place_name": "Ebeltoft", "latitude": "56.2173", "longitude": "10.6747"}, {"country_code": "DK", "postal_code": "8410", "place_name": "R\u00f8nde", "latitude": "56.3108", "longitude": "10.4664"}, {"country_code": "DK", "postal_code": "8420", "place_name": "Knebel", "latitude": "56.1792", "longitude": "10.4728"}, {"country_code": "DK", "postal_code": "8444", "place_name": "Balle", "latitude": "56.3145", "longitude": "10.7922"}, {"country_code": "DK", "postal_code": "8543", "place_name": "Hornslet", "latitude": "56.3161", "longitude": "10.3114"}, {"country_code": "DK", "postal_code": "8544", "place_name": "M\u00f8rke", "latitude": "56.3521", "longitude": "10.3423"}, {"country_code": "DK", "postal_code": "8550", "place_name": "Ryomg\u00e5rd", "latitude": "56.3849", "longitude": "10.4826"}, {"country_code": "DK", "postal_code": "8560", "place_name": "Kolind", "latitude": "56.3532", "longitude": "10.5908"}, {"country_code": "DK", "postal_code": "8581", "place_name": "Nimtofte", "latitude": "56.4133", "longitude": "10.5803"}, {"country_code": "DK", "postal_code": "8500", "place_name": "Grenaa", "latitude": "56.4213", "longitude": "10.8743"}, {"country_code": "DK", "postal_code": "8570", "place_name": "Trustrup", "latitude": "56.3567", "longitude": "10.7585"}, {"country_code": "DK", "postal_code": "8585", "place_name": "Glesborg", "latitude": "56.5089", "longitude": "10.6657"}, {"country_code": "DK", "postal_code": "8586", "place_name": "\u00d8rum Djurs", "latitude": "56.445", "longitude": "10.6601"}, {"country_code": "DK", "postal_code": "8592", "place_name": "Anholt", "latitude": "56.7066", "longitude": "11.5396"}, {"country_code": "DK", "postal_code": "8950", "place_name": "\u00d8rsted", "latitude": "56.5294", "longitude": "10.3334"}, {"country_code": "DK", "postal_code": "8961", "place_name": "Alling\u00e5bro", "latitude": "56.4807", "longitude": "10.4173"}, {"country_code": "DK", "postal_code": "8963", "place_name": "Auning", "latitude": "56.4306", "longitude": "10.3752"}, {"country_code": "DK", "postal_code": "8370", "place_name": "Hadsten", "latitude": "56.3324", "longitude": "10.0663"}, {"country_code": "DK", "postal_code": "8382", "place_name": "Hinnerup", "latitude": "56.2595", "longitude": "10.0657"}, {"country_code": "DK", "postal_code": "8450", "place_name": "Hammel", "latitude": "56.2572", "longitude": "9.8651"}, {"country_code": "DK", "postal_code": "8472", "place_name": "Sporup", "latitude": "56.2128", "longitude": "9.8331"}, {"country_code": "DK", "postal_code": "8860", "place_name": "Ulstrup", "latitude": "56.3874", "longitude": "9.7928"}, {"country_code": "DK", "postal_code": "8881", "place_name": "Thors\u00f8", "latitude": "56.3045", "longitude": "9.7856"}, {"country_code": "DK", "postal_code": "8300", "place_name": "Odder", "latitude": "55.9626", "longitude": "10.1795"}, {"country_code": "DK", "postal_code": "8350", "place_name": "Hundslund", "latitude": "55.913", "longitude": "10.0565"}, {"country_code": "DK", "postal_code": "8799", "place_name": "Tun\u00f8", "latitude": "55.9512", "longitude": "10.4371"}, {"country_code": "DK", "postal_code": "8870", "place_name": "Lang\u00e5", "latitude": "56.4097", "longitude": "9.9173"}, {"country_code": "DK", "postal_code": "8900", "place_name": "Randers C", "latitude": "56.464", "longitude": "10.0341"}, {"country_code": "DK", "postal_code": "8920", "place_name": "Randers NV", "latitude": "56.4764", "longitude": "9.9773"}, {"country_code": "DK", "postal_code": "8930", "place_name": "Randers N\u00d8", "latitude": "56.4835", "longitude": "10.0844"}, {"country_code": "DK", "postal_code": "8940", "place_name": "Randers SV", "latitude": "56.4358", "longitude": "10.0334"}, {"country_code": "DK", "postal_code": "8960", "place_name": "Randers S\u00d8", "latitude": "56.4422", "longitude": "10.1127"}, {"country_code": "DK", "postal_code": "8970", "place_name": "Havndal", "latitude": "56.6359", "longitude": "10.2281"}, {"country_code": "DK", "postal_code": "8981", "place_name": "Spentrup", "latitude": "56.54", "longitude": "10.0408"}, {"country_code": "DK", "postal_code": "8983", "place_name": "Gjerlev J", "latitude": "56.5835", "longitude": "10.1393"}, {"country_code": "DK", "postal_code": "8990", "place_name": "F\u00e5rup", "latitude": "56.5456", "longitude": "9.879"}, {"country_code": "DK", "postal_code": "8600", "place_name": "Silkeborg", "latitude": "56.1726", "longitude": "9.5564"}, {"country_code": "DK", "postal_code": "8620", "place_name": "Kjellerup", "latitude": "56.286", "longitude": "9.4126"}, {"country_code": "DK", "postal_code": "8632", "place_name": "Lemming", "latitude": "56.2401", "longitude": "9.5379"}, {"country_code": "DK", "postal_code": "8641", "place_name": "Sorring", "latitude": "56.1772", "longitude": "9.7805"}, {"country_code": "DK", "postal_code": "8643", "place_name": "Ans By", "latitude": "56.2993", "longitude": "9.6023"}, {"country_code": "DK", "postal_code": "8653", "place_name": "Them", "latitude": "56.0898", "longitude": "9.5503"}, {"country_code": "DK", "postal_code": "8654", "place_name": "Bryrup", "latitude": "56.026", "longitude": "9.517"}, {"country_code": "DK", "postal_code": "8882", "place_name": "F\u00e5rvang", "latitude": "56.2703", "longitude": "9.7072"}, {"country_code": "DK", "postal_code": "8883", "place_name": "Gjern", "latitude": "56.2244", "longitude": "9.738"}, {"country_code": "DK", "postal_code": "8305", "place_name": "Sams\u00f8", "latitude": "55.8602", "longitude": "10.5856"}, {"country_code": "DK", "postal_code": "8362", "place_name": "H\u00f8rning", "latitude": "56.0848", "longitude": "10.0333"}, {"country_code": "DK", "postal_code": "8464", "place_name": "Galten", "latitude": "56.1563", "longitude": "9.9273"}, {"country_code": "DK", "postal_code": "8660", "place_name": "Skanderborg", "latitude": "56.0401", "longitude": "9.9302"}, {"country_code": "DK", "postal_code": "8670", "place_name": "L\u00e5sby", "latitude": "56.1514", "longitude": "9.8075"}, {"country_code": "DK", "postal_code": "8680", "place_name": "Ry", "latitude": "56.0885", "longitude": "9.759"}, {"country_code": "DK", "postal_code": "8000", "place_name": "Aarhus C", "latitude": "56.1535", "longitude": "10.2034"}, {"country_code": "DK", "postal_code": "8200", "place_name": "Aarhus N", "latitude": "56.1888", "longitude": "10.1901"}, {"country_code": "DK", "postal_code": "8210", "place_name": "Aarhus V", "latitude": "56.1712", "longitude": "10.1605"}, {"country_code": "DK", "postal_code": "8220", "place_name": "Brabrand", "latitude": "56.1578", "longitude": "10.1092"}, {"country_code": "DK", "postal_code": "8230", "place_name": "\u00c5byh\u00f8j", "latitude": "56.1526", "longitude": "10.1602"}, {"country_code": "DK", "postal_code": "8240", "place_name": "Risskov", "latitude": "56.1976", "longitude": "10.2292"}, {"country_code": "DK", "postal_code": "8250", "place_name": "Eg\u00e5", "latitude": "56.2216", "longitude": "10.293"}, {"country_code": "DK", "postal_code": "8260", "place_name": "Viby J", "latitude": "56.1284", "longitude": "10.1421"}, {"country_code": "DK", "postal_code": "8270", "place_name": "H\u00f8jbjerg", "latitude": "56.1119", "longitude": "10.1907"}, {"country_code": "DK", "postal_code": "8310", "place_name": "Tranbjerg J", "latitude": "56.0904", "longitude": "10.1318"}, {"country_code": "DK", "postal_code": "8320", "place_name": "M\u00e5rslet", "latitude": "56.0698", "longitude": "10.1619"}, {"country_code": "DK", "postal_code": "8330", "place_name": "Beder", "latitude": "56.0578", "longitude": "10.2156"}, {"country_code": "DK", "postal_code": "8340", "place_name": "Malling", "latitude": "56.036", "longitude": "10.2065"}, {"country_code": "DK", "postal_code": "8355", "place_name": "Solbjerg", "latitude": "56.0396", "longitude": "10.0881"}, {"country_code": "DK", "postal_code": "8361", "place_name": "Hasselager", "latitude": "56.1077", "longitude": "10.0882"}, {"country_code": "DK", "postal_code": "8380", "place_name": "Trige", "latitude": "56.2648", "longitude": "10.1466"}, {"country_code": "DK", "postal_code": "8381", "place_name": "Tilst", "latitude": "56.1859", "longitude": "10.1089"}, {"country_code": "DK", "postal_code": "8462", "place_name": "Harlev J", "latitude": "56.1449", "longitude": "9.9963"}, {"country_code": "DK", "postal_code": "8471", "place_name": "Sabro", "latitude": "56.2079", "longitude": "10.0395"}, {"country_code": "DK", "postal_code": "8520", "place_name": "Lystrup", "latitude": "56.2374", "longitude": "10.2318"}, {"country_code": "DK", "postal_code": "8530", "place_name": "Hjortsh\u00f8j", "latitude": "56.2628", "longitude": "10.2499"}, {"country_code": "DK", "postal_code": "8541", "place_name": "Sk\u00f8dstrup", "latitude": "56.2658", "longitude": "10.3144"}, {"country_code": "DK", "postal_code": "7330", "place_name": "Brande", "latitude": "55.9339", "longitude": "9.11"}, {"country_code": "DK", "postal_code": "7361", "place_name": "Ejstrupholm", "latitude": "55.9894", "longitude": "9.2921"}, {"country_code": "DK", "postal_code": "7362", "place_name": "Hampen", "latitude": "56.0173", "longitude": "9.3582"}, {"country_code": "DK", "postal_code": "7430", "place_name": "Ikast", "latitude": "56.1334", "longitude": "9.1573"}, {"country_code": "DK", "postal_code": "7441", "place_name": "Bording", "latitude": "56.1509", "longitude": "9.2703"}, {"country_code": "DK", "postal_code": "7442", "place_name": "Engesvang", "latitude": "56.1689", "longitude": "9.3436"}, {"country_code": "DK", "postal_code": "8765", "place_name": "Klovborg", "latitude": "55.9306", "longitude": "9.4903"}, {"country_code": "DK", "postal_code": "8766", "place_name": "N\u00f8rre Snede", "latitude": "55.9653", "longitude": "9.3974"}, {"country_code": "DK", "postal_code": "6880", "place_name": "Tarm", "latitude": "55.8883", "longitude": "8.5146"}, {"country_code": "DK", "postal_code": "6893", "place_name": "Hemmet", "latitude": "55.8418", "longitude": "8.3124"}, {"country_code": "DK", "postal_code": "6900", "place_name": "Skjern", "latitude": "55.9668", "longitude": "8.4999"}, {"country_code": "DK", "postal_code": "6920", "place_name": "Videb\u00e6k", "latitude": "56.0762", "longitude": "8.6563"}, {"country_code": "DK", "postal_code": "6940", "place_name": "Lem St", "latitude": "56.0361", "longitude": "8.3917"}, {"country_code": "DK", "postal_code": "6950", "place_name": "Ringk\u00f8bing", "latitude": "56.1039", "longitude": "8.2118"}, {"country_code": "DK", "postal_code": "6960", "place_name": "Hvide Sande", "latitude": "55.9573", "longitude": "8.1433"}, {"country_code": "DK", "postal_code": "6971", "place_name": "Spjald", "latitude": "56.137", "longitude": "8.5018"}, {"country_code": "DK", "postal_code": "6980", "place_name": "Tim", "latitude": "56.1977", "longitude": "8.2896"}, {"country_code": "DK", "postal_code": "7130", "place_name": "Juelsminde", "latitude": "55.7519", "longitude": "9.9985"}, {"country_code": "DK", "postal_code": "7140", "place_name": "Stouby", "latitude": "55.7077", "longitude": "9.798"}, {"country_code": "DK", "postal_code": "7150", "place_name": "Barrit", "latitude": "55.7131", "longitude": "9.8894"}, {"country_code": "DK", "postal_code": "7160", "place_name": "T\u00f8rring", "latitude": "55.8592", "longitude": "9.504"}, {"country_code": "DK", "postal_code": "7171", "place_name": "Uldum", "latitude": "55.8443", "longitude": "9.591"}, {"country_code": "DK", "postal_code": "8721", "place_name": "Daug\u00e5rd", "latitude": "55.7314", "longitude": "9.7117"}, {"country_code": "DK", "postal_code": "8722", "place_name": "Hedensted", "latitude": "55.7692", "longitude": "9.7022"}, {"country_code": "DK", "postal_code": "8723", "place_name": "L\u00f8sning", "latitude": "55.8028", "longitude": "9.6973"}, {"country_code": "DK", "postal_code": "8762", "place_name": "Flemming", "latitude": "55.8706", "longitude": "9.6629"}, {"country_code": "DK", "postal_code": "8763", "place_name": "Rask M\u00f8lle", "latitude": "55.875", "longitude": "9.6114"}, {"country_code": "DK", "postal_code": "8781", "place_name": "Stenderup", "latitude": "55.7903", "longitude": "9.8068"}, {"country_code": "DK", "postal_code": "8783", "place_name": "Hornsyld", "latitude": "55.7627", "longitude": "9.8514"}, {"country_code": "DK", "postal_code": "7800", "place_name": "Skive", "latitude": "56.5678", "longitude": "9.0226"}, {"country_code": "DK", "postal_code": "7840", "place_name": "H\u00f8jslev", "latitude": "56.5815", "longitude": "9.1723"}, {"country_code": "DK", "postal_code": "7860", "place_name": "Sp\u00f8ttrup", "latitude": "56.615", "longitude": "8.8218"}, {"country_code": "DK", "postal_code": "7870", "place_name": "Roslev", "latitude": "56.7234", "longitude": "8.9892"}, {"country_code": "DK", "postal_code": "7884", "place_name": "Fur", "latitude": "56.822", "longitude": "9.0224"}, {"country_code": "DK", "postal_code": "7470", "place_name": "Karup J", "latitude": "56.3262", "longitude": "9.2049"}, {"country_code": "DK", "postal_code": "7850", "place_name": "Stoholm Jyll", "latitude": "56.484", "longitude": "9.1354"}, {"country_code": "DK", "postal_code": "8800", "place_name": "Viborg", "latitude": "56.4451", "longitude": "9.3909"}, {"country_code": "DK", "postal_code": "8830", "place_name": "Tjele", "latitude": "56.502", "longitude": "9.6119"}, {"country_code": "DK", "postal_code": "8831", "place_name": "L\u00f8gstrup", "latitude": "56.519", "longitude": "9.3224"}, {"country_code": "DK", "postal_code": "8832", "place_name": "Skals", "latitude": "56.5807", "longitude": "9.3716"}, {"country_code": "DK", "postal_code": "8840", "place_name": "R\u00f8dk\u00e6rsbro", "latitude": "56.3503", "longitude": "9.5115"}, {"country_code": "DK", "postal_code": "8850", "place_name": "Bjerringbro", "latitude": "56.379", "longitude": "9.6515"}, {"country_code": "DK", "postal_code": "9632", "place_name": "M\u00f8ldrup", "latitude": "56.6077", "longitude": "9.5031"}, {"country_code": "DK", "postal_code": "7900", "place_name": "Nyk\u00f8bing M", "latitude": "56.8107", "longitude": "8.8325"}, {"country_code": "DK", "postal_code": "7950", "place_name": "Erslev", "latitude": "56.8472", "longitude": "8.7063"}, {"country_code": "DK", "postal_code": "7960", "place_name": "Karby", "latitude": "56.7533", "longitude": "8.5789"}, {"country_code": "DK", "postal_code": "7970", "place_name": "Redsted M", "latitude": "56.741", "longitude": "8.6453"}, {"country_code": "DK", "postal_code": "7980", "place_name": "Vils", "latitude": "56.7585", "longitude": "8.7271"}, {"country_code": "DK", "postal_code": "7990", "place_name": "\u00d8ster Assels", "latitude": "56.7025", "longitude": "8.7222"}, {"country_code": "DK", "postal_code": "7700", "place_name": "Thisted", "latitude": "56.9726", "longitude": "8.6263"}, {"country_code": "DK", "postal_code": "7730", "place_name": "Hanstholm", "latitude": "57.107", "longitude": "8.6391"}, {"country_code": "DK", "postal_code": "7741", "place_name": "Fr\u00f8strup", "latitude": "57.1063", "longitude": "8.9832"}, {"country_code": "DK", "postal_code": "7742", "place_name": "Vesl\u00f8s", "latitude": "57.022", "longitude": "8.9721"}, {"country_code": "DK", "postal_code": "7752", "place_name": "Snedsted", "latitude": "56.8782", "longitude": "8.5045"}, {"country_code": "DK", "postal_code": "7755", "place_name": "Bedsted Thy", "latitude": "56.821", "longitude": "8.4021"}, {"country_code": "DK", "postal_code": "7760", "place_name": "Hurup Thy", "latitude": "56.7306", "longitude": "8.4147"}, {"country_code": "DK", "postal_code": "7770", "place_name": "Vestervig", "latitude": "56.7726", "longitude": "8.2802"}, {"country_code": "DK", "postal_code": "9320", "place_name": "Hjallerup", "latitude": "57.1772", "longitude": "10.1484"}, {"country_code": "DK", "postal_code": "9330", "place_name": "Dronninglund", "latitude": "57.1791", "longitude": "10.2976"}, {"country_code": "DK", "postal_code": "9340", "place_name": "Asaa", "latitude": "57.1367", "longitude": "10.3919"}, {"country_code": "DK", "postal_code": "9700", "place_name": "Br\u00f8nderslev", "latitude": "57.273", "longitude": "9.9482"}, {"country_code": "DK", "postal_code": "9740", "place_name": "Jerslev J", "latitude": "57.2896", "longitude": "10.1101"}, {"country_code": "DK", "postal_code": "9300", "place_name": "S\u00e6by", "latitude": "57.3102", "longitude": "10.5013"}, {"country_code": "DK", "postal_code": "9352", "place_name": "Dybvad", "latitude": "57.2803", "longitude": "10.3281"}, {"country_code": "DK", "postal_code": "9750", "place_name": "\u00d8stervr\u00e5", "latitude": "57.3401", "longitude": "10.2594"}, {"country_code": "DK", "postal_code": "9900", "place_name": "Frederikshavn", "latitude": "57.4404", "longitude": "10.5041"}, {"country_code": "DK", "postal_code": "9970", "place_name": "Strandby", "latitude": "57.4956", "longitude": "10.4893"}, {"country_code": "DK", "postal_code": "9981", "place_name": "Jerup", "latitude": "57.5261", "longitude": "10.4362"}, {"country_code": "DK", "postal_code": "9982", "place_name": "\u00c5lb\u00e6k", "latitude": "57.5996", "longitude": "10.4044"}, {"country_code": "DK", "postal_code": "9990", "place_name": "Skagen", "latitude": "57.7208", "longitude": "10.5621"}, {"country_code": "DK", "postal_code": "9600", "place_name": "Aars", "latitude": "56.8062", "longitude": "9.4964"}, {"country_code": "DK", "postal_code": "9620", "place_name": "Aalestrup", "latitude": "56.694", "longitude": "9.4909"}, {"country_code": "DK", "postal_code": "9631", "place_name": "Gedsted", "latitude": "56.6911", "longitude": "9.3438"}, {"country_code": "DK", "postal_code": "9640", "place_name": "Fars\u00f8", "latitude": "56.7691", "longitude": "9.2872"}, {"country_code": "DK", "postal_code": "9670", "place_name": "L\u00f8gst\u00f8r", "latitude": "56.9303", "longitude": "9.2656"}, {"country_code": "DK", "postal_code": "9681", "place_name": "Ranum", "latitude": "56.8967", "longitude": "9.2038"}, {"country_code": "DK", "postal_code": "9940", "place_name": "L\u00e6s\u00f8", "latitude": "57.288", "longitude": "11.0146"}, {"country_code": "DK", "postal_code": "9520", "place_name": "Sk\u00f8rping", "latitude": "56.8442", "longitude": "9.9058"}, {"country_code": "DK", "postal_code": "9530", "place_name": "St\u00f8vring", "latitude": "56.8945", "longitude": "9.8197"}, {"country_code": "DK", "postal_code": "9541", "place_name": "Suldrup", "latitude": "56.8479", "longitude": "9.6904"}, {"country_code": "DK", "postal_code": "9574", "place_name": "B\u00e6lum", "latitude": "56.8271", "longitude": "10.1248"}, {"country_code": "DK", "postal_code": "9575", "place_name": "Terndrup", "latitude": "56.8125", "longitude": "10.0575"}, {"country_code": "DK", "postal_code": "9610", "place_name": "N\u00f8rager", "latitude": "56.7454", "longitude": "9.6701"}, {"country_code": "DK", "postal_code": "9500", "place_name": "Hobro", "latitude": "56.6469", "longitude": "9.7953"}, {"country_code": "DK", "postal_code": "9510", "place_name": "Arden", "latitude": "56.7647", "longitude": "9.892"}, {"country_code": "DK", "postal_code": "9550", "place_name": "Mariager", "latitude": "56.6527", "longitude": "10.008"}, {"country_code": "DK", "postal_code": "9560", "place_name": "Hadsund", "latitude": "56.7505", "longitude": "10.2076"}, {"country_code": "DK", "postal_code": "9440", "place_name": "Aabybro", "latitude": "57.1458", "longitude": "9.7416"}, {"country_code": "DK", "postal_code": "9460", "place_name": "Brovst", "latitude": "57.1072", "longitude": "9.5186"}, {"country_code": "DK", "postal_code": "9490", "place_name": "Pandrup", "latitude": "57.2111", "longitude": "9.6381"}, {"country_code": "DK", "postal_code": "9492", "place_name": "Blokhus", "latitude": "57.2542", "longitude": "9.6048"}, {"country_code": "DK", "postal_code": "9493", "place_name": "Saltum", "latitude": "57.2809", "longitude": "9.6602"}, {"country_code": "DK", "postal_code": "9690", "place_name": "Fjerritslev", "latitude": "57.0961", "longitude": "9.2608"}, {"country_code": "DK", "postal_code": "9000", "place_name": "Aalborg", "latitude": "57.0394", "longitude": "9.9135"}, {"country_code": "DK", "postal_code": "9200", "place_name": "Aalborg SV", "latitude": "57.0116", "longitude": "9.8702"}, {"country_code": "DK", "postal_code": "9210", "place_name": "Aalborg S\u00d8", "latitude": "57.0108", "longitude": "9.9382"}, {"country_code": "DK", "postal_code": "9220", "place_name": "Aalborg \u00d8st", "latitude": "57.0291", "longitude": "9.9939"}, {"country_code": "DK", "postal_code": "9230", "place_name": "Svenstrup J", "latitude": "56.9679", "longitude": "9.8502"}, {"country_code": "DK", "postal_code": "9240", "place_name": "Nibe", "latitude": "56.9807", "longitude": "9.6229"}, {"country_code": "DK", "postal_code": "9260", "place_name": "Gistrup", "latitude": "56.9813", "longitude": "9.9943"}, {"country_code": "DK", "postal_code": "9270", "place_name": "Klarup", "latitude": "57.0119", "longitude": "10.05"}, {"country_code": "DK", "postal_code": "9280", "place_name": "Storvorde", "latitude": "56.9769", "longitude": "10.1718"}, {"country_code": "DK", "postal_code": "9293", "place_name": "Kongerslev", "latitude": "56.8928", "longitude": "10.1153"}, {"country_code": "DK", "postal_code": "9310", "place_name": "Vodskov", "latitude": "57.1002", "longitude": "10.0665"}, {"country_code": "DK", "postal_code": "9362", "place_name": "Gandrup", "latitude": "57.0555", "longitude": "10.1854"}, {"country_code": "DK", "postal_code": "9370", "place_name": "Hals", "latitude": "57.0316", "longitude": "10.3312"}, {"country_code": "DK", "postal_code": "9380", "place_name": "Vestbjerg", "latitude": "57.1318", "longitude": "9.9628"}, {"country_code": "DK", "postal_code": "9381", "place_name": "Sulsted", "latitude": "57.1645", "longitude": "9.9601"}, {"country_code": "DK", "postal_code": "9382", "place_name": "Tylstrup", "latitude": "57.1981", "longitude": "9.9408"}, {"country_code": "DK", "postal_code": "9400", "place_name": "N\u00f8rresundby", "latitude": "57.0698", "longitude": "9.9249"}, {"country_code": "DK", "postal_code": "9430", "place_name": "Vadum", "latitude": "57.1195", "longitude": "9.8578"}, {"country_code": "DK", "postal_code": "9480", "place_name": "L\u00f8kken", "latitude": "57.3825", "longitude": "9.7439"}, {"country_code": "DK", "postal_code": "9760", "place_name": "Vr\u00e5", "latitude": "57.3581", "longitude": "9.9481"}, {"country_code": "DK", "postal_code": "9800", "place_name": "Hj\u00f8rring", "latitude": "57.4654", "longitude": "9.9685"}, {"country_code": "DK", "postal_code": "9830", "place_name": "T\u00e5rs", "latitude": "57.3804", "longitude": "10.1308"}, {"country_code": "DK", "postal_code": "9850", "place_name": "Hirtshals", "latitude": "57.5707", "longitude": "9.9667"}, {"country_code": "DK", "postal_code": "9870", "place_name": "Sindal", "latitude": "57.4677", "longitude": "10.236"}, {"country_code": "DK", "postal_code": "9881", "place_name": "Bindslev", "latitude": "57.5707", "longitude": "10.2023"}, {"country_code": "DK", "postal_code": "2670", "place_name": "Greve", "latitude": "55.5906", "longitude": "12.3018"}, {"country_code": "DK", "postal_code": "2690", "place_name": "Karlslunde", "latitude": "55.5663", "longitude": "12.2468"}, {"country_code": "DK", "postal_code": "4030", "place_name": "Tune", "latitude": "55.5955", "longitude": "12.1851"}, {"country_code": "DK", "postal_code": "4140", "place_name": "Borup", "latitude": "55.4947", "longitude": "11.9809"}, {"country_code": "DK", "postal_code": "4600", "place_name": "K\u00f8ge", "latitude": "55.4624", "longitude": "12.1696"}, {"country_code": "DK", "postal_code": "4623", "place_name": "Lille Skensved", "latitude": "55.4975", "longitude": "12.096"}, {"country_code": "DK", "postal_code": "4632", "place_name": "Bj\u00e6verskov", "latitude": "55.4571", "longitude": "12.0418"}, {"country_code": "DK", "postal_code": "4681", "place_name": "Herf\u00f8lge", "latitude": "55.4109", "longitude": "12.1414"}, {"country_code": "DK", "postal_code": "4682", "place_name": "Tureby", "latitude": "55.3841", "longitude": "12.0821"}, {"country_code": "DK", "postal_code": "4000", "place_name": "Roskilde", "latitude": "55.6513", "longitude": "12.0958"}, {"country_code": "DK", "postal_code": "4040", "place_name": "Jyllinge", "latitude": "55.7585", "longitude": "12.1069"}, {"country_code": "DK", "postal_code": "4130", "place_name": "Viby Sj\u00e6lland", "latitude": "55.5499", "longitude": "12.0221"}, {"country_code": "DK", "postal_code": "4621", "place_name": "Gadstrup", "latitude": "55.5705", "longitude": "12.1032"}, {"country_code": "DK", "postal_code": "2680", "place_name": "Solr\u00f8d Strand", "latitude": "55.532", "longitude": "12.213"}, {"country_code": "DK", "postal_code": "4622", "place_name": "Havdrup", "latitude": "55.5438", "longitude": "12.1221"}, {"country_code": "DK", "postal_code": "4500", "place_name": "Nyk\u00f8bing Sj", "latitude": "55.9281", "longitude": "11.6393"}, {"country_code": "DK", "postal_code": "4534", "place_name": "H\u00f8rve", "latitude": "55.7538", "longitude": "11.4328"}, {"country_code": "DK", "postal_code": "4540", "place_name": "F\u00e5revejle", "latitude": "55.8166", "longitude": "11.4282"}, {"country_code": "DK", "postal_code": "4550", "place_name": "Asn\u00e6s", "latitude": "55.8255", "longitude": "11.4991"}, {"country_code": "DK", "postal_code": "4560", "place_name": "Vig", "latitude": "55.8585", "longitude": "11.5577"}, {"country_code": "DK", "postal_code": "4571", "place_name": "Grevinge", "latitude": "55.7935", "longitude": "11.5885"}, {"country_code": "DK", "postal_code": "4572", "place_name": "N\u00f8rre Asmindrup", "latitude": "55.8798", "longitude": "11.6151"}, {"country_code": "DK", "postal_code": "4573", "place_name": "H\u00f8jby", "latitude": "55.9059", "longitude": "11.5548"}, {"country_code": "DK", "postal_code": "4581", "place_name": "R\u00f8rvig", "latitude": "55.9497", "longitude": "11.7498"}, {"country_code": "DK", "postal_code": "4583", "place_name": "Sj\u00e6llands Odde", "latitude": "55.9712", "longitude": "11.3624"}, {"country_code": "DK", "postal_code": "4300", "place_name": "Holb\u00e6k", "latitude": "55.7186", "longitude": "11.7069"}, {"country_code": "DK", "postal_code": "4305", "place_name": "Or\u00f8", "latitude": "55.7717", "longitude": "11.813"}, {"country_code": "DK", "postal_code": "4340", "place_name": "T\u00f8ll\u00f8se", "latitude": "55.6114", "longitude": "11.727"}, {"country_code": "DK", "postal_code": "4350", "place_name": "Ugerl\u00f8se", "latitude": "55.5881", "longitude": "11.6489"}, {"country_code": "DK", "postal_code": "4360", "place_name": "Kirke Eskilstrup", "latitude": "55.5705", "longitude": "11.7737"}, {"country_code": "DK", "postal_code": "4370", "place_name": "Store Merl\u00f8se", "latitude": "55.5462", "longitude": "11.7159"}, {"country_code": "DK", "postal_code": "4390", "place_name": "Vipper\u00f8d", "latitude": "55.6675", "longitude": "11.7431"}, {"country_code": "DK", "postal_code": "4420", "place_name": "Regstrup", "latitude": "55.6664", "longitude": "11.6185"}, {"country_code": "DK", "postal_code": "4440", "place_name": "M\u00f8rk\u00f8v", "latitude": "55.6513", "longitude": "11.5085"}, {"country_code": "DK", "postal_code": "4450", "place_name": "Jyderup", "latitude": "55.6602", "longitude": "11.4104"}, {"country_code": "DK", "postal_code": "4520", "place_name": "Svinninge", "latitude": "55.7188", "longitude": "11.4769"}, {"country_code": "DK", "postal_code": "4532", "place_name": "Gislinge", "latitude": "55.7328", "longitude": "11.5543"}, {"country_code": "DK", "postal_code": "4640", "place_name": "Faxe", "latitude": "55.2452", "longitude": "12.12"}, {"country_code": "DK", "postal_code": "4653", "place_name": "Karise", "latitude": "55.3055", "longitude": "12.1959"}, {"country_code": "DK", "postal_code": "4654", "place_name": "Faxe Ladeplads", "latitude": "55.2174", "longitude": "12.1601"}, {"country_code": "DK", "postal_code": "4683", "place_name": "R\u00f8nnede", "latitude": "55.2514", "longitude": "12.0302"}, {"country_code": "DK", "postal_code": "4690", "place_name": "Haslev", "latitude": "55.325", "longitude": "11.9696"}, {"country_code": "DK", "postal_code": "4270", "place_name": "H\u00f8ng", "latitude": "55.5073", "longitude": "11.296"}, {"country_code": "DK", "postal_code": "4281", "place_name": "G\u00f8rlev", "latitude": "55.5324", "longitude": "11.1825"}, {"country_code": "DK", "postal_code": "4400", "place_name": "Kalundborg", "latitude": "55.6882", "longitude": "11.0848"}, {"country_code": "DK", "postal_code": "4460", "place_name": "Snertinge", "latitude": "55.7118", "longitude": "11.3801"}, {"country_code": "DK", "postal_code": "4470", "place_name": "Sveb\u00f8lle", "latitude": "55.6511", "longitude": "11.2885"}, {"country_code": "DK", "postal_code": "4480", "place_name": "Store Fuglede", "latitude": "55.5759", "longitude": "11.1709"}, {"country_code": "DK", "postal_code": "4490", "place_name": "Jerslev Sj\u00e6lland", "latitude": "55.6163", "longitude": "11.2278"}, {"country_code": "DK", "postal_code": "4591", "place_name": "F\u00f8llenslev", "latitude": "55.746", "longitude": "11.3329"}, {"country_code": "DK", "postal_code": "4592", "place_name": "Sejer\u00f8", "latitude": "55.8916", "longitude": "11.1334"}, {"country_code": "DK", "postal_code": "4593", "place_name": "Eskebjerg", "latitude": "55.7022", "longitude": "11.274"}, {"country_code": "DK", "postal_code": "4100", "place_name": "Ringsted", "latitude": "55.4442", "longitude": "11.8065"}, {"country_code": "DK", "postal_code": "4174", "place_name": "Jystrup Midtsj", "latitude": "55.5176", "longitude": "11.8643"}, {"country_code": "DK", "postal_code": "4200", "place_name": "Slagelse", "latitude": "55.4044", "longitude": "11.3353"}, {"country_code": "DK", "postal_code": "4220", "place_name": "Kors\u00f8r", "latitude": "55.3415", "longitude": "11.1549"}, {"country_code": "DK", "postal_code": "4230", "place_name": "Sk\u00e6lsk\u00f8r", "latitude": "55.2517", "longitude": "11.3043"}, {"country_code": "DK", "postal_code": "4241", "place_name": "Vemmelev", "latitude": "55.3612", "longitude": "11.2565"}, {"country_code": "DK", "postal_code": "4242", "place_name": "Boeslunde", "latitude": "55.305", "longitude": "11.2653"}, {"country_code": "DK", "postal_code": "4243", "place_name": "Rude", "latitude": "55.2142", "longitude": "11.4891"}, {"country_code": "DK", "postal_code": "4244", "place_name": "Agers\u00f8", "latitude": "55.2155", "longitude": "11.186"}, {"country_code": "DK", "postal_code": "4245", "place_name": "Om\u00f8", "latitude": "55.1575", "longitude": "11.1527"}, {"country_code": "DK", "postal_code": "4261", "place_name": "Dalmose", "latitude": "55.2855", "longitude": "11.4168"}, {"country_code": "DK", "postal_code": "4652", "place_name": "H\u00e5rlev", "latitude": "55.3509", "longitude": "12.2291"}, {"country_code": "DK", "postal_code": "4660", "place_name": "Store Heddinge", "latitude": "55.3096", "longitude": "12.3772"}, {"country_code": "DK", "postal_code": "4671", "place_name": "Str\u00f8by", "latitude": "55.395", "longitude": "12.2964"}, {"country_code": "DK", "postal_code": "4672", "place_name": "Klippinge", "latitude": "55.3553", "longitude": "12.3319"}, {"country_code": "DK", "postal_code": "4673", "place_name": "R\u00f8dvig Stevns", "latitude": "55.2576", "longitude": "12.3671"}, {"country_code": "DK", "postal_code": "4173", "place_name": "Fjenneslev", "latitude": "55.4334", "longitude": "11.6617"}, {"country_code": "DK", "postal_code": "4180", "place_name": "Sor\u00f8", "latitude": "55.4361", "longitude": "11.5633"}, {"country_code": "DK", "postal_code": "4190", "place_name": "Munke Bjergby", "latitude": "55.4991", "longitude": "11.5253"}, {"country_code": "DK", "postal_code": "4291", "place_name": "Ruds Vedby", "latitude": "55.5393", "longitude": "11.3794"}, {"country_code": "DK", "postal_code": "4293", "place_name": "Dianalund", "latitude": "55.5331", "longitude": "11.4889"}, {"country_code": "DK", "postal_code": "4295", "place_name": "Stenlille", "latitude": "55.543", "longitude": "11.5842"}, {"country_code": "DK", "postal_code": "4296", "place_name": "Nyrup", "latitude": "55.5434", "longitude": "11.6494"}, {"country_code": "DK", "postal_code": "4060", "place_name": "Kirke S\u00e5by", "latitude": "55.6459", "longitude": "11.8572"}, {"country_code": "DK", "postal_code": "4070", "place_name": "Kirke Hyllinge", "latitude": "55.7007", "longitude": "11.8935"}, {"country_code": "DK", "postal_code": "4320", "place_name": "Lejre", "latitude": "55.5819", "longitude": "11.9668"}, {"country_code": "DK", "postal_code": "4330", "place_name": "Hvals\u00f8", "latitude": "55.5938", "longitude": "11.8649"}, {"country_code": "DK", "postal_code": "4895", "place_name": "Errindlev", "latitude": "54.6636", "longitude": "11.5015"}, {"country_code": "DK", "postal_code": "4900", "place_name": "Nakskov", "latitude": "54.8288", "longitude": "11.1277"}, {"country_code": "DK", "postal_code": "4912", "place_name": "Harpelunde", "latitude": "54.8771", "longitude": "11.0719"}, {"country_code": "DK", "postal_code": "4913", "place_name": "Horslunde", "latitude": "54.9212", "longitude": "11.2104"}, {"country_code": "DK", "postal_code": "4920", "place_name": "S\u00f8llested", "latitude": "54.8032", "longitude": "11.278"}, {"country_code": "DK", "postal_code": "4930", "place_name": "Maribo", "latitude": "54.7737", "longitude": "11.4972"}, {"country_code": "DK", "postal_code": "4941", "place_name": "Bandholm", "latitude": "54.8389", "longitude": "11.4681"}, {"country_code": "DK", "postal_code": "4942", "place_name": "Ask\u00f8", "latitude": "54.893", "longitude": "11.4993"}, {"country_code": "DK", "postal_code": "4943", "place_name": "Torrig L", "latitude": "54.9085", "longitude": "11.3244"}, {"country_code": "DK", "postal_code": "4944", "place_name": "Fej\u00f8", "latitude": "54.9441", "longitude": "11.4089"}, {"country_code": "DK", "postal_code": "4945", "place_name": "Fem\u00f8", "latitude": "54.9739", "longitude": "11.5378"}, {"country_code": "DK", "postal_code": "4951", "place_name": "N\u00f8rreballe", "latitude": "54.8094", "longitude": "11.4285"}, {"country_code": "DK", "postal_code": "4952", "place_name": "Stokkemarke", "latitude": "54.843", "longitude": "11.3728"}, {"country_code": "DK", "postal_code": "4953", "place_name": "Vesterborg", "latitude": "54.8652", "longitude": "11.2954"}, {"country_code": "DK", "postal_code": "4960", "place_name": "Holeby", "latitude": "54.7098", "longitude": "11.4829"}, {"country_code": "DK", "postal_code": "4970", "place_name": "R\u00f8dby", "latitude": "54.6835", "longitude": "11.3591"}, {"country_code": "DK", "postal_code": "4983", "place_name": "Dannemare", "latitude": "54.7396", "longitude": "11.189"}, {"country_code": "DK", "postal_code": "4160", "place_name": "Herlufmagle", "latitude": "55.3139", "longitude": "11.751"}, {"country_code": "DK", "postal_code": "4171", "place_name": "Glums\u00f8", "latitude": "55.3621", "longitude": "11.6897"}, {"country_code": "DK", "postal_code": "4250", "place_name": "Fuglebjerg", "latitude": "55.3092", "longitude": "11.5482"}, {"country_code": "DK", "postal_code": "4262", "place_name": "Sandved", "latitude": "55.2534", "longitude": "11.5218"}, {"country_code": "DK", "postal_code": "4684", "place_name": "Holmegaard", "latitude": "55.268", "longitude": "11.8297"}, {"country_code": "DK", "postal_code": "4700", "place_name": "N\u00e6stved", "latitude": "55.2237", "longitude": "11.7629"}, {"country_code": "DK", "postal_code": "4733", "place_name": "Tappern\u00f8je", "latitude": "55.1769", "longitude": "11.9719"}, {"country_code": "DK", "postal_code": "4736", "place_name": "Karreb\u00e6ksminde", "latitude": "55.1778", "longitude": "11.6523"}, {"country_code": "DK", "postal_code": "4800", "place_name": "Nyk\u00f8bing F", "latitude": "54.7723", "longitude": "11.884"}, {"country_code": "DK", "postal_code": "4840", "place_name": "N\u00f8rre Alslev", "latitude": "54.9069", "longitude": "11.8529"}, {"country_code": "DK", "postal_code": "4850", "place_name": "Stubbek\u00f8bing", "latitude": "54.8846", "longitude": "12.0383"}, {"country_code": "DK", "postal_code": "4862", "place_name": "Guldborg", "latitude": "54.8637", "longitude": "11.7322"}, {"country_code": "DK", "postal_code": "4863", "place_name": "Eskilstrup", "latitude": "54.8542", "longitude": "11.8843"}, {"country_code": "DK", "postal_code": "4871", "place_name": "Horbelev", "latitude": "54.8238", "longitude": "12.0644"}, {"country_code": "DK", "postal_code": "4872", "place_name": "Idestrup", "latitude": "54.7247", "longitude": "11.9782"}, {"country_code": "DK", "postal_code": "4873", "place_name": "V\u00e6ggerl\u00f8se", "latitude": "54.6829", "longitude": "11.9496"}, {"country_code": "DK", "postal_code": "4874", "place_name": "Gedser", "latitude": "54.5953", "longitude": "11.944"}, {"country_code": "DK", "postal_code": "4880", "place_name": "Nysted", "latitude": "54.6704", "longitude": "11.7255"}, {"country_code": "DK", "postal_code": "4891", "place_name": "Toreby L", "latitude": "54.7597", "longitude": "11.7775"}, {"country_code": "DK", "postal_code": "4892", "place_name": "Kettinge", "latitude": "54.7008", "longitude": "11.747"}, {"country_code": "DK", "postal_code": "4894", "place_name": "\u00d8ster Ulslev", "latitude": "54.6958", "longitude": "11.6061"}, {"country_code": "DK", "postal_code": "4990", "place_name": "Saksk\u00f8bing", "latitude": "54.7971", "longitude": "11.6452"}, {"country_code": "DK", "postal_code": "4720", "place_name": "Pr\u00e6st\u00f8", "latitude": "55.1112", "longitude": "12.0618"}, {"country_code": "DK", "postal_code": "4735", "place_name": "Mern", "latitude": "55.0464", "longitude": "12.0706"}, {"country_code": "DK", "postal_code": "4750", "place_name": "Lundby", "latitude": "55.1098", "longitude": "11.8361"}, {"country_code": "DK", "postal_code": "4760", "place_name": "Vordingborg", "latitude": "55.0184", "longitude": "11.9152"}, {"country_code": "DK", "postal_code": "4771", "place_name": "Kalvehave", "latitude": "55.003", "longitude": "12.1508"}, {"country_code": "DK", "postal_code": "4772", "place_name": "Langeb\u00e6k", "latitude": "54.9976", "longitude": "12.0811"}, {"country_code": "DK", "postal_code": "4773", "place_name": "Stensved", "latitude": "54.995", "longitude": "12.0268"}, {"country_code": "DK", "postal_code": "4780", "place_name": "Stege", "latitude": "54.9904", "longitude": "12.2915"}, {"country_code": "DK", "postal_code": "4791", "place_name": "Borre", "latitude": "54.9777", "longitude": "12.4697"}, {"country_code": "DK", "postal_code": "4792", "place_name": "Askeby", "latitude": "54.9063", "longitude": "12.1605"}, {"country_code": "DK", "postal_code": "4793", "place_name": "Bog\u00f8 By", "latitude": "54.9233", "longitude": "12.0508"}, {"country_code": "DK", "postal_code": "5463", "place_name": "Harndrup", "latitude": "55.4572", "longitude": "10.0226"}, {"country_code": "DK", "postal_code": "5464", "place_name": "Brenderup Fyn", "latitude": "55.4986", "longitude": "9.9731"}, {"country_code": "DK", "postal_code": "5466", "place_name": "Asperup", "latitude": "55.4964", "longitude": "9.9025"}, {"country_code": "DK", "postal_code": "5500", "place_name": "Middelfart", "latitude": "55.5063", "longitude": "9.764"}, {"country_code": "DK", "postal_code": "5580", "place_name": "N\u00f8rre Aaby", "latitude": "55.4544", "longitude": "9.8711"}, {"country_code": "DK", "postal_code": "5591", "place_name": "Gelsted", "latitude": "55.3948", "longitude": "9.9623"}, {"country_code": "DK", "postal_code": "5592", "place_name": "Ejby", "latitude": "55.4228", "longitude": "9.9224"}, {"country_code": "DK", "postal_code": "5492", "place_name": "Vissenbjerg", "latitude": "55.3875", "longitude": "10.137"}, {"country_code": "DK", "postal_code": "5560", "place_name": "Aarup", "latitude": "55.3759", "longitude": "10.0484"}, {"country_code": "DK", "postal_code": "5610", "place_name": "Assens", "latitude": "55.2803", "longitude": "9.9166"}, {"country_code": "DK", "postal_code": "5620", "place_name": "Glamsbjerg", "latitude": "55.2758", "longitude": "10.0941"}, {"country_code": "DK", "postal_code": "5631", "place_name": "Ebberup", "latitude": "55.2081", "longitude": "9.9902"}, {"country_code": "DK", "postal_code": "5683", "place_name": "Haarby", "latitude": "55.2123", "longitude": "10.1075"}, {"country_code": "DK", "postal_code": "5690", "place_name": "Tommerup", "latitude": "55.3243", "longitude": "10.2044"}, {"country_code": "DK", "postal_code": "5600", "place_name": "Faaborg", "latitude": "55.1049", "longitude": "10.2503"}, {"country_code": "DK", "postal_code": "5601", "place_name": "Ly\u00f8", "latitude": "55.0434", "longitude": "10.1513"}, {"country_code": "DK", "postal_code": "5602", "place_name": "Avernak\u00f8", "latitude": "55.025", "longitude": "10.2758"}, {"country_code": "DK", "postal_code": "5603", "place_name": "Bj\u00f8rn\u00f8", "latitude": "55.0639", "longitude": "10.2517"}, {"country_code": "DK", "postal_code": "5642", "place_name": "Millinge", "latitude": "55.1412", "longitude": "10.1733"}, {"country_code": "DK", "postal_code": "5672", "place_name": "Broby", "latitude": "55.2422", "longitude": "10.2629"}, {"country_code": "DK", "postal_code": "5750", "place_name": "Ringe", "latitude": "55.2326", "longitude": "10.4568"}, {"country_code": "DK", "postal_code": "5772", "place_name": "Kv\u00e6rndrup", "latitude": "55.179", "longitude": "10.5316"}, {"country_code": "DK", "postal_code": "5792", "place_name": "\u00c5rslev", "latitude": "55.3009", "longitude": "10.4407"}, {"country_code": "DK", "postal_code": "5854", "place_name": "Gislev", "latitude": "55.2161", "longitude": "10.6006"}, {"country_code": "DK", "postal_code": "5856", "place_name": "Ryslinge", "latitude": "55.2371", "longitude": "10.5366"}, {"country_code": "DK", "postal_code": "5863", "place_name": "Ferritslev Fyn", "latitude": "55.3133", "longitude": "10.5821"}, {"country_code": "DK", "postal_code": "5290", "place_name": "Marslev", "latitude": "55.395", "longitude": "10.5238"}, {"country_code": "DK", "postal_code": "5300", "place_name": "Kerteminde", "latitude": "55.4519", "longitude": "10.6486"}, {"country_code": "DK", "postal_code": "5330", "place_name": "Munkebo", "latitude": "55.458", "longitude": "10.5544"}, {"country_code": "DK", "postal_code": "5350", "place_name": "Rynkeby", "latitude": "55.3997", "longitude": "10.6134"}, {"country_code": "DK", "postal_code": "5370", "place_name": "Mesinge", "latitude": "55.508", "longitude": "10.629"}, {"country_code": "DK", "postal_code": "5380", "place_name": "Dalby", "latitude": "55.5166", "longitude": "10.6722"}, {"country_code": "DK", "postal_code": "5390", "place_name": "Martofte", "latitude": "55.5703", "longitude": "10.6254"}, {"country_code": "DK", "postal_code": "5550", "place_name": "Langeskov", "latitude": "55.3614", "longitude": "10.5855"}, {"country_code": "DK", "postal_code": "5540", "place_name": "Ullerslev", "latitude": "55.3583", "longitude": "10.6646"}, {"country_code": "DK", "postal_code": "5800", "place_name": "Nyborg", "latitude": "55.322", "longitude": "10.7801"}, {"country_code": "DK", "postal_code": "5853", "place_name": "\u00d8rb\u00e6k", "latitude": "55.264", "longitude": "10.6608"}, {"country_code": "DK", "postal_code": "5871", "place_name": "Fr\u00f8rup", "latitude": "55.2388", "longitude": "10.7645"}, {"country_code": "DK", "postal_code": "5000", "place_name": "Odense C", "latitude": "55.4028", "longitude": "10.392"}, {"country_code": "DK", "postal_code": "5200", "place_name": "Odense V", "latitude": "55.3953", "longitude": "10.3289"}, {"country_code": "DK", "postal_code": "5210", "place_name": "Odense NV", "latitude": "55.415", "longitude": "10.3132"}, {"country_code": "DK", "postal_code": "5220", "place_name": "Odense S\u00d8", "latitude": "55.3727", "longitude": "10.4601"}, {"country_code": "DK", "postal_code": "5230", "place_name": "Odense M", "latitude": "55.381", "longitude": "10.4017"}, {"country_code": "DK", "postal_code": "5240", "place_name": "Odense N\u00d8", "latitude": "55.4176", "longitude": "10.4446"}, {"country_code": "DK", "postal_code": "5250", "place_name": "Odense SV", "latitude": "55.3585", "longitude": "10.3366"}, {"country_code": "DK", "postal_code": "5260", "place_name": "Odense S", "latitude": "55.3462", "longitude": "10.3902"}, {"country_code": "DK", "postal_code": "5270", "place_name": "Odense N", "latitude": "55.4341", "longitude": "10.3612"}, {"country_code": "DK", "postal_code": "5320", "place_name": "Agedrup", "latitude": "55.4259", "longitude": "10.4757"}, {"country_code": "DK", "postal_code": "5491", "place_name": "Blommenslyst", "latitude": "55.3879", "longitude": "10.25"}, {"country_code": "DK", "postal_code": "5700", "place_name": "Svendborg", "latitude": "55.0528", "longitude": "10.6094"}, {"country_code": "DK", "postal_code": "5762", "place_name": "Vester Skerninge", "latitude": "55.0722", "longitude": "10.4594"}, {"country_code": "DK", "postal_code": "5771", "place_name": "Stenstrup", "latitude": "55.1272", "longitude": "10.5131"}, {"country_code": "DK", "postal_code": "5874", "place_name": "Hesselager", "latitude": "55.1711", "longitude": "10.766"}, {"country_code": "DK", "postal_code": "5881", "place_name": "Sk\u00e5rup Fyn", "latitude": "55.0869", "longitude": "10.6986"}, {"country_code": "DK", "postal_code": "5882", "place_name": "Vejstrup", "latitude": "55.1092", "longitude": "10.7094"}, {"country_code": "DK", "postal_code": "5883", "place_name": "Oure", "latitude": "55.1218", "longitude": "10.725"}, {"country_code": "DK", "postal_code": "5884", "place_name": "Gudme", "latitude": "55.1497", "longitude": "10.7034"}, {"country_code": "DK", "postal_code": "5892", "place_name": "Gudbjerg Sydfyn", "latitude": "55.157", "longitude": "10.6569"}, {"country_code": "DK", "postal_code": "5400", "place_name": "Bogense", "latitude": "55.5548", "longitude": "10.0939"}, {"country_code": "DK", "postal_code": "5450", "place_name": "Otterup", "latitude": "55.5401", "longitude": "10.4029"}, {"country_code": "DK", "postal_code": "5462", "place_name": "Morud", "latitude": "55.4437", "longitude": "10.1928"}, {"country_code": "DK", "postal_code": "5471", "place_name": "S\u00f8nders\u00f8", "latitude": "55.4912", "longitude": "10.2028"}, {"country_code": "DK", "postal_code": "5474", "place_name": "Veflinge", "latitude": "55.4682", "longitude": "10.1526"}, {"country_code": "DK", "postal_code": "5485", "place_name": "Skamby", "latitude": "55.5188", "longitude": "10.2766"}, {"country_code": "DK", "postal_code": "5900", "place_name": "Rudk\u00f8bing", "latitude": "54.923", "longitude": "10.7403"}, {"country_code": "DK", "postal_code": "5932", "place_name": "Humble", "latitude": "54.8126", "longitude": "10.6901"}, {"country_code": "DK", "postal_code": "5935", "place_name": "Bagenkop", "latitude": "54.7511", "longitude": "10.6862"}, {"country_code": "DK", "postal_code": "5943", "place_name": "Stryn\u00f8", "latitude": "54.9049", "longitude": "10.6108"}, {"country_code": "DK", "postal_code": "5953", "place_name": "Tranek\u00e6r", "latitude": "55.0605", "longitude": "10.8773"}, {"country_code": "DK", "postal_code": "5960", "place_name": "Marstal", "latitude": "54.8575", "longitude": "10.5085"}, {"country_code": "DK", "postal_code": "5965", "place_name": "Birkholm", "latitude": "54.9307", "longitude": "10.5042"}, {"country_code": "DK", "postal_code": "5970", "place_name": "\u00c6r\u00f8sk\u00f8bing", "latitude": "54.8771", "longitude": "10.3895"}, {"country_code": "DK", "postal_code": "5985", "place_name": "S\u00f8by \u00c6r\u00f8", "latitude": "54.9319", "longitude": "10.2671"}, {"country_code": "DK", "postal_code": "6100", "place_name": "Haderslev", "latitude": "55.2431", "longitude": "9.5239"}, {"country_code": "DK", "postal_code": "6500", "place_name": "Vojens", "latitude": "55.2428", "longitude": "9.2999"}, {"country_code": "DK", "postal_code": "6510", "place_name": "Gram", "latitude": "55.2814", "longitude": "9.0265"}, {"country_code": "DK", "postal_code": "6541", "place_name": "Bevtoft", "latitude": "55.198", "longitude": "9.204"}, {"country_code": "DK", "postal_code": "6560", "place_name": "Sommersted", "latitude": "55.3226", "longitude": "9.284"}, {"country_code": "DK", "postal_code": "6623", "place_name": "Vorbasse", "latitude": "55.6354", "longitude": "9.0813"}, {"country_code": "DK", "postal_code": "7190", "place_name": "Billund", "latitude": "55.7261", "longitude": "9.1164"}, {"country_code": "DK", "postal_code": "7200", "place_name": "Grindsted", "latitude": "55.7602", "longitude": "8.9211"}, {"country_code": "DK", "postal_code": "7250", "place_name": "Hejnsvig", "latitude": "55.6884", "longitude": "8.9799"}, {"country_code": "DK", "postal_code": "7260", "place_name": "S\u00f8nder Omme", "latitude": "55.8425", "longitude": "8.8964"}, {"country_code": "DK", "postal_code": "6300", "place_name": "Gr\u00e5sten", "latitude": "54.9146", "longitude": "9.5725"}, {"country_code": "DK", "postal_code": "6310", "place_name": "Broager", "latitude": "54.8859", "longitude": "9.6782"}, {"country_code": "DK", "postal_code": "6320", "place_name": "Egernsund", "latitude": "54.9041", "longitude": "9.6154"}, {"country_code": "DK", "postal_code": "6400", "place_name": "S\u00f8nderborg", "latitude": "54.9213", "longitude": "9.7764"}, {"country_code": "DK", "postal_code": "6430", "place_name": "Nordborg", "latitude": "55.0331", "longitude": "9.7881"}, {"country_code": "DK", "postal_code": "6440", "place_name": "Augustenborg", "latitude": "54.9631", "longitude": "9.9198"}, {"country_code": "DK", "postal_code": "6470", "place_name": "Sydals", "latitude": "54.9011", "longitude": "9.9565"}, {"country_code": "DK", "postal_code": "6240", "place_name": "L\u00f8gumkloster", "latitude": "55.0555", "longitude": "8.979"}, {"country_code": "DK", "postal_code": "6261", "place_name": "Bredebro", "latitude": "55.0545", "longitude": "8.7706"}, {"country_code": "DK", "postal_code": "6270", "place_name": "T\u00f8nder", "latitude": "54.9442", "longitude": "8.8692"}, {"country_code": "DK", "postal_code": "6280", "place_name": "H\u00f8jer", "latitude": "54.973", "longitude": "8.704"}, {"country_code": "DK", "postal_code": "6520", "place_name": "Toftlund", "latitude": "55.1794", "longitude": "9.0356"}, {"country_code": "DK", "postal_code": "6534", "place_name": "Agerskov", "latitude": "55.1294", "longitude": "9.1426"}, {"country_code": "DK", "postal_code": "6535", "place_name": "Branderup J", "latitude": "55.1198", "longitude": "9.065"}, {"country_code": "DK", "postal_code": "6780", "place_name": "Sk\u00e6rb\u00e6k", "latitude": "55.1659", "longitude": "8.7766"}, {"country_code": "DK", "postal_code": "6792", "place_name": "R\u00f8m\u00f8", "latitude": "55.1154", "longitude": "8.5377"}, {"country_code": "DK", "postal_code": "6690", "place_name": "G\u00f8rding", "latitude": "55.4732", "longitude": "8.8019"}, {"country_code": "DK", "postal_code": "6700", "place_name": "Esbjerg", "latitude": "55.4732", "longitude": "8.4592"}, {"country_code": "DK", "postal_code": "6705", "place_name": "Esbjerg \u00d8", "latitude": "55.4886", "longitude": "8.4965"}, {"country_code": "DK", "postal_code": "6710", "place_name": "Esbjerg V", "latitude": "55.5165", "longitude": "8.3942"}, {"country_code": "DK", "postal_code": "6715", "place_name": "Esbjerg N", "latitude": "55.517", "longitude": "8.4587"}, {"country_code": "DK", "postal_code": "6731", "place_name": "Tj\u00e6reborg", "latitude": "55.4648", "longitude": "8.5852"}, {"country_code": "DK", "postal_code": "6740", "place_name": "Bramming", "latitude": "55.4711", "longitude": "8.7055"}, {"country_code": "DK", "postal_code": "6760", "place_name": "Ribe", "latitude": "55.3209", "longitude": "8.7714"}, {"country_code": "DK", "postal_code": "6771", "place_name": "Gredstedbro", "latitude": "55.4033", "longitude": "8.7495"}, {"country_code": "DK", "postal_code": "6720", "place_name": "Fan\u00f8", "latitude": "55.4173", "longitude": "8.4037"}, {"country_code": "DK", "postal_code": "6753", "place_name": "Agerb\u00e6k", "latitude": "55.6024", "longitude": "8.8009"}, {"country_code": "DK", "postal_code": "6800", "place_name": "Varde", "latitude": "55.6349", "longitude": "8.5033"}, {"country_code": "DK", "postal_code": "6818", "place_name": "\u00c5rre", "latitude": "55.5748", "longitude": "8.6743"}, {"country_code": "DK", "postal_code": "6823", "place_name": "Ansager", "latitude": "55.7173", "longitude": "8.7474"}, {"country_code": "DK", "postal_code": "6830", "place_name": "N\u00f8rre Nebel", "latitude": "55.7814", "longitude": "8.2688"}, {"country_code": "DK", "postal_code": "6840", "place_name": "Oksb\u00f8l", "latitude": "55.6419", "longitude": "8.2731"}, {"country_code": "DK", "postal_code": "6851", "place_name": "Janderup Vestj", "latitude": "55.6306", "longitude": "8.3734"}, {"country_code": "DK", "postal_code": "6852", "place_name": "Billum", "latitude": "55.6137", "longitude": "8.3274"}, {"country_code": "DK", "postal_code": "6853", "place_name": "Vejers Strand", "latitude": "55.6247", "longitude": "8.1316"}, {"country_code": "DK", "postal_code": "6854", "place_name": "Henne", "latitude": "55.7332", "longitude": "8.2051"}, {"country_code": "DK", "postal_code": "6855", "place_name": "Outrup", "latitude": "55.7166", "longitude": "8.353"}, {"country_code": "DK", "postal_code": "6857", "place_name": "Bl\u00e5vand", "latitude": "55.5542", "longitude": "8.1504"}, {"country_code": "DK", "postal_code": "6862", "place_name": "Tistrup", "latitude": "55.7165", "longitude": "8.612"}, {"country_code": "DK", "postal_code": "6870", "place_name": "\u00d8lgod", "latitude": "55.8017", "longitude": "8.6196"}, {"country_code": "DK", "postal_code": "6600", "place_name": "Vejen", "latitude": "55.4789", "longitude": "9.1389"}, {"country_code": "DK", "postal_code": "6621", "place_name": "Gesten", "latitude": "55.5269", "longitude": "9.2039"}, {"country_code": "DK", "postal_code": "6622", "place_name": "B\u00e6kke", "latitude": "55.5753", "longitude": "9.1472"}, {"country_code": "DK", "postal_code": "6630", "place_name": "R\u00f8dding", "latitude": "55.3707", "longitude": "9.1124"}, {"country_code": "DK", "postal_code": "6650", "place_name": "Br\u00f8rup", "latitude": "55.4951", "longitude": "9.0153"}, {"country_code": "DK", "postal_code": "6660", "place_name": "Lintrup", "latitude": "55.4117", "longitude": "8.9784"}, {"country_code": "DK", "postal_code": "6670", "place_name": "Holsted", "latitude": "55.4998", "longitude": "8.9129"}, {"country_code": "DK", "postal_code": "6682", "place_name": "Hovborg", "latitude": "55.6063", "longitude": "8.9381"}, {"country_code": "DK", "postal_code": "6683", "place_name": "F\u00f8vling", "latitude": "55.4394", "longitude": "8.9093"}, {"country_code": "DK", "postal_code": "6752", "place_name": "Glejbjerg", "latitude": "55.5571", "longitude": "8.8302"}, {"country_code": "DK", "postal_code": "6200", "place_name": "Aabenraa", "latitude": "55.033", "longitude": "9.4398"}, {"country_code": "DK", "postal_code": "6210", "place_name": "Bars\u00f8", "latitude": "55.1214", "longitude": "9.5554"}, {"country_code": "DK", "postal_code": "6230", "place_name": "R\u00f8dekro", "latitude": "55.072", "longitude": "9.3241"}, {"country_code": "DK", "postal_code": "6330", "place_name": "Padborg", "latitude": "54.8367", "longitude": "9.3538"}, {"country_code": "DK", "postal_code": "6340", "place_name": "Krus\u00e5", "latitude": "54.858", "longitude": "9.4359"}, {"country_code": "DK", "postal_code": "6360", "place_name": "Tinglev", "latitude": "54.9316", "longitude": "9.2426"}, {"country_code": "DK", "postal_code": "6372", "place_name": "Bylderup-Bov", "latitude": "54.9577", "longitude": "9.1024"}, {"country_code": "DK", "postal_code": "6392", "place_name": "Bolderslev", "latitude": "54.9917", "longitude": "9.2719"}, {"country_code": "DK", "postal_code": "7000", "place_name": "Fredericia", "latitude": "55.5618", "longitude": "9.7151"}, {"country_code": "DK", "postal_code": "6000", "place_name": "Kolding", "latitude": "55.4924", "longitude": "9.4798"}, {"country_code": "DK", "postal_code": "6051", "place_name": "Almind", "latitude": "55.5629", "longitude": "9.4824"}, {"country_code": "DK", "postal_code": "6052", "place_name": "Viuf", "latitude": "55.5882", "longitude": "9.4914"}, {"country_code": "DK", "postal_code": "6064", "place_name": "Jordrup", "latitude": "55.5509", "longitude": "9.3138"}, {"country_code": "DK", "postal_code": "6070", "place_name": "Christiansfeld", "latitude": "55.3609", "longitude": "9.4699"}, {"country_code": "DK", "postal_code": "6091", "place_name": "Bjert", "latitude": "55.4528", "longitude": "9.5657"}, {"country_code": "DK", "postal_code": "6092", "place_name": "S\u00f8nder Stenderup", "latitude": "55.4581", "longitude": "9.6225"}, {"country_code": "DK", "postal_code": "6093", "place_name": "Sj\u00f8lund", "latitude": "55.4074", "longitude": "9.5588"}, {"country_code": "DK", "postal_code": "6094", "place_name": "Hejls", "latitude": "55.3733", "longitude": "9.5986"}, {"country_code": "DK", "postal_code": "6580", "place_name": "Vamdrup", "latitude": "55.4235", "longitude": "9.3053"}, {"country_code": "DK", "postal_code": "6640", "place_name": "Lunderskov", "latitude": "55.4831", "longitude": "9.3079"}, {"country_code": "DK", "postal_code": "6040", "place_name": "Egtved", "latitude": "55.61", "longitude": "9.3509"}, {"country_code": "DK", "postal_code": "7080", "place_name": "B\u00f8rkop", "latitude": "55.6471", "longitude": "9.6723"}, {"country_code": "DK", "postal_code": "7100", "place_name": "Vejle", "latitude": "55.7042", "longitude": "9.5245"}, {"country_code": "DK", "postal_code": "7120", "place_name": "Vejle \u00d8st", "latitude": "55.7229", "longitude": "9.6142"}, {"country_code": "DK", "postal_code": "7173", "place_name": "Vonge", "latitude": "55.8628", "longitude": "9.4181"}, {"country_code": "DK", "postal_code": "7182", "place_name": "Bredsten", "latitude": "55.7049", "longitude": "9.3603"}, {"country_code": "DK", "postal_code": "7183", "place_name": "Randb\u00f8l", "latitude": "55.687", "longitude": "9.2611"}, {"country_code": "DK", "postal_code": "7184", "place_name": "Vandel", "latitude": "55.7109", "longitude": "9.2101"}, {"country_code": "DK", "postal_code": "7300", "place_name": "Jelling", "latitude": "55.7642", "longitude": "9.425"}, {"country_code": "DK", "postal_code": "7321", "place_name": "Gadbjerg", "latitude": "55.7698", "longitude": "9.3054"}, {"country_code": "DK", "postal_code": "7323", "place_name": "Give", "latitude": "55.8507", "longitude": "9.25"}, {"country_code": "DK", "postal_code": "9100", "place_name": "Aalborg", "latitude": "57.048", "longitude": "9.9187"}, {"country_code": "DK", "postal_code": "8100", "place_name": "Aarhus C", "latitude": "56.1567", "longitude": "10.2108"}, {"country_code": "DK", "postal_code": "8245", "place_name": "Risskov \u00d8", "latitude": "56.1972", "longitude": "10.248"}, {"country_code": "DK", "postal_code": "5100", "place_name": "Odense C", "latitude": "55.3959", "longitude": "10.3883"}, {"country_code": "DK", "postal_code": "6701", "place_name": "Esbjerg", "latitude": "55.4703", "longitude": "8.4519"}, {"country_code": "DK", "postal_code": "7007", "place_name": "Fredericia", "latitude": "55.5657", "longitude": "9.7526"}, {"country_code": "DK", "postal_code": "0900", "place_name": "K\u00f8benhavn C", "latitude": "57.048", "longitude": "9.9187"}, {"country_code": "DK", "postal_code": "0960", "place_name": "Udland", "latitude": "56.804", "longitude": "9.5144"}, {"country_code": "DK", "postal_code": "0999", "place_name": "K\u00f8benhavn C", "latitude": "57.7209", "longitude": "10.5839"}, {"country_code": "DK", "postal_code": "1001", "place_name": "K\u00f8benhavn K", "latitude": "55.6759", "longitude": "12.5655"}, {"country_code": "DK", "postal_code": "1002", "place_name": "K\u00f8benhavn K", "latitude": "55.6759", "longitude": "12.5655"}, {"country_code": "DK", "postal_code": "1003", "place_name": "K\u00f8benhavn K", "latitude": "55.6759", "longitude": "12.5655"}, {"country_code": "DK", "postal_code": "1004", "place_name": "K\u00f8benhavn K", "latitude": "55.6759", "longitude": "12.5655"}, {"country_code": "DK", "postal_code": "1005", "place_name": "K\u00f8benhavn K", "latitude": "55.6759", "longitude": "12.5655"}, {"country_code": "DK", "postal_code": "1006", "place_name": "K\u00f8benhavn K", "latitude": "55.6759", "longitude": "12.5655"}, {"country_code": "DK", "postal_code": "1007", "place_name": "K\u00f8benhavn K", "latitude": "55.6759", "longitude": "12.5655"}, {"country_code": "DK", "postal_code": "1008", "place_name": "K\u00f8benhavn K", "latitude": "55.6759", "longitude": "12.5655"}, {"country_code": "DK", "postal_code": "1009", "place_name": "K\u00f8benhavn K", "latitude": "55.6759", "longitude": "12.5655"}, {"country_code": "DK", "postal_code": "1010", "place_name": "K\u00f8benhavn K", "latitude": "55.6759", "longitude": "12.5655"}, {"country_code": "DK", "postal_code": "1011", "place_name": "K\u00f8benhavn K", "latitude": "55.6759", "longitude": "12.5655"}, {"country_code": "DK", "postal_code": "1012", "place_name": "K\u00f8benhavn K", "latitude": "55.6759", "longitude": "12.5655"}, {"country_code": "DK", "postal_code": "1013", "place_name": "K\u00f8benhavn K", "latitude": "55.6759", "longitude": "12.5655"}, {"country_code": "DK", "postal_code": "1014", "place_name": "K\u00f8benhavn K", "latitude": "55.6759", "longitude": "12.5655"}, {"country_code": "DK", "postal_code": "1015", "place_name": "K\u00f8benhavn K", "latitude": "55.6759", "longitude": "12.5655"}, {"country_code": "DK", "postal_code": "1016", "place_name": "K\u00f8benhavn K", "latitude": "55.6759", "longitude": "12.5655"}, {"country_code": "DK", "postal_code": "1017", "place_name": "K\u00f8benhavn K", "latitude": "55.6759", "longitude": "12.5655"}, {"country_code": "DK", "postal_code": "1018", "place_name": "K\u00f8benhavn K", "latitude": "55.6759", "longitude": "12.5655"}, {"country_code": "DK", "postal_code": "1019", "place_name": "K\u00f8benhavn K", "latitude": "55.6759", "longitude": "12.5655"}, {"country_code": "DK", "postal_code": "1020", "place_name": "K\u00f8benhavn K", "latitude": "55.6759", "longitude": "12.5655"}, {"country_code": "DK", "postal_code": "1021", "place_name": "K\u00f8benhavn K", "latitude": "55.6759", "longitude": "12.5655"}, {"country_code": "DK", "postal_code": "1022", "place_name": "K\u00f8benhavn K", "latitude": "55.6759", "longitude": "12.5655"}, {"country_code": "DK", "postal_code": "1023", "place_name": "K\u00f8benhavn K", "latitude": "55.6759", "longitude": "12.5655"}, {"country_code": "DK", "postal_code": "1024", "place_name": "K\u00f8benhavn K", "latitude": "55.6759", "longitude": "12.5655"}, {"country_code": "DK", "postal_code": "1025", "place_name": "K\u00f8benhavn K", "latitude": "55.6759", "longitude": "12.5655"}, {"country_code": "DK", "postal_code": "1026", "place_name": "K\u00f8benhavn K", "latitude": "55.6759", "longitude": "12.5655"}, {"country_code": "DK", "postal_code": "1092", "place_name": "K\u00f8benhavn K", "latitude": "55.6759", "longitude": "12.5655"}, {"country_code": "DK", "postal_code": "1093", "place_name": "K\u00f8benhavn K", "latitude": "55.6759", "longitude": "12.5655"}, {"country_code": "DK", "postal_code": "1095", "place_name": "K\u00f8benhavn K", "latitude": "55.6759", "longitude": "12.5655"}, {"country_code": "DK", "postal_code": "1098", "place_name": "K\u00f8benhavn K", "latitude": "55.6759", "longitude": "12.5655"}, {"country_code": "DK", "postal_code": "1140", "place_name": "K\u00f8benhavn K", "latitude": "55.6759", "longitude": "12.5655"}, {"country_code": "DK", "postal_code": "1147", "place_name": "K\u00f8benhavn K", "latitude": "55.6759", "longitude": "12.5655"}, {"country_code": "DK", "postal_code": "1148", "place_name": "K\u00f8benhavn K", "latitude": "55.6759", "longitude": "12.5655"}, {"country_code": "DK", "postal_code": "1217", "place_name": "K\u00f8benhavn K", "latitude": "55.6759", "longitude": "12.5655"}, {"country_code": "DK", "postal_code": "1240", "place_name": "K\u00f8benhavn K", "latitude": "55.6759", "longitude": "12.5655"}, {"country_code": "DK", "postal_code": "1448", "place_name": "K\u00f8benhavn K", "latitude": "55.6759", "longitude": "12.5655"}, {"country_code": "DK", "postal_code": "1500", "place_name": "K\u00f8benhavn V", "latitude": "55.6759", "longitude": "12.5655"}, {"country_code": "DK", "postal_code": "1501", "place_name": "K\u00f8benhavn V", "latitude": "55.6759", "longitude": "12.5655"}, {"country_code": "DK", "postal_code": "1502", "place_name": "K\u00f8benhavn V", "latitude": "55.6759", "longitude": "12.5655"}, {"country_code": "DK", "postal_code": "1503", "place_name": "K\u00f8benhavn V", "latitude": "55.6759", "longitude": "12.5655"}, {"country_code": "DK", "postal_code": "1504", "place_name": "K\u00f8benhavn V", "latitude": "55.6759", "longitude": "12.5655"}, {"country_code": "DK", "postal_code": "1505", "place_name": "K\u00f8benhavn V", "latitude": "55.6759", "longitude": "12.5655"}, {"country_code": "DK", "postal_code": "1506", "place_name": "K\u00f8benhavn V", "latitude": "55.6759", "longitude": "12.5655"}, {"country_code": "DK", "postal_code": "1507", "place_name": "K\u00f8benhavn V", "latitude": "55.6759", "longitude": "12.5655"}, {"country_code": "DK", "postal_code": "1508", "place_name": "K\u00f8benhavn V", "latitude": "55.6759", "longitude": "12.5655"}, {"country_code": "DK", "postal_code": "1509", "place_name": "K\u00f8benhavn V", "latitude": "55.6759", "longitude": "12.5655"}, {"country_code": "DK", "postal_code": "1510", "place_name": "K\u00f8benhavn V", "latitude": "55.6759", "longitude": "12.5655"}, {"country_code": "DK", "postal_code": "1513", "place_name": "Centraltastning", "latitude": "55.6711", "longitude": "12.5653"}, {"country_code": "DK", "postal_code": "1592", "place_name": "K\u00f8benhavn V", "latitude": "55.6759", "longitude": "12.5655"}, {"country_code": "DK", "postal_code": "1599", "place_name": "K\u00f8benhavn V", "latitude": "55.6759", "longitude": "12.5655"}, {"country_code": "DK", "postal_code": "1630", "place_name": "K\u00f8benhavn V", "latitude": "55.6759", "longitude": "12.5655"}, {"country_code": "DK", "postal_code": "1780", "place_name": "K\u00f8benhavn V", "latitude": "55.6759", "longitude": "12.5655"}, {"country_code": "DK", "postal_code": "1785", "place_name": "K\u00f8benhavn V", "latitude": "55.6759", "longitude": "12.5655"}, {"country_code": "DK", "postal_code": "1786", "place_name": "K\u00f8benhavn V", "latitude": "55.6759", "longitude": "12.5655"}, {"country_code": "DK", "postal_code": "1787", "place_name": "K\u00f8benhavn V", "latitude": "55.6759", "longitude": "12.5655"}, {"country_code": "DK", "postal_code": "1790", "place_name": "K\u00f8benhavn V", "latitude": "55.6759", "longitude": "12.5655"}, {"country_code": "DK", "postal_code": "1835", "place_name": "Frederiksberg C", "latitude": "55.6794", "longitude": "12.5346"}, {"country_code": "DK", "postal_code": "0917", "place_name": "K\u00f8benhavns Pakkecent", "latitude": "55.6759", "longitude": "12.5655"}, {"country_code": "DK", "postal_code": "0800", "place_name": "H\u00f8je Taastrup", "latitude": "55.6471", "longitude": "12.2742"}, {"country_code": "DK", "postal_code": "1532", "place_name": "K\u00f8benhavn V", "latitude": "55.6759", "longitude": "12.5655"}, {"country_code": "DK", "postal_code": "1533", "place_name": "K\u00f8benhavn V", "latitude": "55.6759", "longitude": "12.5655"}]