[{"country_code": "DO", "postal_code": "10101", "place_name": "Centro de Los Heroes", "latitude": "18.6881", "longitude": "-69.9905"}, {"country_code": "DO", "postal_code": "10102", "place_name": "Mata Hambre", "latitude": "18.45", "longitude": "-69.9333"}, {"country_code": "DO", "postal_code": "10103", "place_name": "Zona Universitaria", "latitude": "18.6881", "longitude": "-69.9905"}, {"country_code": "DO", "postal_code": "10104", "place_name": "San Geronimo", "latitude": "18.7667", "longitude": "-69.4667"}, {"country_code": "DO", "postal_code": "10105", "place_name": "Ciudad Universitaria", "latitude": "18.6881", "longitude": "-69.9905"}, {"country_code": "DO", "postal_code": "10106", "place_name": "Los Robles", "latitude": "19.4333", "longitude": "-70.4"}, {"country_code": "DO", "postal_code": "10107", "place_name": "El Vergel", "latitude": "18.45", "longitude": "-70.0833"}, {"country_code": "DO", "postal_code": "10107", "place_name": "Esperilla", "latitude": "18.45", "longitude": "-70.0833"}, {"country_code": "DO", "postal_code": "10108", "place_name": "Esperilla", "latitude": "18.45", "longitude": "-70.0833"}, {"country_code": "DO", "postal_code": "10108", "place_name": "El Manguito", "latitude": "18.8", "longitude": "-70.0333"}, {"country_code": "DO", "postal_code": "10109", "place_name": "La Julia", "latitude": "18.4667", "longitude": "-69.9333"}, {"country_code": "DO", "postal_code": "10110", "place_name": "El Embajador", "latitude": "18.45", "longitude": "-69.9333"}, {"country_code": "DO", "postal_code": "10111", "place_name": "Bella Vista", "latitude": "18.45", "longitude": "-69.9333"}, {"country_code": "DO", "postal_code": "10112", "place_name": "Bella Vista", "latitude": "18.45", "longitude": "-69.9333"}, {"country_code": "DO", "postal_code": "10113", "place_name": "Sarasota", "latitude": "18.45", "longitude": "-69.9333"}, {"country_code": "DO", "postal_code": "10114", "place_name": "Mirador Norte", "latitude": "18.45", "longitude": "-69.9333"}, {"country_code": "DO", "postal_code": "10115", "place_name": "El Portal", "latitude": "18.45", "longitude": "-69.9333"}, {"country_code": "DO", "postal_code": "10115", "place_name": "Atala", "latitude": "18.45", "longitude": "-69.9333"}, {"country_code": "DO", "postal_code": "10115", "place_name": "Rocamar", "latitude": "18.45", "longitude": "-69.9333"}, {"country_code": "DO", "postal_code": "10116", "place_name": "Ciudad Gandera", "latitude": "18.45", "longitude": "-69.9333"}, {"country_code": "DO", "postal_code": "10116", "place_name": "30 de Mayo", "latitude": "18.45", "longitude": "-69.9333"}, {"country_code": "DO", "postal_code": "10117", "place_name": "Hoduras", "latitude": "18.45", "longitude": "-69.9333"}, {"country_code": "DO", "postal_code": "10117", "place_name": "Ensanche La Paz", "latitude": "18.45", "longitude": "-69.9333"}, {"country_code": "DO", "postal_code": "10118", "place_name": "Costa Brava", "latitude": "18.45", "longitude": "-69.9333"}, {"country_code": "DO", "postal_code": "10118", "place_name": "Los Arrecifes", "latitude": "18.45", "longitude": "-69.9333"}, {"country_code": "DO", "postal_code": "10118", "place_name": "El Cacique", "latitude": "18.45", "longitude": "-69.9333"}, {"country_code": "DO", "postal_code": "10118", "place_name": "Antillas", "latitude": "18.45", "longitude": "-69.9333"}, {"country_code": "DO", "postal_code": "10119", "place_name": "Naco", "latitude": "18.45", "longitude": "-69.9333"}, {"country_code": "DO", "postal_code": "10120", "place_name": "La Yuca", "latitude": "18.4833", "longitude": "-69.9833"}, {"country_code": "DO", "postal_code": "10121", "place_name": "Arboleda (Naco)", "latitude": "18.4667", "longitude": "-69.7833"}, {"country_code": "DO", "postal_code": "10122", "place_name": "Naco", "latitude": "18.4667", "longitude": "-69.7833"}, {"country_code": "DO", "postal_code": "10122", "place_name": "Centro Olimpico", "latitude": "18.4667", "longitude": "-69.7833"}, {"country_code": "DO", "postal_code": "10123", "place_name": "Naco", "latitude": "18.4667", "longitude": "-69.7833"}, {"country_code": "DO", "postal_code": "10124", "place_name": "Naco", "latitude": "18.4667", "longitude": "-69.7833"}, {"country_code": "DO", "postal_code": "10125", "place_name": "Lopez de Vega", "latitude": "18.4667", "longitude": "-69.7833"}, {"country_code": "DO", "postal_code": "10126", "place_name": "Paraiso", "latitude": "18.45", "longitude": "-69.4167"}, {"country_code": "DO", "postal_code": "10127", "place_name": "Piantini", "latitude": "18.4667", "longitude": "-69.95"}, {"country_code": "DO", "postal_code": "10128", "place_name": "Carmelita", "latitude": "18.4667", "longitude": "-69.7833"}, {"country_code": "DO", "postal_code": "10129", "place_name": "Urbanizacion Fernandez", "latitude": "18.4667", "longitude": "-69.7833"}, {"country_code": "DO", "postal_code": "10130", "place_name": "Julieta Morales", "latitude": "18.55", "longitude": "-69.8125"}, {"country_code": "DO", "postal_code": "10130", "place_name": "Los Praditos", "latitude": "18.55", "longitude": "-69.8125"}, {"country_code": "DO", "postal_code": "10131", "place_name": "Los Prados", "latitude": "18.4667", "longitude": "-69.95"}, {"country_code": "DO", "postal_code": "10132", "place_name": "Los Prados", "latitude": "18.4667", "longitude": "-69.95"}, {"country_code": "DO", "postal_code": "10133", "place_name": "Castellana", "latitude": "18.55", "longitude": "-69.8125"}, {"country_code": "DO", "postal_code": "10134", "place_name": "San Geronimo", "latitude": "18.7667", "longitude": "-69.4667"}, {"country_code": "DO", "postal_code": "10135", "place_name": "Urb. Las Praderas", "latitude": "18.55", "longitude": "-69.8125"}, {"country_code": "DO", "postal_code": "10135", "place_name": "Encarnacion", "latitude": "18.55", "longitude": "-69.8125"}, {"country_code": "DO", "postal_code": "10135", "place_name": "Ciudad Moderna", "latitude": "18.55", "longitude": "-69.8125"}, {"country_code": "DO", "postal_code": "10136", "place_name": "Residencial Rosmil", "latitude": "18.55", "longitude": "-69.8125"}, {"country_code": "DO", "postal_code": "10137", "place_name": "Los Restauradores", "latitude": "18.55", "longitude": "-69.8125"}, {"country_code": "DO", "postal_code": "10138", "place_name": "Manganagua", "latitude": "18.5", "longitude": "-69.8833"}, {"country_code": "DO", "postal_code": "10139", "place_name": "Los Millones", "latitude": "18.55", "longitude": "-69.8125"}, {"country_code": "DO", "postal_code": "10140", "place_name": "Los Millones", "latitude": "18.4556", "longitude": "-69.95"}, {"country_code": "DO", "postal_code": "10141", "place_name": "Los Millones", "latitude": "18.4556", "longitude": "-69.95"}, {"country_code": "DO", "postal_code": "10142", "place_name": "Los Millones", "latitude": "18.4556", "longitude": "-69.95"}, {"country_code": "DO", "postal_code": "10143", "place_name": "Estela Marina ( Los Millones).", "latitude": "18.4556", "longitude": "-69.95"}, {"country_code": "DO", "postal_code": "10144", "place_name": "Los Millones", "latitude": "18.4556", "longitude": "-69.95"}, {"country_code": "DO", "postal_code": "10145", "place_name": "Ensanche Quisqueya", "latitude": "18.45", "longitude": "-69.95"}, {"country_code": "DO", "postal_code": "10146", "place_name": "Ensanche Quisqueya", "latitude": "18.45", "longitude": "-69.95"}, {"country_code": "DO", "postal_code": "10147", "place_name": "Evaristo Morales", "latitude": "18.4556", "longitude": "-69.95"}, {"country_code": "DO", "postal_code": "10148", "place_name": "Piantini", "latitude": "18.4667", "longitude": "-69.95"}, {"country_code": "DO", "postal_code": "10149", "place_name": "El Millon", "latitude": "18.4556", "longitude": "-69.95"}, {"country_code": "DO", "postal_code": "10150", "place_name": "Piantini", "latitude": "18.4667", "longitude": "-69.95"}, {"country_code": "DO", "postal_code": "10201", "place_name": "Don Bosco", "latitude": "18.4667", "longitude": "-69.9"}, {"country_code": "DO", "postal_code": "10202", "place_name": "Don Bosco", "latitude": "18.4667", "longitude": "-69.9"}, {"country_code": "DO", "postal_code": "10203", "place_name": "Miraflores", "latitude": "18.4667", "longitude": "-69.9"}, {"country_code": "DO", "postal_code": "10204", "place_name": "Gazcue ( Plaza de La Cultura )", "latitude": "18.4667", "longitude": "-69.9"}, {"country_code": "DO", "postal_code": "10205", "place_name": "Gazcue", "latitude": "18.4667", "longitude": "-69.9"}, {"country_code": "DO", "postal_code": "10206", "place_name": "Ensanche Independencia", "latitude": "18.4667", "longitude": "-69.9"}, {"country_code": "DO", "postal_code": "10207", "place_name": "La Primavera", "latitude": "18.4667", "longitude": "-69.9"}, {"country_code": "DO", "postal_code": "10208", "place_name": "Ciudad Nueva", "latitude": "18.4667", "longitude": "-69.9"}, {"country_code": "DO", "postal_code": "10209", "place_name": "Ensanche Lugo", "latitude": "18.4667", "longitude": "-69.9"}, {"country_code": "DO", "postal_code": "10210", "place_name": "Zona Colonial", "latitude": "18.5917", "longitude": "-69.8944"}, {"country_code": "DO", "postal_code": "10211", "place_name": "San Lazaro", "latitude": "18.5917", "longitude": "-69.8944"}, {"country_code": "DO", "postal_code": "10212", "place_name": "San Miguel", "latitude": "18.5", "longitude": "-70.0167"}, {"country_code": "DO", "postal_code": "10213", "place_name": "Borojol", "latitude": "19.15", "longitude": "-69.75"}, {"country_code": "DO", "postal_code": "10214", "place_name": "Villa Francisca", "latitude": "18.4667", "longitude": "-69.9"}, {"country_code": "DO", "postal_code": "10215", "place_name": "Villa Francisca", "latitude": "18.4667", "longitude": "-69.9"}, {"country_code": "DO", "postal_code": "10216", "place_name": "San Carlos", "latitude": "18.4833", "longitude": "-69.9"}, {"country_code": "DO", "postal_code": "10217", "place_name": "San Carlos", "latitude": "18.4833", "longitude": "-69.9"}, {"country_code": "DO", "postal_code": "10218", "place_name": "Reparto Aguedita ( Gazcue)", "latitude": "18.5917", "longitude": "-69.8944"}, {"country_code": "DO", "postal_code": "10301", "place_name": "Mejoramiento Social", "latitude": "18.5985", "longitude": "-70.0136"}, {"country_code": "DO", "postal_code": "10302", "place_name": "San Martin de Porres", "latitude": "18.5", "longitude": "-69.8833"}, {"country_code": "DO", "postal_code": "10302", "place_name": "La Fuente", "latitude": "18.4833", "longitude": "-69.8833"}, {"country_code": "DO", "postal_code": "10302", "place_name": "Maria Auxiliadora", "latitude": "18.5", "longitude": "-69.8833"}, {"country_code": "DO", "postal_code": "10302", "place_name": "Guachupita", "latitude": "18.75", "longitude": "-69.4"}, {"country_code": "DO", "postal_code": "10303", "place_name": "La Cienaga", "latitude": "18.6167", "longitude": "-70.2333"}, {"country_code": "DO", "postal_code": "10304", "place_name": "Los Guandules", "latitude": "19.2833", "longitude": "-71.4"}, {"country_code": "DO", "postal_code": "10304", "place_name": "Domingo Savio", "latitude": "19.2833", "longitude": "-71.4"}, {"country_code": "DO", "postal_code": "10305", "place_name": "27 de Febrero", "latitude": "18.5", "longitude": "-69.8833"}, {"country_code": "DO", "postal_code": "10305", "place_name": "Agua Dulce", "latitude": "18.5", "longitude": "-69.8833"}, {"country_code": "DO", "postal_code": "10305", "place_name": "Maria Auxiliadora", "latitude": "18.5", "longitude": "-69.8833"}, {"country_code": "DO", "postal_code": "10306", "place_name": "Mejoramiento Social", "latitude": "18.5985", "longitude": "-70.0136"}, {"country_code": "DO", "postal_code": "10307", "place_name": "Villa Maria", "latitude": "18.4833", "longitude": "-69.9"}, {"country_code": "DO", "postal_code": "10308", "place_name": "Villa Consuelo", "latitude": "18.4833", "longitude": "-69.9"}, {"country_code": "DO", "postal_code": "10309", "place_name": "Villa Consuelo", "latitude": "18.4833", "longitude": "-69.9"}, {"country_code": "DO", "postal_code": "10401", "place_name": "Ensanche Luperon", "latitude": "18.5", "longitude": "-69.9"}, {"country_code": "DO", "postal_code": "10402", "place_name": "Ensanche Espaillat", "latitude": "18.5", "longitude": "-69.8833"}, {"country_code": "DO", "postal_code": "10403", "place_name": "Gualey", "latitude": "18.5", "longitude": "-69.9167"}, {"country_code": "DO", "postal_code": "10404", "place_name": "24 de Abril", "latitude": "18.5", "longitude": "-69.9167"}, {"country_code": "DO", "postal_code": "10405", "place_name": "Simon Bolivar", "latitude": "18.5", "longitude": "-69.9"}, {"country_code": "DO", "postal_code": "10406", "place_name": "Ensanche Luperon", "latitude": "18.5", "longitude": "-69.9"}, {"country_code": "DO", "postal_code": "10407", "place_name": "Capotillo", "latitude": "18.5", "longitude": "-69.9"}, {"country_code": "DO", "postal_code": "10408", "place_name": "La Zurza", "latitude": "18.5", "longitude": "-70.0167"}, {"country_code": "DO", "postal_code": "10409", "place_name": "Villas Agricolas", "latitude": "18.5", "longitude": "-69.9167"}, {"country_code": "DO", "postal_code": "10410", "place_name": "La Caridad", "latitude": "18.5", "longitude": "-69.9"}, {"country_code": "DO", "postal_code": "10410", "place_name": "Villas Agricolas", "latitude": "18.5", "longitude": "-69.9"}, {"country_code": "DO", "postal_code": "10411", "place_name": "El Ensanchito", "latitude": "18.4833", "longitude": "-69.9"}, {"country_code": "DO", "postal_code": "10412", "place_name": "Villa Juana", "latitude": "18.4917", "longitude": "-69.9"}, {"country_code": "DO", "postal_code": "10413", "place_name": "Villa Juana", "latitude": "18.4917", "longitude": "-69.9"}, {"country_code": "DO", "postal_code": "10501", "place_name": "El Caliche", "latitude": "18.4833", "longitude": "-69.9833"}, {"country_code": "DO", "postal_code": "10501", "place_name": "Trueva", "latitude": "18.4917", "longitude": "-69.9583"}, {"country_code": "DO", "postal_code": "10501", "place_name": "Cristo Rey", "latitude": "18.5", "longitude": "-69.9333"}, {"country_code": "DO", "postal_code": "10502", "place_name": "Santa Rosa", "latitude": "18.5333", "longitude": "-70.0667"}, {"country_code": "DO", "postal_code": "10502", "place_name": "Las Flores", "latitude": "19.8", "longitude": "-70.7"}, {"country_code": "DO", "postal_code": "10502", "place_name": "Yaquito", "latitude": "19.1944", "longitude": "-70.3889"}, {"country_code": "DO", "postal_code": "10502", "place_name": "La Cuarenta", "latitude": "19.25", "longitude": "-70.4"}, {"country_code": "DO", "postal_code": "10503", "place_name": "La Isabela", "latitude": "18.6667", "longitude": "-70.15"}, {"country_code": "DO", "postal_code": "10503", "place_name": "Parque Isabela", "latitude": "18.6667", "longitude": "-70.15"}, {"country_code": "DO", "postal_code": "10504", "place_name": "Cuesta Hermosa III", "latitude": "18.7218", "longitude": "-70.2474"}, {"country_code": "DO", "postal_code": "10504", "place_name": "Isabel Villas", "latitude": "18.7218", "longitude": "-70.2474"}, {"country_code": "DO", "postal_code": "10504", "place_name": "Cerro de Arroyo Hdo.", "latitude": "18.7218", "longitude": "-70.2474"}, {"country_code": "DO", "postal_code": "10505", "place_name": "La Meseta", "latitude": "18.7667", "longitude": "-70.9"}, {"country_code": "DO", "postal_code": "10505", "place_name": "Manzano", "latitude": "18.5167", "longitude": "-69.9667"}, {"country_code": "DO", "postal_code": "10505", "place_name": "Urb. Puerta de Hierro", "latitude": "18.5083", "longitude": "-70.3292"}, {"country_code": "DO", "postal_code": "10505", "place_name": "Cuesta Brava", "latitude": "18.5083", "longitude": "-70.3292"}, {"country_code": "DO", "postal_code": "10505", "place_name": "Pista de Motocros La Yuca", "latitude": "18.5083", "longitude": "-70.3292"}, {"country_code": "DO", "postal_code": "10505", "place_name": "Arroyo Manzano", "latitude": "18.5083", "longitude": "-70.3292"}, {"country_code": "DO", "postal_code": "10505", "place_name": "Buena Vista", "latitude": "18.3333", "longitude": "-70.2833"}, {"country_code": "DO", "postal_code": "10505", "place_name": "Fundacion", "latitude": "18.4167", "longitude": "-70.1667"}, {"country_code": "DO", "postal_code": "10506", "place_name": "Altos de Arroyo Hondo II", "latitude": "18.7218", "longitude": "-70.2474"}, {"country_code": "DO", "postal_code": "10507", "place_name": "Los Arroyos", "latitude": "18.8167", "longitude": "-70.05"}, {"country_code": "DO", "postal_code": "10507", "place_name": "La Puya", "latitude": "18.8167", "longitude": "-70.05"}, {"country_code": "DO", "postal_code": "10507", "place_name": "Cuesta Hermosa", "latitude": "18.8167", "longitude": "-70.05"}, {"country_code": "DO", "postal_code": "10507", "place_name": "Colinas de Arroyo Hondo", "latitude": "18.8167", "longitude": "-70.05"}, {"country_code": "DO", "postal_code": "10507", "place_name": "Lomas de Arroyo Hondo", "latitude": "18.8167", "longitude": "-70.05"}, {"country_code": "DO", "postal_code": "10508", "place_name": "La Aldaba", "latitude": "18.65", "longitude": "-70.3083"}, {"country_code": "DO", "postal_code": "10508", "place_name": "Los Pinos", "latitude": "18.4", "longitude": "-70.3333"}, {"country_code": "DO", "postal_code": "10508", "place_name": "El Pino", "latitude": "18.9", "longitude": "-70.2833"}, {"country_code": "DO", "postal_code": "10509", "place_name": "La Agustinita", "latitude": "18.7218", "longitude": "-70.2474"}, {"country_code": "DO", "postal_code": "10509", "place_name": "Carmen Amelia", "latitude": "18.7218", "longitude": "-70.2474"}, {"country_code": "DO", "postal_code": "10510", "place_name": "Los Caminos", "latitude": "18.4917", "longitude": "-69.9292"}, {"country_code": "DO", "postal_code": "10510", "place_name": "Viejo Arroyo Hondo", "latitude": "18.4917", "longitude": "-69.9292"}, {"country_code": "DO", "postal_code": "10511", "place_name": "La Fe", "latitude": "18.4833", "longitude": "-69.9333"}, {"country_code": "DO", "postal_code": "10512", "place_name": "La Fe", "latitude": "18.4833", "longitude": "-69.9333"}, {"country_code": "DO", "postal_code": "10513", "place_name": "Ens. Kennedy", "latitude": "18.4917", "longitude": "-69.9292"}, {"country_code": "DO", "postal_code": "10514", "place_name": "Cachiman", "latitude": "18.4917", "longitude": "-69.9292"}, {"country_code": "DO", "postal_code": "10514", "place_name": "Ens. La Fe", "latitude": "18.4917", "longitude": "-69.9292"}, {"country_code": "DO", "postal_code": "10515", "place_name": "Barrio Obrero", "latitude": "18.5", "longitude": "-69.9167"}, {"country_code": "DO", "postal_code": "10516", "place_name": "Lanna Gautier", "latitude": "18.5", "longitude": "-69.9333"}, {"country_code": "DO", "postal_code": "10516", "place_name": "La Agustina", "latitude": "18.5", "longitude": "-69.9333"}, {"country_code": "DO", "postal_code": "10516", "place_name": "La Cementera", "latitude": "18.5", "longitude": "-69.9333"}, {"country_code": "DO", "postal_code": "10601", "place_name": "Constelacion", "latitude": "18.58", "longitude": "-70.6767"}, {"country_code": "DO", "postal_code": "10601", "place_name": "Los Proceres", "latitude": "18.58", "longitude": "-70.6767"}, {"country_code": "DO", "postal_code": "10602", "place_name": "Los Jardines del Norte", "latitude": "18.58", "longitude": "-70.6767"}, {"country_code": "DO", "postal_code": "10603", "place_name": "Las Villas", "latitude": "18.58", "longitude": "-70.6767"}, {"country_code": "DO", "postal_code": "10604", "place_name": "La Esperanza", "latitude": "18.6", "longitude": "-70.5"}, {"country_code": "DO", "postal_code": "10604", "place_name": "Los Rios", "latitude": "18.8667", "longitude": "-71.25"}, {"country_code": "DO", "postal_code": "10605", "place_name": "Cerros de Arroyo Hdo III", "latitude": "18.58", "longitude": "-70.6767"}, {"country_code": "DO", "postal_code": "10605", "place_name": "Altos de Arroyo Hdo. I", "latitude": "18.58", "longitude": "-70.6767"}, {"country_code": "DO", "postal_code": "10605", "place_name": "Altos de Arroyo Hdo. III", "latitude": "18.58", "longitude": "-70.6767"}, {"country_code": "DO", "postal_code": "10606", "place_name": "Residencial La Yuca", "latitude": "18.58", "longitude": "-70.6767"}, {"country_code": "DO", "postal_code": "10606", "place_name": "Colinas del Seminario", "latitude": "18.58", "longitude": "-70.6767"}, {"country_code": "DO", "postal_code": "10607", "place_name": "La Ceiba", "latitude": "18.4333", "longitude": "-70.7833"}, {"country_code": "DO", "postal_code": "10607", "place_name": "Don Honorio", "latitude": "18.5167", "longitude": "-70.65"}, {"country_code": "DO", "postal_code": "10607", "place_name": "Los Guayabos", "latitude": "18.6", "longitude": "-70.5167"}, {"country_code": "DO", "postal_code": "10607", "place_name": "El Condado", "latitude": "18.5167", "longitude": "-70.65"}, {"country_code": "DO", "postal_code": "10607", "place_name": "Villa Claudia", "latitude": "18.5167", "longitude": "-70.65"}, {"country_code": "DO", "postal_code": "10608", "place_name": "Pradera Hermosa", "latitude": "18.4", "longitude": "-70.3333"}, {"country_code": "DO", "postal_code": "10608", "place_name": "Los Pinos", "latitude": "18.4", "longitude": "-70.3333"}, {"country_code": "DO", "postal_code": "10608", "place_name": "Villa Marina", "latitude": "18.4", "longitude": "-70.3333"}, {"country_code": "DO", "postal_code": "10608", "place_name": "Villa Elena", "latitude": "18.4", "longitude": "-70.3333"}, {"country_code": "DO", "postal_code": "10608", "place_name": "Las Colinas", "latitude": "18.4", "longitude": "-70.3333"}, {"country_code": "DO", "postal_code": "10701", "place_name": "La Isabela", "latitude": "18.6667", "longitude": "-70.15"}, {"country_code": "DO", "postal_code": "10701", "place_name": "Colinas del Norte", "latitude": "18.5917", "longitude": "-70.075"}, {"country_code": "DO", "postal_code": "10701", "place_name": "La Redencion", "latitude": "18.5917", "longitude": "-70.075"}, {"country_code": "DO", "postal_code": "10701", "place_name": "Lotificacion Vista Verde", "latitude": "18.5917", "longitude": "-70.075"}, {"country_code": "DO", "postal_code": "10701", "place_name": "Pantoja", "latitude": "18.5167", "longitude": "-70"}, {"country_code": "DO", "postal_code": "10701", "place_name": "Batey Palmarejo", "latitude": "18.5917", "longitude": "-70.075"}, {"country_code": "DO", "postal_code": "10702", "place_name": "Urbanizacion Palma Real", "latitude": "19.15", "longitude": "-70.2833"}, {"country_code": "DO", "postal_code": "10702", "place_name": "Reparto Samaria", "latitude": "19.15", "longitude": "-70.2833"}, {"country_code": "DO", "postal_code": "10702", "place_name": "Los Girasoles", "latitude": "19.15", "longitude": "-70.2833"}, {"country_code": "DO", "postal_code": "10702", "place_name": "Reparto Miguelina", "latitude": "19.15", "longitude": "-70.2833"}, {"country_code": "DO", "postal_code": "10702", "place_name": "Palma Real", "latitude": "19.15", "longitude": "-70.2833"}, {"country_code": "DO", "postal_code": "10702", "place_name": "Los Peralejos", "latitude": "19.0167", "longitude": "-70"}, {"country_code": "DO", "postal_code": "10702", "place_name": "Los Angeles", "latitude": "19.2833", "longitude": "-70.5667"}, {"country_code": "DO", "postal_code": "10702", "place_name": "Urb. Brisa del Norte", "latitude": "19.15", "longitude": "-70.2833"}, {"country_code": "DO", "postal_code": "10801", "place_name": "Barrio Chavon", "latitude": "19.075", "longitude": "-70.5667"}, {"country_code": "DO", "postal_code": "10801", "place_name": "Invi", "latitude": "19.075", "longitude": "-70.5667"}, {"country_code": "DO", "postal_code": "10801", "place_name": "Lebron", "latitude": "19.075", "longitude": "-70.5667"}, {"country_code": "DO", "postal_code": "10801", "place_name": "Obras Publicas", "latitude": "19.075", "longitude": "-70.5667"}, {"country_code": "DO", "postal_code": "10801", "place_name": "Barrio La Union", "latitude": "19.075", "longitude": "-70.5667"}, {"country_code": "DO", "postal_code": "10801", "place_name": "Barrio La Torre", "latitude": "19.075", "longitude": "-70.5667"}, {"country_code": "DO", "postal_code": "10801", "place_name": "Barrio La Esperanza", "latitude": "19.05", "longitude": "-70.15"}, {"country_code": "DO", "postal_code": "10801", "place_name": "Los Alcarrizos", "latitude": "18.5167", "longitude": "-70.0167"}, {"country_code": "DO", "postal_code": "10801", "place_name": "El Tamarindo", "latitude": "19.1667", "longitude": "-70.3833"}, {"country_code": "DO", "postal_code": "10801", "place_name": "Barrio La Fe", "latitude": "19.5667", "longitude": "-71.7167"}, {"country_code": "DO", "postal_code": "10802", "place_name": "Valle Encantado", "latitude": "19.15", "longitude": "-70.7"}, {"country_code": "DO", "postal_code": "10802", "place_name": "Barrio Landia", "latitude": "19.15", "longitude": "-70.7"}, {"country_code": "DO", "postal_code": "10802", "place_name": "Villa San Felipe", "latitude": "19.15", "longitude": "-70.7"}, {"country_code": "DO", "postal_code": "10802", "place_name": "Los Americanos", "latitude": "19.15", "longitude": "-70.7"}, {"country_code": "DO", "postal_code": "10802", "place_name": "Los Alcarrizos III", "latitude": "19.15", "longitude": "-70.7"}, {"country_code": "DO", "postal_code": "10802", "place_name": "Zona Franca de Los Alcarrizos", "latitude": "19.15", "longitude": "-70.7"}, {"country_code": "DO", "postal_code": "10802", "place_name": "La Compuerta", "latitude": "19.15", "longitude": "-70.7"}, {"country_code": "DO", "postal_code": "10802", "place_name": "La Pi\u00f1ita", "latitude": "19.15", "longitude": "-70.7"}, {"country_code": "DO", "postal_code": "10802", "place_name": "Barrio La Pi\u00f1a", "latitude": "19.15", "longitude": "-70.7"}, {"country_code": "DO", "postal_code": "10802", "place_name": "Los Libertadores", "latitude": "19.15", "longitude": "-70.7"}, {"country_code": "DO", "postal_code": "10802", "place_name": "Barrio Paraiso", "latitude": "19.15", "longitude": "-70.7"}, {"country_code": "DO", "postal_code": "10802", "place_name": "Barrio Gran Poder de Dios", "latitude": "19.15", "longitude": "-70.7"}, {"country_code": "DO", "postal_code": "10803", "place_name": "El Chucho", "latitude": "18.9444", "longitude": "-70.5056"}, {"country_code": "DO", "postal_code": "10803", "place_name": "Varia", "latitude": "18.5", "longitude": "-70.0333"}, {"country_code": "DO", "postal_code": "10803", "place_name": "Urbanizacion Las Mercedes", "latitude": "18.9444", "longitude": "-70.5056"}, {"country_code": "DO", "postal_code": "10803", "place_name": "Barrio Las Mercedes", "latitude": "18.9444", "longitude": "-70.5056"}, {"country_code": "DO", "postal_code": "10803", "place_name": "24 de Abril", "latitude": "19.85", "longitude": "-71.65"}, {"country_code": "DO", "postal_code": "10803", "place_name": "Savica", "latitude": "18.4833", "longitude": "-69.8333"}, {"country_code": "DO", "postal_code": "10804", "place_name": "El Catorce", "latitude": "19.1333", "longitude": "-70.6667"}, {"country_code": "DO", "postal_code": "10804", "place_name": "La Concordia", "latitude": "19.1333", "longitude": "-70.6667"}, {"country_code": "DO", "postal_code": "10804", "place_name": "Villas Naco", "latitude": "19.1333", "longitude": "-70.6667"}, {"country_code": "DO", "postal_code": "10804", "place_name": "Altos del Oeste", "latitude": "19.1333", "longitude": "-70.6667"}, {"country_code": "DO", "postal_code": "10804", "place_name": "La Cienaga", "latitude": "19.1333", "longitude": "-70.6667"}, {"country_code": "DO", "postal_code": "10805", "place_name": "Urb. San Rafael", "latitude": "18.7333", "longitude": "-71.1833"}, {"country_code": "DO", "postal_code": "10805", "place_name": "Nuevo Horizonte", "latitude": "18.7333", "longitude": "-71.1833"}, {"country_code": "DO", "postal_code": "10805", "place_name": "Palmarejito", "latitude": "18.7333", "longitude": "-71.1833"}, {"country_code": "DO", "postal_code": "10805", "place_name": "Puerto Rico", "latitude": "18.7333", "longitude": "-71.1833"}, {"country_code": "DO", "postal_code": "10805", "place_name": "Barrio Progreso", "latitude": "18.7333", "longitude": "-71.1833"}, {"country_code": "DO", "postal_code": "10805", "place_name": "Pueblo Nuevo", "latitude": "18.7333", "longitude": "-71.1833"}, {"country_code": "DO", "postal_code": "10805", "place_name": "Ciudad Codiana", "latitude": "18.7333", "longitude": "-71.1833"}, {"country_code": "DO", "postal_code": "10805", "place_name": "Las Crorias", "latitude": "18.7333", "longitude": "-71.1833"}, {"country_code": "DO", "postal_code": "10805", "place_name": "Barrio Arenoso", "latitude": "18.7333", "longitude": "-71.1833"}, {"country_code": "DO", "postal_code": "10805", "place_name": "Cerros de Palmarejo", "latitude": "18.7333", "longitude": "-71.1833"}, {"country_code": "DO", "postal_code": "10805", "place_name": "Nuevo Amanecer", "latitude": "18.7333", "longitude": "-71.1833"}, {"country_code": "DO", "postal_code": "10901", "place_name": "Urb. Olimpo", "latitude": "18.4833", "longitude": "-69.9833"}, {"country_code": "DO", "postal_code": "10901", "place_name": "Urb. Las Palmas", "latitude": "18.4833", "longitude": "-69.9833"}, {"country_code": "DO", "postal_code": "10901", "place_name": "El Caliche", "latitude": "18.4833", "longitude": "-69.9833"}, {"country_code": "DO", "postal_code": "10901", "place_name": "Villa Aura", "latitude": "18.4833", "longitude": "-69.9833"}, {"country_code": "DO", "postal_code": "10902", "place_name": "Barrio Antillano", "latitude": "18.4867", "longitude": "-70.0133"}, {"country_code": "DO", "postal_code": "10902", "place_name": "Bella Colina", "latitude": "18.4867", "longitude": "-70.0133"}, {"country_code": "DO", "postal_code": "10902", "place_name": "Hato Nuevo", "latitude": "18.4833", "longitude": "-70.0333"}, {"country_code": "DO", "postal_code": "10902", "place_name": "La Venta", "latitude": "18.4833", "longitude": "-69.9667"}, {"country_code": "DO", "postal_code": "10902", "place_name": "Manoguayabo", "latitude": "18.4833", "longitude": "-70"}, {"country_code": "DO", "postal_code": "10902", "place_name": "Buenas Noches", "latitude": "18.4833", "longitude": "-70.05"}, {"country_code": "DO", "postal_code": "10902", "place_name": "Residencial Almendra", "latitude": "18.4867", "longitude": "-70.0133"}, {"country_code": "DO", "postal_code": "10902", "place_name": "Alameda", "latitude": "18.4867", "longitude": "-70.0133"}, {"country_code": "DO", "postal_code": "10902", "place_name": "San Miguel", "latitude": "18.5", "longitude": "-70.0167"}, {"country_code": "DO", "postal_code": "10902", "place_name": "Batey Bienvenido", "latitude": "18.4867", "longitude": "-70.0133"}, {"country_code": "DO", "postal_code": "10902", "place_name": "Residencial Alameda", "latitude": "18.4867", "longitude": "-70.0133"}, {"country_code": "DO", "postal_code": "10902", "place_name": "Villa Peravia", "latitude": "18.4867", "longitude": "-70.0133"}, {"country_code": "DO", "postal_code": "10903", "place_name": "Rivera del Haina", "latitude": "18.4667", "longitude": "-70"}, {"country_code": "DO", "postal_code": "10903", "place_name": "Villa Nazaret", "latitude": "18.4667", "longitude": "-70"}, {"country_code": "DO", "postal_code": "10903", "place_name": "Bayona", "latitude": "18.4667", "longitude": "-70"}, {"country_code": "DO", "postal_code": "10903", "place_name": "Paraiso del Caribe", "latitude": "18.4667", "longitude": "-70"}, {"country_code": "DO", "postal_code": "10904", "place_name": "Engome", "latitude": "18.45", "longitude": "-69.9833"}, {"country_code": "DO", "postal_code": "10904", "place_name": "Ens. Ivan Guzman Klan", "latitude": "18.45", "longitude": "-69.9833"}, {"country_code": "DO", "postal_code": "10904", "place_name": "Residencial Loyola", "latitude": "18.45", "longitude": "-69.9833"}, {"country_code": "DO", "postal_code": "10904", "place_name": "Rosa Maria", "latitude": "18.45", "longitude": "-69.9833"}, {"country_code": "DO", "postal_code": "10904", "place_name": "Lotificacion Engombe", "latitude": "18.45", "longitude": "-69.9833"}, {"country_code": "DO", "postal_code": "10904", "place_name": "El Palmar", "latitude": "18.45", "longitude": "-69.9833"}, {"country_code": "DO", "postal_code": "10904", "place_name": "El Abanico de Herrera", "latitude": "18.45", "longitude": "-69.9833"}, {"country_code": "DO", "postal_code": "10905", "place_name": "Las Caobitas", "latitude": "18.45", "longitude": "-70.4667"}, {"country_code": "DO", "postal_code": "10905", "place_name": "Ciudad Agraria", "latitude": "18.45", "longitude": "-70.4667"}, {"country_code": "DO", "postal_code": "10905", "place_name": "Las Caobas", "latitude": "18.45", "longitude": "-70.4667"}, {"country_code": "DO", "postal_code": "11001", "place_name": "Zona Industrial de Herrera", "latitude": "19.3367", "longitude": "-71.3267"}, {"country_code": "DO", "postal_code": "11002", "place_name": "Barrio Holguin", "latitude": "19.3367", "longitude": "-71.3267"}, {"country_code": "DO", "postal_code": "11002", "place_name": "Barrio Enriquillo", "latitude": "19.3367", "longitude": "-71.3267"}, {"country_code": "DO", "postal_code": "11003", "place_name": "Las Palmas", "latitude": "19.1", "longitude": "-71.6333"}, {"country_code": "DO", "postal_code": "11003", "place_name": "Duarte", "latitude": "19.1", "longitude": "-71.6333"}, {"country_code": "DO", "postal_code": "11003", "place_name": "Juan Pablo Duarte", "latitude": "19.1", "longitude": "-71.6333"}, {"country_code": "DO", "postal_code": "11003", "place_name": "Barrio Buenos Aires", "latitude": "19.1", "longitude": "-71.6333"}, {"country_code": "DO", "postal_code": "11004", "place_name": "La Rosa", "latitude": "19.1333", "longitude": "-71.2833"}, {"country_code": "DO", "postal_code": "11004", "place_name": "Luz Divina", "latitude": "19.3333", "longitude": "-71.45"}, {"country_code": "DO", "postal_code": "11004", "place_name": "Urb. El Rosal", "latitude": "19.3333", "longitude": "-71.45"}, {"country_code": "DO", "postal_code": "11004", "place_name": "San Francisco", "latitude": "19.5333", "longitude": "-71.6167"}, {"country_code": "DO", "postal_code": "11004", "place_name": "Galaxia", "latitude": "19.3333", "longitude": "-71.45"}, {"country_code": "DO", "postal_code": "11005", "place_name": "Barrio Josue", "latitude": "19.4583", "longitude": "-71.05"}, {"country_code": "DO", "postal_code": "11005", "place_name": "Herrera", "latitude": "19.35", "longitude": "-70.3833"}, {"country_code": "DO", "postal_code": "11005", "place_name": "Ens. Paraiso", "latitude": "19.4583", "longitude": "-71.05"}, {"country_code": "DO", "postal_code": "11005", "place_name": "Barrio Libertador", "latitude": "19.5667", "longitude": "-71.7167"}, {"country_code": "DO", "postal_code": "11101", "place_name": "Atlantida", "latitude": "18.65", "longitude": "-69.75"}, {"country_code": "DO", "postal_code": "11101", "place_name": "Barrio Invi", "latitude": "18.65", "longitude": "-69.75"}, {"country_code": "DO", "postal_code": "11101", "place_name": "Aesa", "latitude": "18.65", "longitude": "-69.75"}, {"country_code": "DO", "postal_code": "11101", "place_name": "16 de Agosto", "latitude": "18.65", "longitude": "-69.75"}, {"country_code": "DO", "postal_code": "11102", "place_name": "Costa Caribe", "latitude": "18.825", "longitude": "-69.4417"}, {"country_code": "DO", "postal_code": "11102", "place_name": "Mirador", "latitude": "18.8333", "longitude": "-69.8333"}, {"country_code": "DO", "postal_code": "11102", "place_name": "Buenos Aires del", "latitude": "18.8167", "longitude": "-69.05"}, {"country_code": "DO", "postal_code": "11102", "place_name": "Residencial Jose Contreras", "latitude": "18.825", "longitude": "-69.4417"}, {"country_code": "DO", "postal_code": "11102", "place_name": "Gacela", "latitude": "18.825", "longitude": "-69.4417"}, {"country_code": "DO", "postal_code": "11103", "place_name": "Nordesa III", "latitude": "18.65", "longitude": "-69.75"}, {"country_code": "DO", "postal_code": "11103", "place_name": "Km. 8", "latitude": "18.65", "longitude": "-69.75"}, {"country_code": "DO", "postal_code": "11103", "place_name": "Miramar", "latitude": "18.65", "longitude": "-69.75"}, {"country_code": "DO", "postal_code": "11104", "place_name": "Mar Azul", "latitude": "18.65", "longitude": "-69.75"}, {"country_code": "DO", "postal_code": "11104", "place_name": "Las Acacias", "latitude": "18.65", "longitude": "-69.75"}, {"country_code": "DO", "postal_code": "11105", "place_name": "San Jose", "latitude": "18.5", "longitude": "-69.8167"}, {"country_code": "DO", "postal_code": "11105", "place_name": "Jardines del Sur", "latitude": "18.5", "longitude": "-69.8167"}, {"country_code": "DO", "postal_code": "11105", "place_name": "Tropicana", "latitude": "18.5", "longitude": "-69.8167"}, {"country_code": "DO", "postal_code": "11105", "place_name": "Dominicanos Ausentes", "latitude": "18.5", "longitude": "-69.8167"}, {"country_code": "DO", "postal_code": "11105", "place_name": "Km. 7", "latitude": "18.5", "longitude": "-69.8167"}, {"country_code": "DO", "postal_code": "11106", "place_name": "Resd. Enriquillo", "latitude": "18.5", "longitude": "-70.0167"}, {"country_code": "DO", "postal_code": "11106", "place_name": "Loteria", "latitude": "18.5", "longitude": "-70.0167"}, {"country_code": "DO", "postal_code": "11106", "place_name": "San Miguel", "latitude": "18.5", "longitude": "-70.0167"}, {"country_code": "DO", "postal_code": "11107", "place_name": "Luz Consuelo", "latitude": "18.6", "longitude": "-70.0333"}, {"country_code": "DO", "postal_code": "11107", "place_name": "Sandra", "latitude": "18.6", "longitude": "-70.0333"}, {"country_code": "DO", "postal_code": "11107", "place_name": "El Pedregal", "latitude": "18.6", "longitude": "-70.0333"}, {"country_code": "DO", "postal_code": "11107", "place_name": "Sandra I", "latitude": "18.6", "longitude": "-70.0333"}, {"country_code": "DO", "postal_code": "11108", "place_name": "Los Cacicazgos", "latitude": "18.65", "longitude": "-69.75"}, {"country_code": "DO", "postal_code": "11109", "place_name": "Mirador Sur", "latitude": "18.65", "longitude": "-69.75"}, {"country_code": "DO", "postal_code": "11110", "place_name": "Los Maestros", "latitude": "18.4278", "longitude": "-70"}, {"country_code": "DO", "postal_code": "11111", "place_name": "Renacimiento", "latitude": "18.4278", "longitude": "-70"}, {"country_code": "DO", "postal_code": "11112", "place_name": "Urb. Real", "latitude": "18.4278", "longitude": "-70"}, {"country_code": "DO", "postal_code": "11112", "place_name": "Renacimiento", "latitude": "18.4278", "longitude": "-70"}, {"country_code": "DO", "postal_code": "11113", "place_name": "Zona Industrial de Herrera", "latitude": "18.4278", "longitude": "-70"}, {"country_code": "DO", "postal_code": "11114", "place_name": "Ensanche Altagracia", "latitude": "18.4278", "longitude": "-70"}, {"country_code": "DO", "postal_code": "11114", "place_name": "Res. Santo Domingo", "latitude": "18.4278", "longitude": "-70"}, {"country_code": "DO", "postal_code": "11115", "place_name": "Colinas de Canaan", "latitude": "18.4333", "longitude": "-70"}, {"country_code": "DO", "postal_code": "11115", "place_name": "El Caf\u00e9", "latitude": "18.4333", "longitude": "-70"}, {"country_code": "DO", "postal_code": "11115", "place_name": "Barrio Paraiso", "latitude": "18.4333", "longitude": "-70"}, {"country_code": "DO", "postal_code": "11116", "place_name": "12 de Haina", "latitude": "18.4278", "longitude": "-70"}, {"country_code": "DO", "postal_code": "11116", "place_name": "Residencial Canaan", "latitude": "18.4278", "longitude": "-70"}, {"country_code": "DO", "postal_code": "11116", "place_name": "Villas del Caf\u00e9", "latitude": "18.4278", "longitude": "-70"}, {"country_code": "DO", "postal_code": "11117", "place_name": "La Placeta", "latitude": "18.4333", "longitude": "-70"}, {"country_code": "DO", "postal_code": "11117", "place_name": "Costa Verde", "latitude": "18.4167", "longitude": "-70"}, {"country_code": "DO", "postal_code": "11117", "place_name": "Manresa", "latitude": "18.425", "longitude": "-70"}, {"country_code": "DO", "postal_code": "11117", "place_name": "Costa Azul", "latitude": "18.425", "longitude": "-70"}, {"country_code": "DO", "postal_code": "11117", "place_name": "Puerto de Haina", "latitude": "18.425", "longitude": "-70"}, {"country_code": "DO", "postal_code": "11201", "place_name": "Vista Bella", "latitude": "18.4917", "longitude": "-70.0833"}, {"country_code": "DO", "postal_code": "11201", "place_name": "Villa Satelite", "latitude": "18.4917", "longitude": "-70.0833"}, {"country_code": "DO", "postal_code": "11201", "place_name": "Mara\u00f1on", "latitude": "18.4917", "longitude": "-70.0833"}, {"country_code": "DO", "postal_code": "11201", "place_name": "Jardines de Genovena", "latitude": "18.4917", "longitude": "-70.0833"}, {"country_code": "DO", "postal_code": "11201", "place_name": "Haras Nacionales", "latitude": "18.4917", "longitude": "-70.0833"}, {"country_code": "DO", "postal_code": "11201", "place_name": "Villa Mella", "latitude": "18.55", "longitude": "-69.9"}, {"country_code": "DO", "postal_code": "11201", "place_name": "Rep. Villa Maria", "latitude": "18.4917", "longitude": "-70.0833"}, {"country_code": "DO", "postal_code": "11201", "place_name": "Urb. Sarah Gabriela", "latitude": "18.4917", "longitude": "-70.0833"}, {"country_code": "DO", "postal_code": "11201", "place_name": "Valle Verde", "latitude": "18.4917", "longitude": "-70.0833"}, {"country_code": "DO", "postal_code": "11201", "place_name": "El Mamey", "latitude": "18.4333", "longitude": "-70.2667"}, {"country_code": "DO", "postal_code": "11201", "place_name": "Villa Nueva", "latitude": "18.4917", "longitude": "-70.0833"}, {"country_code": "DO", "postal_code": "11201", "place_name": "Villa Carmela", "latitude": "18.4917", "longitude": "-70.0833"}, {"country_code": "DO", "postal_code": "11202", "place_name": "Mata Los Indios", "latitude": "18.5667", "longitude": "-69.9167"}, {"country_code": "DO", "postal_code": "11202", "place_name": "Ensanche Paraiso", "latitude": "18.5667", "longitude": "-69.9167"}, {"country_code": "DO", "postal_code": "11202", "place_name": "Mara\u00f1on II", "latitude": "18.5667", "longitude": "-69.9167"}, {"country_code": "DO", "postal_code": "11202", "place_name": "Carlos Alvarez", "latitude": "18.5667", "longitude": "-69.9167"}, {"country_code": "DO", "postal_code": "11202", "place_name": "Res. El Dorado", "latitude": "18.5667", "longitude": "-69.9167"}, {"country_code": "DO", "postal_code": "11202", "place_name": "Urb. El Remanso", "latitude": "18.5667", "longitude": "-69.9167"}, {"country_code": "DO", "postal_code": "11203", "place_name": "Urb. Primavera", "latitude": "18", "longitude": "-71.2167"}, {"country_code": "DO", "postal_code": "11203", "place_name": "Barrio Nuevo", "latitude": "18", "longitude": "-71.2167"}, {"country_code": "DO", "postal_code": "11203", "place_name": "Maria Isabela", "latitude": "18", "longitude": "-71.2167"}, {"country_code": "DO", "postal_code": "11203", "place_name": "Colonia de Los Doctores", "latitude": "18", "longitude": "-71.2167"}, {"country_code": "DO", "postal_code": "11204", "place_name": "El Fundo", "latitude": "18.5167", "longitude": "-70.15"}, {"country_code": "DO", "postal_code": "11204", "place_name": "Urb. Santa Cruz", "latitude": "18.6944", "longitude": "-70.3333"}, {"country_code": "DO", "postal_code": "11204", "place_name": "Suriel", "latitude": "18.9667", "longitude": "-70.7"}, {"country_code": "DO", "postal_code": "11204", "place_name": "Los Conucos", "latitude": "18.6", "longitude": "-70.15"}, {"country_code": "DO", "postal_code": "11205", "place_name": "Santa Cruz", "latitude": "18.55", "longitude": "-70.1167"}, {"country_code": "DO", "postal_code": "11205", "place_name": "El Torito", "latitude": "18.7667", "longitude": "-70.45"}, {"country_code": "DO", "postal_code": "11205", "place_name": "Isabela", "latitude": "18.5333", "longitude": "-69.9833"}, {"country_code": "DO", "postal_code": "11205", "place_name": "Zona Industrial de La Isabela", "latitude": "18.6167", "longitude": "-70.1833"}, {"country_code": "DO", "postal_code": "11205", "place_name": "Res. Sol de Luz", "latitude": "18.6167", "longitude": "-70.1833"}, {"country_code": "DO", "postal_code": "11205", "place_name": "Urb. Maximo Gomez", "latitude": "18.6167", "longitude": "-70.1833"}, {"country_code": "DO", "postal_code": "11206", "place_name": "Cerros de Buena Vista II", "latitude": "18.5833", "longitude": "-70.2652"}, {"country_code": "DO", "postal_code": "11206", "place_name": "Cerros de Buena Vista I", "latitude": "18.5833", "longitude": "-70.2652"}, {"country_code": "DO", "postal_code": "11206", "place_name": "De Villa Mella", "latitude": "18.5833", "longitude": "-70.2652"}, {"country_code": "DO", "postal_code": "11206", "place_name": "Zona Industrial de Villa Mella", "latitude": "18.5833", "longitude": "-70.2652"}, {"country_code": "DO", "postal_code": "11206", "place_name": "Ceuta", "latitude": "18.5833", "longitude": "-70.2652"}, {"country_code": "DO", "postal_code": "11207", "place_name": "La Antena", "latitude": "18.9333", "longitude": "-70.0667"}, {"country_code": "DO", "postal_code": "11207", "place_name": "El Eden", "latitude": "18.9333", "longitude": "-70.0667"}, {"country_code": "DO", "postal_code": "11207", "place_name": "Campechito II", "latitude": "18.9333", "longitude": "-70.0667"}, {"country_code": "DO", "postal_code": "11207", "place_name": "Reparto Rudima", "latitude": "18.9333", "longitude": "-70.0667"}, {"country_code": "DO", "postal_code": "11207", "place_name": "La Javilla", "latitude": "18.9333", "longitude": "-70.0667"}, {"country_code": "DO", "postal_code": "11207", "place_name": "Cruz Grande (Villa Mella Y Sabana Perdida )", "latitude": "18.9333", "longitude": "-70.0667"}, {"country_code": "DO", "postal_code": "11207", "place_name": "Radiante", "latitude": "18.9333", "longitude": "-70.0667"}, {"country_code": "DO", "postal_code": "11301", "place_name": "Guaricanos", "latitude": "19.5833", "longitude": "-70.9833"}, {"country_code": "DO", "postal_code": "11301", "place_name": "Nueva Isabela", "latitude": "19.5833", "longitude": "-70.9833"}, {"country_code": "DO", "postal_code": "11301", "place_name": "Barrio Norte", "latitude": "19.5833", "longitude": "-70.9833"}, {"country_code": "DO", "postal_code": "11301", "place_name": "Proyecto Ciudad", "latitude": "19.5833", "longitude": "-70.9833"}, {"country_code": "DO", "postal_code": "11301", "place_name": "Modelo", "latitude": "19.5833", "longitude": "-70.9833"}, {"country_code": "DO", "postal_code": "11302", "place_name": "Jacagua", "latitude": "18.55", "longitude": "-69.95"}, {"country_code": "DO", "postal_code": "11302", "place_name": "Los Casabes", "latitude": "18.5667", "longitude": "-69.95"}, {"country_code": "DO", "postal_code": "11302", "place_name": "Proyecto Bnv", "latitude": "18.3722", "longitude": "-70.3722"}, {"country_code": "DO", "postal_code": "11302", "place_name": "Altos del Parque", "latitude": "18.3722", "longitude": "-70.3722"}, {"country_code": "DO", "postal_code": "11302", "place_name": "Ponce", "latitude": "18.3722", "longitude": "-70.3722"}, {"country_code": "DO", "postal_code": "11302", "place_name": "Barrio Nuevo", "latitude": "18", "longitude": "-71.2167"}, {"country_code": "DO", "postal_code": "11302", "place_name": "Las Palmeras", "latitude": "18.3722", "longitude": "-70.3722"}, {"country_code": "DO", "postal_code": "11302", "place_name": "Barrio Hnas. Mirabal", "latitude": "18.3722", "longitude": "-70.3722"}, {"country_code": "DO", "postal_code": "11401", "place_name": "El Majagual", "latitude": "19.0333", "longitude": "-70.3"}, {"country_code": "DO", "postal_code": "11401", "place_name": "Lotes Y Servicios", "latitude": "19.0333", "longitude": "-70.3"}, {"country_code": "DO", "postal_code": "11402", "place_name": "Barrio Nuevo", "latitude": "18", "longitude": "-71.2167"}, {"country_code": "DO", "postal_code": "11402", "place_name": "Altos de Chavon", "latitude": "18.6222", "longitude": "-71.2111"}, {"country_code": "DO", "postal_code": "11402", "place_name": "Res. Noelia", "latitude": "18.6222", "longitude": "-71.2111"}, {"country_code": "DO", "postal_code": "11402", "place_name": "El Milloncito", "latitude": "18.6222", "longitude": "-71.2111"}, {"country_code": "DO", "postal_code": "11402", "place_name": "Cerros de La Yuca", "latitude": "18.6222", "longitude": "-71.2111"}, {"country_code": "DO", "postal_code": "11402", "place_name": "La Mina", "latitude": "18.4833", "longitude": "-70.7667"}, {"country_code": "DO", "postal_code": "11402", "place_name": "Villa Esperanza", "latitude": "19.3833", "longitude": "-71.65"}, {"country_code": "DO", "postal_code": "11403", "place_name": "Urb. Charles de Gaulle", "latitude": "19.4833", "longitude": "-70.7333"}, {"country_code": "DO", "postal_code": "11403", "place_name": "Los Palmares", "latitude": "19.4833", "longitude": "-70.7333"}, {"country_code": "DO", "postal_code": "11403", "place_name": "Progreso", "latitude": "19.4833", "longitude": "-70.7333"}, {"country_code": "DO", "postal_code": "11403", "place_name": "Libertad", "latitude": "19.4833", "longitude": "-70.7333"}, {"country_code": "DO", "postal_code": "11404", "place_name": "Colinas del Ozama", "latitude": "18.525", "longitude": "-69.8917"}, {"country_code": "DO", "postal_code": "11404", "place_name": "Altos de Sabana Perdida", "latitude": "18.525", "longitude": "-69.8917"}, {"country_code": "DO", "postal_code": "11404", "place_name": "Cerros de Sabana Perdida", "latitude": "18.525", "longitude": "-69.8917"}, {"country_code": "DO", "postal_code": "11404", "place_name": "Sabana Centro", "latitude": "18.525", "longitude": "-69.8917"}, {"country_code": "DO", "postal_code": "11404", "place_name": "Ensanche Cristal", "latitude": "18.525", "longitude": "-69.8917"}, {"country_code": "DO", "postal_code": "11404", "place_name": "Sabana Perdida", "latitude": "18.55", "longitude": "-69.8667"}, {"country_code": "DO", "postal_code": "11404", "place_name": "La Barquita", "latitude": "18.5", "longitude": "-69.9167"}, {"country_code": "DO", "postal_code": "11404", "place_name": "2 de Enero", "latitude": "18.525", "longitude": "-69.8917"}, {"country_code": "DO", "postal_code": "11405", "place_name": "Enrriquillo", "latitude": "18.7762", "longitude": "-70.6357"}, {"country_code": "DO", "postal_code": "11405", "place_name": "Villa Blanca", "latitude": "18.7762", "longitude": "-70.6357"}, {"country_code": "DO", "postal_code": "11405", "place_name": "Los Coordinadores", "latitude": "18.7762", "longitude": "-70.6357"}, {"country_code": "DO", "postal_code": "11405", "place_name": "Loteria", "latitude": "18.7762", "longitude": "-70.6357"}, {"country_code": "DO", "postal_code": "11405", "place_name": "Salome Ure\u00f1a", "latitude": "18.7762", "longitude": "-70.6357"}, {"country_code": "DO", "postal_code": "11501", "place_name": "Ensanche Ozama", "latitude": "18.4833", "longitude": "-69.8667"}, {"country_code": "DO", "postal_code": "11502", "place_name": "Molinuevo", "latitude": "18.7667", "longitude": "-70.3267"}, {"country_code": "DO", "postal_code": "11503", "place_name": "Ens. Alma Rosa (Lado Oeste)", "latitude": "18.7667", "longitude": "-70.3267"}, {"country_code": "DO", "postal_code": "11503", "place_name": "Jardines de Alma Rosa", "latitude": "18.7667", "longitude": "-70.3267"}, {"country_code": "DO", "postal_code": "11504", "place_name": "Ens. Alma Rosa (Lado Este)", "latitude": "18.7667", "longitude": "-70.3267"}, {"country_code": "DO", "postal_code": "11505", "place_name": "Villa Faro", "latitude": "18.5", "longitude": "-69.85"}, {"country_code": "DO", "postal_code": "11506", "place_name": "Alma Rosa II", "latitude": "18.7667", "longitude": "-70.3267"}, {"country_code": "DO", "postal_code": "11506", "place_name": "El Rosal", "latitude": "18.7667", "longitude": "-70.3267"}, {"country_code": "DO", "postal_code": "11506", "place_name": "Urb. Italia", "latitude": "18.7667", "longitude": "-70.3267"}, {"country_code": "DO", "postal_code": "11506", "place_name": "Ivette", "latitude": "18.7667", "longitude": "-70.3267"}, {"country_code": "DO", "postal_code": "11507", "place_name": "Savica", "latitude": "18.4833", "longitude": "-69.8333"}, {"country_code": "DO", "postal_code": "11507", "place_name": "Ralma", "latitude": "18.4833", "longitude": "-69.8333"}, {"country_code": "DO", "postal_code": "11508", "place_name": "Vecinos Unidos", "latitude": "18.6", "longitude": "-70.5"}, {"country_code": "DO", "postal_code": "11508", "place_name": "Paraiso Oriental", "latitude": "18.6", "longitude": "-70.5"}, {"country_code": "DO", "postal_code": "11508", "place_name": "Loteria", "latitude": "18.6", "longitude": "-70.5"}, {"country_code": "DO", "postal_code": "11508", "place_name": "Urb. Amanda", "latitude": "18.6", "longitude": "-70.5"}, {"country_code": "DO", "postal_code": "11508", "place_name": "Franconia", "latitude": "18.6", "longitude": "-70.5"}, {"country_code": "DO", "postal_code": "11508", "place_name": "La Esperanza", "latitude": "18.6", "longitude": "-70.5"}, {"country_code": "DO", "postal_code": "11509", "place_name": "Isabel", "latitude": "19.7667", "longitude": "-71.5833"}, {"country_code": "DO", "postal_code": "11509", "place_name": "Res. Oriente", "latitude": "19.7667", "longitude": "-71.5833"}, {"country_code": "DO", "postal_code": "11509", "place_name": "Bello Campo", "latitude": "19.7667", "longitude": "-71.5833"}, {"country_code": "DO", "postal_code": "11509", "place_name": "Mi Sue\u00f1o", "latitude": "19.7667", "longitude": "-71.5833"}, {"country_code": "DO", "postal_code": "11509", "place_name": "Alpes I", "latitude": "19.7667", "longitude": "-71.5833"}, {"country_code": "DO", "postal_code": "11509", "place_name": "Hamarap", "latitude": "19.7667", "longitude": "-71.5833"}, {"country_code": "DO", "postal_code": "11509", "place_name": "Sol Naciente", "latitude": "19.7667", "longitude": "-71.5833"}, {"country_code": "DO", "postal_code": "11510", "place_name": "Mendoza", "latitude": "18.5", "longitude": "-69.8167"}, {"country_code": "DO", "postal_code": "11510", "place_name": "Res. del Este", "latitude": "18.5", "longitude": "-69.8167"}, {"country_code": "DO", "postal_code": "11510", "place_name": "Mi Hogar", "latitude": "18.5", "longitude": "-69.8167"}, {"country_code": "DO", "postal_code": "11510", "place_name": "El Brisal", "latitude": "18.5", "longitude": "-69.8167"}, {"country_code": "DO", "postal_code": "11510", "place_name": "Carolina", "latitude": "18.5", "longitude": "-69.8167"}, {"country_code": "DO", "postal_code": "11511", "place_name": "Rep. Alma Rosa", "latitude": "18.5", "longitude": "-70.3333"}, {"country_code": "DO", "postal_code": "11511", "place_name": "Las Palmas", "latitude": "18.5", "longitude": "-70.3333"}, {"country_code": "DO", "postal_code": "11512", "place_name": "Mandinga", "latitude": "18.5", "longitude": "-69.8333"}, {"country_code": "DO", "postal_code": "11512", "place_name": "Los Trinitarios", "latitude": "18.5", "longitude": "-69.8333"}, {"country_code": "DO", "postal_code": "11512", "place_name": "Narcisa", "latitude": "18.5", "longitude": "-69.8333"}, {"country_code": "DO", "postal_code": "11512", "place_name": "Cancino II", "latitude": "18.5", "longitude": "-69.8333"}, {"country_code": "DO", "postal_code": "11512", "place_name": "Duarte", "latitude": "18.5", "longitude": "-69.8333"}, {"country_code": "DO", "postal_code": "11512", "place_name": "Cancino I", "latitude": "18.5", "longitude": "-69.8333"}, {"country_code": "DO", "postal_code": "11513", "place_name": "Res. Lomisa", "latitude": "18.5083", "longitude": "-69.9361"}, {"country_code": "DO", "postal_code": "11513", "place_name": "Cabirma del Este I", "latitude": "18.5083", "longitude": "-69.9361"}, {"country_code": "DO", "postal_code": "11514", "place_name": "Res. Idalia A I", "latitude": "18.5083", "longitude": "-69.9361"}, {"country_code": "DO", "postal_code": "11515", "place_name": "Prados del Cachon", "latitude": "18.5", "longitude": "-69.9333"}, {"country_code": "DO", "postal_code": "11515", "place_name": "El Cachon", "latitude": "18.5", "longitude": "-69.9333"}, {"country_code": "DO", "postal_code": "11516", "place_name": "Lucerna", "latitude": "18.5167", "longitude": "-69.85"}, {"country_code": "DO", "postal_code": "11516", "place_name": "Cancino", "latitude": "18.5167", "longitude": "-69.85"}, {"country_code": "DO", "postal_code": "11517", "place_name": "Res. Don Oscar", "latitude": "18.5333", "longitude": "-69.85"}, {"country_code": "DO", "postal_code": "11517", "place_name": "Cancino Adentro", "latitude": "18.5333", "longitude": "-69.85"}, {"country_code": "DO", "postal_code": "11517", "place_name": "Vista Hermosa", "latitude": "18.5333", "longitude": "-69.85"}, {"country_code": "DO", "postal_code": "11517", "place_name": "Colinas del Este", "latitude": "18.5333", "longitude": "-69.85"}, {"country_code": "DO", "postal_code": "11517", "place_name": "El Cachon de La Rubia", "latitude": "18.5333", "longitude": "-69.85"}, {"country_code": "DO", "postal_code": "11518", "place_name": "Res. Amapola", "latitude": "18.5083", "longitude": "-69.9361"}, {"country_code": "DO", "postal_code": "11518", "place_name": "San Pablo II", "latitude": "18.5083", "longitude": "-69.9361"}, {"country_code": "DO", "postal_code": "11519", "place_name": "Altos de Cancino", "latitude": "18.5083", "longitude": "-69.9361"}, {"country_code": "DO", "postal_code": "11601", "place_name": "Pueblo Nuevo", "latitude": "18.4333", "longitude": "-70.1667"}, {"country_code": "DO", "postal_code": "11601", "place_name": "Calero", "latitude": "18.4833", "longitude": "-69.8833"}, {"country_code": "DO", "postal_code": "11602", "place_name": "La Francia", "latitude": "18.4667", "longitude": "-69.8667"}, {"country_code": "DO", "postal_code": "11602", "place_name": "Villa Duarte", "latitude": "18.4833", "longitude": "-69.8667"}, {"country_code": "DO", "postal_code": "11602", "place_name": "Simonico", "latitude": "18.4833", "longitude": "-69.8667"}, {"country_code": "DO", "postal_code": "11603", "place_name": "Los Molinos", "latitude": "18.4722", "longitude": "-69.9167"}, {"country_code": "DO", "postal_code": "11603", "place_name": "San Souci", "latitude": "18.4722", "longitude": "-69.9167"}, {"country_code": "DO", "postal_code": "11603", "place_name": "Parque del Este I", "latitude": "18.4722", "longitude": "-69.9167"}, {"country_code": "DO", "postal_code": "11604", "place_name": "Parque Mirador Este", "latitude": "18.4722", "longitude": "-69.9167"}, {"country_code": "DO", "postal_code": "11604", "place_name": "Faro A Colon", "latitude": "18.4722", "longitude": "-69.9167"}, {"country_code": "DO", "postal_code": "11604", "place_name": "Maquiteria", "latitude": "18.4722", "longitude": "-69.9167"}, {"country_code": "DO", "postal_code": "11604", "place_name": "Res. Parque del Este", "latitude": "18.4722", "longitude": "-69.9167"}, {"country_code": "DO", "postal_code": "11605", "place_name": "Los Tres Ojos", "latitude": "18.4833", "longitude": "-69.85"}, {"country_code": "DO", "postal_code": "11606", "place_name": "Villa Olimpica", "latitude": "18.4722", "longitude": "-69.9167"}, {"country_code": "DO", "postal_code": "11606", "place_name": "Las Americas", "latitude": "18.4722", "longitude": "-69.9167"}, {"country_code": "DO", "postal_code": "11704", "place_name": "Corales del Sur", "latitude": "18.4667", "longitude": "-69.825"}, {"country_code": "DO", "postal_code": "11704", "place_name": "Tropical del Este", "latitude": "18.4667", "longitude": "-69.825"}, {"country_code": "DO", "postal_code": "11704", "place_name": "Res. Teresa", "latitude": "18.4667", "longitude": "-69.825"}, {"country_code": "DO", "postal_code": "11705", "place_name": "Arismar", "latitude": "18.4667", "longitude": "-69.8167"}, {"country_code": "DO", "postal_code": "11705", "place_name": "Los Frailes", "latitude": "18.4667", "longitude": "-69.8167"}, {"country_code": "DO", "postal_code": "11705", "place_name": "Marbella III", "latitude": "18.4667", "longitude": "-69.8167"}, {"country_code": "DO", "postal_code": "11706", "place_name": "Reparto Caribe", "latitude": "18.4667", "longitude": "-69.8333"}, {"country_code": "DO", "postal_code": "11706", "place_name": "Los Frailes II", "latitude": "18.4667", "longitude": "-69.8333"}, {"country_code": "DO", "postal_code": "11706", "place_name": "San Bartolo", "latitude": "18.4667", "longitude": "-69.8333"}, {"country_code": "DO", "postal_code": "11707", "place_name": "Villa Adela", "latitude": "18.4667", "longitude": "-69.825"}, {"country_code": "DO", "postal_code": "11707", "place_name": "Lotificacion del Este", "latitude": "18.4667", "longitude": "-69.825"}, {"country_code": "DO", "postal_code": "11707", "place_name": "Villa Eloisa", "latitude": "18.4667", "longitude": "-69.825"}, {"country_code": "DO", "postal_code": "11708", "place_name": "Mirador Este", "latitude": "18.4667", "longitude": "-69.825"}, {"country_code": "DO", "postal_code": "11801", "place_name": "Issfapol", "latitude": "18.5028", "longitude": "-69.9139"}, {"country_code": "DO", "postal_code": "11801", "place_name": "Los Trinitarios II", "latitude": "18.5028", "longitude": "-69.9139"}, {"country_code": "DO", "postal_code": "11801", "place_name": "Los Molinos", "latitude": "18.5028", "longitude": "-69.9139"}, {"country_code": "DO", "postal_code": "11801", "place_name": "Ana Virginia", "latitude": "18.5028", "longitude": "-69.9139"}, {"country_code": "DO", "postal_code": "11802", "place_name": "Villa Carmen", "latitude": "18.5028", "longitude": "-69.9139"}, {"country_code": "DO", "postal_code": "11802", "place_name": "Rep. Villa Carmen", "latitude": "18.5028", "longitude": "-69.9139"}, {"country_code": "DO", "postal_code": "11802", "place_name": "Trabajadores", "latitude": "18.5028", "longitude": "-69.9139"}, {"country_code": "DO", "postal_code": "11802", "place_name": "Invivienda", "latitude": "18.5028", "longitude": "-69.9139"}, {"country_code": "DO", "postal_code": "11802", "place_name": "Eugenio M. de Hostos", "latitude": "18.5028", "longitude": "-69.9139"}, {"country_code": "DO", "postal_code": "11802", "place_name": "Ciudad de Los Trabajadores", "latitude": "18.5028", "longitude": "-69.9139"}, {"country_code": "DO", "postal_code": "11803", "place_name": "Brisa del Eden", "latitude": "18.5", "longitude": "-69.8167"}, {"country_code": "DO", "postal_code": "11803", "place_name": "Barrio Brisa de Charles", "latitude": "18.5", "longitude": "-69.8167"}, {"country_code": "DO", "postal_code": "11803", "place_name": "San Jose de Mendoza", "latitude": "18.5", "longitude": "-69.8167"}, {"country_code": "DO", "postal_code": "11803", "place_name": "Res. Clarimar", "latitude": "18.5", "longitude": "-69.8167"}, {"country_code": "DO", "postal_code": "11804", "place_name": "Amarilis III", "latitude": "18.5028", "longitude": "-69.9139"}, {"country_code": "DO", "postal_code": "11804", "place_name": "Res. Fernandez Oriental", "latitude": "18.5028", "longitude": "-69.9139"}, {"country_code": "DO", "postal_code": "11804", "place_name": "Nuevo Amanecer", "latitude": "18.5028", "longitude": "-69.9139"}, {"country_code": "DO", "postal_code": "11804", "place_name": "Res. Mirador del Este", "latitude": "18.5028", "longitude": "-69.9139"}, {"country_code": "DO", "postal_code": "11805", "place_name": "Villa Esfuerzo", "latitude": "18.5028", "longitude": "-69.9139"}, {"country_code": "DO", "postal_code": "11805", "place_name": "Los Restauradores", "latitude": "18.5028", "longitude": "-69.9139"}, {"country_code": "DO", "postal_code": "11805", "place_name": "Buena Ventura II", "latitude": "18.5028", "longitude": "-69.9139"}, {"country_code": "DO", "postal_code": "11805", "place_name": "Barrio John F. Kennedy", "latitude": "18.5028", "longitude": "-69.9139"}, {"country_code": "DO", "postal_code": "11806", "place_name": "Zona Franca Industrial de Herrera", "latitude": "18.5028", "longitude": "-69.9139"}, {"country_code": "DO", "postal_code": "11806", "place_name": "Ciudad del Almirante I", "latitude": "18.5028", "longitude": "-69.9139"}, {"country_code": "DO", "postal_code": "11806", "place_name": "Ciudad del Almirante II", "latitude": "18.5028", "longitude": "-69.9139"}, {"country_code": "DO", "postal_code": "11807", "place_name": "Invi Cea", "latitude": "18.4583", "longitude": "-70.0833"}, {"country_code": "DO", "postal_code": "11807", "place_name": "Parque Ind. Nueva Isabela", "latitude": "18.4583", "longitude": "-70.0833"}, {"country_code": "DO", "postal_code": "11807", "place_name": "Los Pinos", "latitude": "18.4", "longitude": "-70.3333"}, {"country_code": "DO", "postal_code": "11807", "place_name": "Urb. Ana T. Balaguer", "latitude": "18.4583", "longitude": "-70.0833"}, {"country_code": "DO", "postal_code": "11807", "place_name": "Hainamosa", "latitude": "18.5167", "longitude": "-69.8333"}, {"country_code": "DO", "postal_code": "11807", "place_name": "Invimosa", "latitude": "18.4583", "longitude": "-70.0833"}, {"country_code": "DO", "postal_code": "11807", "place_name": "Nuevo Renacer", "latitude": "18.4583", "longitude": "-70.0833"}, {"country_code": "DO", "postal_code": "11808", "place_name": "Batey La Balsa", "latitude": "18.5167", "longitude": "-69.2167"}, {"country_code": "DO", "postal_code": "11808", "place_name": "Sabaneta", "latitude": "18.55", "longitude": "-69.8"}, {"country_code": "DO", "postal_code": "11808", "place_name": "Batey Piragua", "latitude": "18.5333", "longitude": "-69.5083"}, {"country_code": "DO", "postal_code": "11809", "place_name": "Cabirma del Este II", "latitude": "18.5333", "longitude": "-70.4833"}, {"country_code": "DO", "postal_code": "11809", "place_name": "Barrio Paraiso", "latitude": "18.5333", "longitude": "-70.4833"}, {"country_code": "DO", "postal_code": "11809", "place_name": "Los Rosales", "latitude": "18.5333", "longitude": "-70.4833"}, {"country_code": "DO", "postal_code": "11809", "place_name": "Residencial Don Oscar", "latitude": "18.5333", "longitude": "-70.4833"}, {"country_code": "DO", "postal_code": "11809", "place_name": "El Tamarindo", "latitude": "18.5333", "longitude": "-70.4833"}, {"country_code": "DO", "postal_code": "11901", "place_name": "Los Mina Sur", "latitude": "18.5667", "longitude": "-68.9167"}, {"country_code": "DO", "postal_code": "11901", "place_name": "Pidoca", "latitude": "18.5667", "longitude": "-68.9167"}, {"country_code": "DO", "postal_code": "11901", "place_name": "La Milagrosa", "latitude": "18.5667", "longitude": "-68.9167"}, {"country_code": "DO", "postal_code": "11902", "place_name": "Vietnan", "latitude": "18.7667", "longitude": "-70.0333"}, {"country_code": "DO", "postal_code": "11902", "place_name": "Felicidad", "latitude": "18.7667", "longitude": "-70.0333"}, {"country_code": "DO", "postal_code": "11902", "place_name": "San Antonio", "latitude": "18.7667", "longitude": "-70.0333"}, {"country_code": "DO", "postal_code": "11903", "place_name": "Katanga", "latitude": "18.7278", "longitude": "-69.3944"}, {"country_code": "DO", "postal_code": "11903", "place_name": "Los Mina Norte", "latitude": "18.7278", "longitude": "-69.3944"}, {"country_code": "DO", "postal_code": "11904", "place_name": "Puerto Rico", "latitude": "18.85", "longitude": "-69.2333"}, {"country_code": "DO", "postal_code": "11904", "place_name": "Cerros del Ozama", "latitude": "18.85", "longitude": "-69.2333"}, {"country_code": "DO", "postal_code": "11904", "place_name": "Las Frutas", "latitude": "18.85", "longitude": "-69.2333"}, {"country_code": "DO", "postal_code": "11904", "place_name": "Rosario Sanchez", "latitude": "18.85", "longitude": "-69.2333"}, {"country_code": "DO", "postal_code": "11904", "place_name": "Francisco del", "latitude": "18.85", "longitude": "-69.2333"}, {"country_code": "DO", "postal_code": "11905", "place_name": "Los 3 Brazos", "latitude": "18.7278", "longitude": "-69.3944"}, {"country_code": "DO", "postal_code": "11905", "place_name": "Mil Flores", "latitude": "18.7278", "longitude": "-69.3944"}, {"country_code": "DO", "postal_code": "11906", "place_name": "Las Enfermeras", "latitude": "18.7278", "longitude": "-69.3944"}, {"country_code": "DO", "postal_code": "11906", "place_name": "Los Mina Viejo", "latitude": "18.7278", "longitude": "-69.3944"}]