[{"country_code": "VI", "postal_code": "00820", "place_name": "Christiansted", "latitude": "17.7342", "longitude": "-64.7347"}, {"country_code": "VI", "postal_code": "00821", "place_name": "Christiansted", "latitude": "17.7342", "longitude": "-64.7347"}, {"country_code": "VI", "postal_code": "00822", "place_name": "Christiansted", "latitude": "17.7342", "longitude": "-64.7347"}, {"country_code": "VI", "postal_code": "00823", "place_name": "Christiansted", "latitude": "17.7237", "longitude": "-64.7445"}, {"country_code": "VI", "postal_code": "00824", "place_name": "Christiansted", "latitude": "17.7446", "longitude": "-64.6825"}, {"country_code": "VI", "postal_code": "00840", "place_name": "Frederiksted", "latitude": "17.7226", "longitude": "-64.8729"}, {"country_code": "VI", "postal_code": "00841", "place_name": "Frederiksted", "latitude": "17.7648", "longitude": "-64.8096"}, {"country_code": "VI", "postal_code": "00850", "place_name": "Kingshill", "latitude": "17.7208", "longitude": "-64.8002"}, {"country_code": "VI", "postal_code": "00851", "place_name": "Kingshill", "latitude": "17.7099", "longitude": "-64.7009"}, {"country_code": "VI", "postal_code": "00830", "place_name": "St John", "latitude": "18.3282", "longitude": "-64.7407"}, {"country_code": "VI", "postal_code": "00831", "place_name": "St John", "latitude": "18.3273", "longitude": "-64.7864"}, {"country_code": "VI", "postal_code": "00801", "place_name": "St Thomas", "latitude": "18.3484", "longitude": "-64.974"}, {"country_code": "VI", "postal_code": "00802", "place_name": "St Thomas", "latitude": "18.3387", "longitude": "-64.916"}, {"country_code": "VI", "postal_code": "00803", "place_name": "St Thomas", "latitude": "18.3223", "longitude": "-64.9637"}, {"country_code": "VI", "postal_code": "00804", "place_name": "St Thomas", "latitude": "18.3223", "longitude": "-64.9637"}, {"country_code": "VI", "postal_code": "00805", "place_name": "St Thomas", "latitude": "18.3223", "longitude": "-64.9637"}]