[{"country_code": "CY", "postal_code": "5280", "place_name": "Paralimni", "latitude": "35.0395", "longitude": "33.9818"}, {"country_code": "CY", "postal_code": "5281", "place_name": "Paralimni", "latitude": "35.0395", "longitude": "33.9818"}, {"country_code": "CY", "postal_code": "5282", "place_name": "Paralimni", "latitude": "35.0395", "longitude": "33.9818"}, {"country_code": "CY", "postal_code": "5283", "place_name": "Paralimni", "latitude": "35.0395", "longitude": "33.9818"}, {"country_code": "CY", "postal_code": "5284", "place_name": "Paralimni", "latitude": "35.0395", "longitude": "33.9818"}, {"country_code": "CY", "postal_code": "5285", "place_name": "Paralimni", "latitude": "35.0395", "longitude": "33.9818"}, {"country_code": "CY", "postal_code": "5286", "place_name": "Paralimni", "latitude": "35.0395", "longitude": "33.9818"}, {"country_code": "CY", "postal_code": "5288", "place_name": "Paralimni", "latitude": "35.0395", "longitude": "33.9818"}, {"country_code": "CY", "postal_code": "5289", "place_name": "Paralimni", "latitude": "35.0395", "longitude": "33.9818"}, {"country_code": "CY", "postal_code": "5290", "place_name": "Paralimni", "latitude": "35.0395", "longitude": "33.9818"}, {"country_code": "CY", "postal_code": "5291", "place_name": "Paralimni", "latitude": "35.0395", "longitude": "33.9818"}, {"country_code": "CY", "postal_code": "5292", "place_name": "Paralimni", "latitude": "35.0395", "longitude": "33.9818"}, {"country_code": "CY", "postal_code": "5295", "place_name": "Paralimni", "latitude": "35.0395", "longitude": "33.9818"}, {"country_code": "CY", "postal_code": "5296", "place_name": "Paralimni", "latitude": "35.0395", "longitude": "33.9818"}, {"country_code": "CY", "postal_code": "5297", "place_name": "Paralimni", "latitude": "35.0395", "longitude": "33.9818"}, {"country_code": "CY", "postal_code": "5320", "place_name": "Liopetri", "latitude": "35.0088", "longitude": "33.8926"}, {"country_code": "CY", "postal_code": "5330", "place_name": "Agia Napa", "latitude": "34.9821", "longitude": "34.0018"}, {"country_code": "CY", "postal_code": "5350", "place_name": "Frenaros", "latitude": "35.0412", "longitude": "33.9224"}, {"country_code": "CY", "postal_code": "5370", "place_name": "Kato Deryneia", "latitude": "35.0246", "longitude": "33.9459"}, {"country_code": "CY", "postal_code": "5380", "place_name": "Deryneia", "latitude": "35.0648", "longitude": "33.9608"}, {"country_code": "CY", "postal_code": "5390", "place_name": "Sotira Ammochostou", "latitude": "35.0262", "longitude": "33.9518"}, {"country_code": "CY", "postal_code": "5391", "place_name": "Agia Thekla", "latitude": "35.0262", "longitude": "33.9518"}, {"country_code": "CY", "postal_code": "5500", "place_name": "Achna", "latitude": "35.0552", "longitude": "33.7839"}, {"country_code": "CY", "postal_code": "5510", "place_name": "Avgorou", "latitude": "35.0362", "longitude": "33.8392"}, {"country_code": "CY", "postal_code": "5520", "place_name": "Agios Georgios Acheritou", "latitude": "35.1002", "longitude": "33.8615"}, {"country_code": "CY", "postal_code": "5521", "place_name": "Acheritou", "latitude": "35.1002", "longitude": "33.8615"}, {"country_code": "CY", "postal_code": "5522", "place_name": "Vrysoules", "latitude": "35.1002", "longitude": "33.8615"}, {"country_code": "CY", "postal_code": "5523", "place_name": "Dasaki Achnas", "latitude": "35.1002", "longitude": "33.8615"}, {"country_code": "CY", "postal_code": "5524", "place_name": "Moni Agiou Kendeou", "latitude": "35.1002", "longitude": "33.8615"}, {"country_code": "CY", "postal_code": "5525", "place_name": "Strovili", "latitude": "35.1002", "longitude": "33.8615"}, {"country_code": "CY", "postal_code": "5540", "place_name": "Lysi", "latitude": "35.1047", "longitude": "33.681"}, {"country_code": "CY", "postal_code": "5560", "place_name": "Afanteia - Ornithi", "latitude": "35.1198", "longitude": "33.717"}, {"country_code": "CY", "postal_code": "5561", "place_name": "Asseia (Askeia)", "latitude": "35.1198", "longitude": "33.717"}, {"country_code": "CY", "postal_code": "5562", "place_name": "Vatili", "latitude": "35.1334", "longitude": "33.6556"}, {"country_code": "CY", "postal_code": "5563", "place_name": "Kalopsida", "latitude": "35.0964", "longitude": "33.794"}, {"country_code": "CY", "postal_code": "5564", "place_name": "Kontea", "latitude": "35.1027", "longitude": "33.7158"}, {"country_code": "CY", "postal_code": "5565", "place_name": "Kouklia Ammochostou", "latitude": "35.1085", "longitude": "33.7507"}, {"country_code": "CY", "postal_code": "5566", "place_name": "Makrasyka", "latitude": "35.074", "longitude": "33.7622"}, {"country_code": "CY", "postal_code": "5567", "place_name": "Sinta", "latitude": "35.1571", "longitude": "33.7011"}, {"country_code": "CY", "postal_code": "5568", "place_name": "Strongylos", "latitude": "35.1664", "longitude": "33.6392"}, {"country_code": "CY", "postal_code": "5600", "place_name": "Lefkonoiko", "latitude": "35.2598", "longitude": "33.7319"}, {"country_code": "CY", "postal_code": "5620", "place_name": "Agios Nikolaos Ammochostou", "latitude": "35.2305", "longitude": "33.8005"}, {"country_code": "CY", "postal_code": "5621", "place_name": "Agios Sergios", "latitude": "35.1964", "longitude": "33.8742"}, {"country_code": "CY", "postal_code": "5622", "place_name": "Artemi", "latitude": "35.3206", "longitude": "33.7105"}, {"country_code": "CY", "postal_code": "5623", "place_name": "Aloda", "latitude": "35.2107", "longitude": "33.8266"}, {"country_code": "CY", "postal_code": "5624", "place_name": "Gaidouras (Nea Sparti)", "latitude": "35.2305", "longitude": "33.8005"}, {"country_code": "CY", "postal_code": "5625", "place_name": "Goufes", "latitude": "35.2826", "longitude": "33.6878"}, {"country_code": "CY", "postal_code": "5626", "place_name": "Gypsou", "latitude": "35.2598", "longitude": "33.7863"}, {"country_code": "CY", "postal_code": "5627", "place_name": "Egkomi Ammochostou", "latitude": "35.1627", "longitude": "33.8832"}, {"country_code": "CY", "postal_code": "5628", "place_name": "Limnia", "latitude": "35.1996", "longitude": "33.8586"}, {"country_code": "CY", "postal_code": "5629", "place_name": "Maratha", "latitude": "35.2118", "longitude": "33.7769"}, {"country_code": "CY", "postal_code": "5630", "place_name": "Melounta", "latitude": "35.3326", "longitude": "33.6893"}, {"country_code": "CY", "postal_code": "5631", "place_name": "Milia Ammochostou", "latitude": "35.2401", "longitude": "33.7802"}, {"country_code": "CY", "postal_code": "5632", "place_name": "Moni Apostolou Varnava", "latitude": "35.225", "longitude": "33.7689"}, {"country_code": "CY", "postal_code": "5633", "place_name": "Peristerona Ammochostou", "latitude": "35.2178", "longitude": "33.761"}, {"country_code": "CY", "postal_code": "5634", "place_name": "Pigi", "latitude": "35.2267", "longitude": "33.7596"}, {"country_code": "CY", "postal_code": "5635", "place_name": "Prastio Ammochostou", "latitude": "35.1754", "longitude": "33.7577"}, {"country_code": "CY", "postal_code": "5636", "place_name": "Salamina", "latitude": "35.225", "longitude": "33.7689"}, {"country_code": "CY", "postal_code": "5637", "place_name": "Santalaris", "latitude": "35.2104", "longitude": "33.8007"}, {"country_code": "CY", "postal_code": "5638", "place_name": "Stylloi", "latitude": "35.1721", "longitude": "33.8337"}, {"country_code": "CY", "postal_code": "5650", "place_name": "Marathovounos", "latitude": "35.2229", "longitude": "33.6178"}, {"country_code": "CY", "postal_code": "5651", "place_name": "Agios Chariton", "latitude": "35.3053", "longitude": "33.6046"}, {"country_code": "CY", "postal_code": "5652", "place_name": "Angastina", "latitude": "35.2033", "longitude": "33.5878"}, {"country_code": "CY", "postal_code": "5653", "place_name": "Vitsada", "latitude": "35.2443", "longitude": "33.6466"}, {"country_code": "CY", "postal_code": "5654", "place_name": "Kiados", "latitude": "35.2547", "longitude": "33.6012"}, {"country_code": "CY", "postal_code": "5655", "place_name": "Genagra", "latitude": "35.2174", "longitude": "33.6981"}, {"country_code": "CY", "postal_code": "5656", "place_name": "Knodara", "latitude": "35.2648", "longitude": "33.6604"}, {"country_code": "CY", "postal_code": "5657", "place_name": "Kornokipos", "latitude": "35.2828", "longitude": "33.573"}, {"country_code": "CY", "postal_code": "5658", "place_name": "Mousoulita", "latitude": "35.193", "longitude": "33.6406"}, {"country_code": "CY", "postal_code": "5659", "place_name": "Pyrga Ammochostou", "latitude": "35.1827", "longitude": "33.7267"}, {"country_code": "CY", "postal_code": "5660", "place_name": "Trypimeni", "latitude": "35.31", "longitude": "33.6336"}, {"country_code": "CY", "postal_code": "5661", "place_name": "Psyllatos", "latitude": "35.2538", "longitude": "33.6873"}, {"country_code": "CY", "postal_code": "5700", "place_name": "Trikomo", "latitude": "35.2863", "longitude": "33.8917"}, {"country_code": "CY", "postal_code": "5720", "place_name": "Agios Georgios Ammochostou", "latitude": "35.3408", "longitude": "33.9686"}, {"country_code": "CY", "postal_code": "5721", "place_name": "Agios Efstathios", "latitude": "35.3893", "longitude": "34.0147"}, {"country_code": "CY", "postal_code": "5722", "place_name": "Agios Ilias", "latitude": "35.3288", "longitude": "33.9282"}, {"country_code": "CY", "postal_code": "5723", "place_name": "Agios Theodoros Ammochostou", "latitude": "35.366", "longitude": "34.0288"}, {"country_code": "CY", "postal_code": "5724", "place_name": "Arnadi", "latitude": "35.2366", "longitude": "33.8605"}, {"country_code": "CY", "postal_code": "5725", "place_name": "Avgolida", "latitude": "35.3548", "longitude": "33.9627"}, {"country_code": "CY", "postal_code": "5726", "place_name": "Vokolida", "latitude": "35.3796", "longitude": "34.0714"}, {"country_code": "CY", "postal_code": "5727", "place_name": "Gastria", "latitude": "35.3427", "longitude": "33.9999"}, {"country_code": "CY", "postal_code": "5728", "place_name": "Lapathos", "latitude": "35.27", "longitude": "33.8259"}, {"country_code": "CY", "postal_code": "5729", "place_name": "Livadia Ammochostou", "latitude": "35.3988", "longitude": "34.0255"}, {"country_code": "CY", "postal_code": "5730", "place_name": "Monarga", "latitude": "35.3135", "longitude": "33.9476"}, {"country_code": "CY", "postal_code": "5731", "place_name": "Bogazi", "latitude": "35.3136", "longitude": "33.9525"}, {"country_code": "CY", "postal_code": "5732", "place_name": "Patriki", "latitude": "35.3632", "longitude": "33.9965"}, {"country_code": "CY", "postal_code": "5733", "place_name": "Perivolia Trikomou", "latitude": "35.2862", "longitude": "33.9101"}, {"country_code": "CY", "postal_code": "5734", "place_name": "Spathariko", "latitude": "35.2365", "longitude": "33.8718"}, {"country_code": "CY", "postal_code": "5735", "place_name": "Sygkrasi", "latitude": "35.2729", "longitude": "33.8523"}, {"country_code": "CY", "postal_code": "5750", "place_name": "Akanthou", "latitude": "35.3739", "longitude": "33.753"}, {"country_code": "CY", "postal_code": "5761", "place_name": "Agios Andronikos Trikomou", "latitude": "35.3702", "longitude": "33.8922"}, {"country_code": "CY", "postal_code": "5762", "place_name": "Agios Iakovos", "latitude": "35.327", "longitude": "33.8151"}, {"country_code": "CY", "postal_code": "5763", "place_name": "Ardana", "latitude": "35.3566", "longitude": "33.8859"}, {"country_code": "CY", "postal_code": "5764", "place_name": "Gerani", "latitude": "35.3592", "longitude": "33.9223"}, {"country_code": "CY", "postal_code": "5765", "place_name": "Davlos", "latitude": "35.4215", "longitude": "33.9052"}, {"country_code": "CY", "postal_code": "5766", "place_name": "Kantara", "latitude": "35.3885", "longitude": "33.8988"}, {"country_code": "CY", "postal_code": "5767", "place_name": "Krideia", "latitude": "35.3953", "longitude": "33.9729"}, {"country_code": "CY", "postal_code": "5768", "place_name": "Mandres Ammochostou", "latitude": "35.3471", "longitude": "33.7992"}, {"country_code": "CY", "postal_code": "5769", "place_name": "Ovgoros", "latitude": "35.3659", "longitude": "33.9384"}, {"country_code": "CY", "postal_code": "5770", "place_name": "Platani", "latitude": "35.333", "longitude": "33.7518"}, {"country_code": "CY", "postal_code": "5771", "place_name": "Flamoudi", "latitude": "35.3966", "longitude": "33.8571"}, {"country_code": "CY", "postal_code": "5800", "place_name": "Aigialousa", "latitude": "35.5351", "longitude": "34.1894"}, {"country_code": "CY", "postal_code": "5820", "place_name": "Agios Andronikos Karpasias", "latitude": "35.4571", "longitude": "34.1186"}, {"country_code": "CY", "postal_code": "5821", "place_name": "Agios Symeon", "latitude": "35.491", "longitude": "34.2185"}, {"country_code": "CY", "postal_code": "5822", "place_name": "Vothylakas", "latitude": "35.4834", "longitude": "34.1871"}, {"country_code": "CY", "postal_code": "5823", "place_name": "Vasili", "latitude": "35.4728", "longitude": "34.1506"}, {"country_code": "CY", "postal_code": "5824", "place_name": "Eptakomi", "latitude": "35.4465", "longitude": "34.0318"}, {"country_code": "CY", "postal_code": "5825", "place_name": "Galateia", "latitude": "35.4227", "longitude": "34.0713"}, {"country_code": "CY", "postal_code": "5826", "place_name": "Koilanemos", "latitude": "35.4908", "longitude": "34.142"}, {"country_code": "CY", "postal_code": "5827", "place_name": "Koma Tou Gialou", "latitude": "35.4275", "longitude": "34.131"}, {"country_code": "CY", "postal_code": "5828", "place_name": "Komi", "latitude": "35.4105", "longitude": "33.9962"}, {"country_code": "CY", "postal_code": "5829", "place_name": "Leonarisso", "latitude": "35.4689", "longitude": "34.1389"}, {"country_code": "CY", "postal_code": "5830", "place_name": "Lythragkomi", "latitude": "35.48", "longitude": "34.1714"}, {"country_code": "CY", "postal_code": "5831", "place_name": "Melanarga", "latitude": "35.5147", "longitude": "34.1968"}, {"country_code": "CY", "postal_code": "5832", "place_name": "Neta", "latitude": "35.4696", "longitude": "34.2146"}, {"country_code": "CY", "postal_code": "5833", "place_name": "Platanissos", "latitude": "35.4787", "longitude": "34.1068"}, {"country_code": "CY", "postal_code": "5834", "place_name": "Tavrou", "latitude": "35.3966", "longitude": "34.0765"}, {"country_code": "CY", "postal_code": "5850", "place_name": "Rizokarpaso", "latitude": "35.5972", "longitude": "34.3792"}, {"country_code": "CY", "postal_code": "5870", "place_name": "Agia Trias", "latitude": "35.5387", "longitude": "34.216"}, {"country_code": "CY", "postal_code": "5871", "place_name": "Agios Therissos", "latitude": "35.5241", "longitude": "34.2639"}, {"country_code": "CY", "postal_code": "5872", "place_name": "Agios Filon", "latitude": "35.5241", "longitude": "34.2639"}, {"country_code": "CY", "postal_code": "5873", "place_name": "Moni Apostolou Andreou", "latitude": "35.5241", "longitude": "34.2639"}, {"country_code": "CY", "postal_code": "5874", "place_name": "Galinoporni", "latitude": "35.5223", "longitude": "34.3018"}, {"country_code": "CY", "postal_code": "5875", "place_name": "Koroveia", "latitude": "35.5113", "longitude": "34.274"}, {"country_code": "CY", "postal_code": "5876", "place_name": "Stathmos Koroveias", "latitude": "35.5241", "longitude": "34.2639"}, {"country_code": "CY", "postal_code": "5877", "place_name": "Moni Panagias Eleousas", "latitude": "35.5241", "longitude": "34.2639"}, {"country_code": "CY", "postal_code": "5878", "place_name": "Chelones", "latitude": "35.5241", "longitude": "34.2639"}, {"country_code": "CY", "postal_code": "9000", "place_name": "Keryneia", "latitude": "35.3363", "longitude": "33.3173"}, {"country_code": "CY", "postal_code": "9200", "place_name": "Karavas", "latitude": "35.3414", "longitude": "33.1959"}, {"country_code": "CY", "postal_code": "9300", "place_name": "Lapithos", "latitude": "35.3382", "longitude": "33.1737"}, {"country_code": "CY", "postal_code": "9390", "place_name": "Agios Georgios Keryneias", "latitude": "35.3422", "longitude": "33.2753"}, {"country_code": "CY", "postal_code": "9500", "place_name": "Agios Epiktitos", "latitude": "35.3207", "longitude": "33.3903"}, {"country_code": "CY", "postal_code": "9510", "place_name": "Thermeia", "latitude": "35.3276", "longitude": "33.327"}, {"country_code": "CY", "postal_code": "9511", "place_name": "Kazafani", "latitude": "35.3167", "longitude": "33.35"}, {"country_code": "CY", "postal_code": "9512", "place_name": "Karakoumi", "latitude": "35.334", "longitude": "33.3478"}, {"country_code": "CY", "postal_code": "9513", "place_name": "Karmi", "latitude": "35.3182", "longitude": "33.2556"}, {"country_code": "CY", "postal_code": "9514", "place_name": "Belapais", "latitude": "35.3058", "longitude": "33.3556"}, {"country_code": "CY", "postal_code": "9515", "place_name": "Templos", "latitude": "35.3317", "longitude": "33.295"}, {"country_code": "CY", "postal_code": "9516", "place_name": "Trimithi", "latitude": "35.3288", "longitude": "33.2598"}, {"country_code": "CY", "postal_code": "9530", "place_name": "Kato Dikomo", "latitude": "35.2675", "longitude": "33.3247"}, {"country_code": "CY", "postal_code": "9540", "place_name": "Pano Dikomo", "latitude": "35.2777", "longitude": "33.3218"}, {"country_code": "CY", "postal_code": "9541", "place_name": "Agirda", "latitude": "35.2974", "longitude": "33.2681"}, {"country_code": "CY", "postal_code": "9542", "place_name": "Vouno", "latitude": "35.271", "longitude": "33.391"}, {"country_code": "CY", "postal_code": "9543", "place_name": "Kiomourtzou", "latitude": "35.2934", "longitude": "33.2564"}, {"country_code": "CY", "postal_code": "9544", "place_name": "Koutsoventis", "latitude": "35.2631", "longitude": "33.4208"}, {"country_code": "CY", "postal_code": "9545", "place_name": "Krini", "latitude": "35.288", "longitude": "33.2375"}, {"country_code": "CY", "postal_code": "9546", "place_name": "Moni Agiou Chrysostomou", "latitude": "35.2823", "longitude": "33.3118"}, {"country_code": "CY", "postal_code": "9547", "place_name": "Onisia", "latitude": "35.2823", "longitude": "33.3118"}, {"country_code": "CY", "postal_code": "9548", "place_name": "Pileri", "latitude": "35.291", "longitude": "33.2179"}, {"country_code": "CY", "postal_code": "9549", "place_name": "Sichari", "latitude": "35.2764", "longitude": "33.3812"}, {"country_code": "CY", "postal_code": "9550", "place_name": "Stathmos Bogaziou", "latitude": "35.2641", "longitude": "33.2225"}, {"country_code": "CY", "postal_code": "9551", "place_name": "Fota", "latitude": "35.2641", "longitude": "33.2225"}, {"country_code": "CY", "postal_code": "9560", "place_name": "Agios Amvrosios Keryneias", "latitude": "35.339", "longitude": "33.5826"}, {"country_code": "CY", "postal_code": "9570", "place_name": "Armenomonastiro", "latitude": "35.3175", "longitude": "33.5118"}, {"country_code": "CY", "postal_code": "9571", "place_name": "Kalograia", "latitude": "35.3379", "longitude": "33.6306"}, {"country_code": "CY", "postal_code": "9572", "place_name": "Klepini", "latitude": "35.3065", "longitude": "33.4353"}, {"country_code": "CY", "postal_code": "9573", "place_name": "Moni Archangelou Antifonitou", "latitude": "35.3175", "longitude": "33.5118"}, {"country_code": "CY", "postal_code": "9574", "place_name": "Moni Panagias Melandrinas", "latitude": "35.3175", "longitude": "33.5118"}, {"country_code": "CY", "postal_code": "9575", "place_name": "Trapeza", "latitude": "35.3082", "longitude": "33.4696"}, {"country_code": "CY", "postal_code": "9576", "place_name": "Chalefka", "latitude": "35.3175", "longitude": "33.5118"}, {"country_code": "CY", "postal_code": "9577", "place_name": "Charkeia (Chartzeia)", "latitude": "35.3175", "longitude": "33.5118"}, {"country_code": "CY", "postal_code": "9600", "place_name": "Myrtou", "latitude": "35.3073", "longitude": "33.071"}, {"country_code": "CY", "postal_code": "9610", "place_name": "Agia Eirini Keryneias", "latitude": "35.2989", "longitude": "32.9634"}, {"country_code": "CY", "postal_code": "9611", "place_name": "Agios Ermolaos", "latitude": "35.2781", "longitude": "33.1725"}, {"country_code": "CY", "postal_code": "9612", "place_name": "Agridaki", "latitude": "35.3072", "longitude": "33.1511"}, {"country_code": "CY", "postal_code": "9613", "place_name": "Asomatos Keryneias", "latitude": "35.2755", "longitude": "33.1075"}, {"country_code": "CY", "postal_code": "9614", "place_name": "Diorios", "latitude": "35.3057", "longitude": "33.0548"}, {"country_code": "CY", "postal_code": "9615", "place_name": "Kampyli", "latitude": "35.3014", "longitude": "33.1075"}, {"country_code": "CY", "postal_code": "9616", "place_name": "Karpaseia", "latitude": "35.2978", "longitude": "33.07"}, {"country_code": "CY", "postal_code": "9617", "place_name": "Kontemenos", "latitude": "35.2686", "longitude": "33.1247"}, {"country_code": "CY", "postal_code": "9618", "place_name": "Kormakitis", "latitude": "35.343", "longitude": "33.01"}, {"country_code": "CY", "postal_code": "9619", "place_name": "Larnakas Lapithou", "latitude": "35.3125", "longitude": "33.1417"}, {"country_code": "CY", "postal_code": "9620", "place_name": "Sysklipos", "latitude": "35.3004", "longitude": "33.1737"}, {"country_code": "CY", "postal_code": "9621", "place_name": "Moni Agiou Panteleimonos", "latitude": "35.3004", "longitude": "33.1737"}, {"country_code": "CY", "postal_code": "9630", "place_name": "Vavylas", "latitude": "35.342", "longitude": "33.1292"}, {"country_code": "CY", "postal_code": "9631", "place_name": "Vasileia", "latitude": "35.3449", "longitude": "33.1242"}, {"country_code": "CY", "postal_code": "9632", "place_name": "Elia Keryneias", "latitude": "35.3322", "longitude": "33.2193"}, {"country_code": "CY", "postal_code": "9633", "place_name": "Livera", "latitude": "35.3833", "longitude": "32.9526"}, {"country_code": "CY", "postal_code": "9634", "place_name": "Moni Acheiropoiitou", "latitude": "35.342", "longitude": "33.1292"}, {"country_code": "CY", "postal_code": "9635", "place_name": "Motides", "latitude": "35.3349", "longitude": "33.2073"}, {"country_code": "CY", "postal_code": "9636", "place_name": "Orga", "latitude": "35.3582", "longitude": "33.0332"}, {"country_code": "CY", "postal_code": "9637", "place_name": "Palaiosofos", "latitude": "35.3256", "longitude": "33.2071"}, {"country_code": "CY", "postal_code": "9638", "place_name": "Panagra", "latitude": "35.334", "longitude": "33.0685"}, {"country_code": "CY", "postal_code": "9639", "place_name": "Ftericha", "latitude": "35.3228", "longitude": "33.2212"}, {"country_code": "CY", "postal_code": "6010", "place_name": "Larnaka", "latitude": "34.9229", "longitude": "33.6233"}, {"country_code": "CY", "postal_code": "6011", "place_name": "Larnaka", "latitude": "34.9229", "longitude": "33.6233"}, {"country_code": "CY", "postal_code": "6012", "place_name": "Larnaka", "latitude": "34.9229", "longitude": "33.6233"}, {"country_code": "CY", "postal_code": "6013", "place_name": "Larnaka", "latitude": "34.9229", "longitude": "33.6233"}, {"country_code": "CY", "postal_code": "6015", "place_name": "Larnaka", "latitude": "34.9229", "longitude": "33.6233"}, {"country_code": "CY", "postal_code": "6016", "place_name": "Larnaka", "latitude": "34.9229", "longitude": "33.6233"}, {"country_code": "CY", "postal_code": "6017", "place_name": "Larnaka", "latitude": "34.9229", "longitude": "33.6233"}, {"country_code": "CY", "postal_code": "6018", "place_name": "Larnaka", "latitude": "34.9229", "longitude": "33.6233"}, {"country_code": "CY", "postal_code": "6019", "place_name": "Larnaka", "latitude": "34.9229", "longitude": "33.6233"}, {"country_code": "CY", "postal_code": "6020", "place_name": "Larnaka", "latitude": "34.9229", "longitude": "33.6233"}, {"country_code": "CY", "postal_code": "6021", "place_name": "Larnaka", "latitude": "34.9229", "longitude": "33.6233"}, {"country_code": "CY", "postal_code": "6022", "place_name": "Larnaka", "latitude": "34.9229", "longitude": "33.6233"}, {"country_code": "CY", "postal_code": "6023", "place_name": "Larnaka", "latitude": "34.9229", "longitude": "33.6233"}, {"country_code": "CY", "postal_code": "6025", "place_name": "Larnaka", "latitude": "34.9229", "longitude": "33.6233"}, {"country_code": "CY", "postal_code": "6026", "place_name": "Larnaka", "latitude": "34.9229", "longitude": "33.6233"}, {"country_code": "CY", "postal_code": "6027", "place_name": "Larnaka", "latitude": "34.9229", "longitude": "33.6233"}, {"country_code": "CY", "postal_code": "6028", "place_name": "Larnaka", "latitude": "34.9229", "longitude": "33.6233"}, {"country_code": "CY", "postal_code": "6030", "place_name": "Larnaka", "latitude": "34.9229", "longitude": "33.6233"}, {"country_code": "CY", "postal_code": "6031", "place_name": "Larnaka", "latitude": "34.9229", "longitude": "33.6233"}, {"country_code": "CY", "postal_code": "6035", "place_name": "Larnaka", "latitude": "34.9229", "longitude": "33.6233"}, {"country_code": "CY", "postal_code": "6036", "place_name": "Larnaka", "latitude": "34.9229", "longitude": "33.6233"}, {"country_code": "CY", "postal_code": "6037", "place_name": "Larnaka", "latitude": "34.9229", "longitude": "33.6233"}, {"country_code": "CY", "postal_code": "6040", "place_name": "Larnaka", "latitude": "34.9229", "longitude": "33.6233"}, {"country_code": "CY", "postal_code": "6041", "place_name": "Larnaka", "latitude": "34.9229", "longitude": "33.6233"}, {"country_code": "CY", "postal_code": "6042", "place_name": "Larnaka", "latitude": "34.9229", "longitude": "33.6233"}, {"country_code": "CY", "postal_code": "6043", "place_name": "Larnaka", "latitude": "34.9229", "longitude": "33.6233"}, {"country_code": "CY", "postal_code": "6045", "place_name": "Larnaka", "latitude": "34.9229", "longitude": "33.6233"}, {"country_code": "CY", "postal_code": "6046", "place_name": "Larnaka", "latitude": "34.9229", "longitude": "33.6233"}, {"country_code": "CY", "postal_code": "6047", "place_name": "Larnaka", "latitude": "34.9229", "longitude": "33.6233"}, {"country_code": "CY", "postal_code": "6050", "place_name": "Larnaka", "latitude": "34.9229", "longitude": "33.6233"}, {"country_code": "CY", "postal_code": "6051", "place_name": "Larnaka", "latitude": "34.9229", "longitude": "33.6233"}, {"country_code": "CY", "postal_code": "6052", "place_name": "Larnaka", "latitude": "34.9229", "longitude": "33.6233"}, {"country_code": "CY", "postal_code": "6053", "place_name": "Larnaka", "latitude": "34.9229", "longitude": "33.6233"}, {"country_code": "CY", "postal_code": "6055", "place_name": "Larnaka", "latitude": "34.9229", "longitude": "33.6233"}, {"country_code": "CY", "postal_code": "6056", "place_name": "Larnaka", "latitude": "34.9229", "longitude": "33.6233"}, {"country_code": "CY", "postal_code": "6057", "place_name": "Larnaka", "latitude": "34.9229", "longitude": "33.6233"}, {"country_code": "CY", "postal_code": "6058", "place_name": "Larnaka", "latitude": "34.9229", "longitude": "33.6233"}, {"country_code": "CY", "postal_code": "6059", "place_name": "Larnaka", "latitude": "34.9229", "longitude": "33.6233"}, {"country_code": "CY", "postal_code": "6060", "place_name": "Larnaka", "latitude": "34.9229", "longitude": "33.6233"}, {"country_code": "CY", "postal_code": "6370", "place_name": "Anglikos Stratos Dekeleias", "latitude": "34.9965", "longitude": "33.7339"}, {"country_code": "CY", "postal_code": "7000", "place_name": "Meneou", "latitude": "34.8607", "longitude": "33.5931"}, {"country_code": "CY", "postal_code": "7020", "place_name": "Dromolaxia", "latitude": "34.8755", "longitude": "33.5868"}, {"country_code": "CY", "postal_code": "7040", "place_name": "Voroklini", "latitude": "34.9814", "longitude": "33.6565"}, {"country_code": "CY", "postal_code": "7041", "place_name": "Voroklini Touristiki Periochi", "latitude": "34.9814", "longitude": "33.6565"}, {"country_code": "CY", "postal_code": "7060", "place_name": "Livadia Larnakas", "latitude": "34.9551", "longitude": "33.6273"}, {"country_code": "CY", "postal_code": "7080", "place_name": "Pyla", "latitude": "35.0047", "longitude": "33.6891"}, {"country_code": "CY", "postal_code": "7081", "place_name": "Pyla Touristiki Periochi", "latitude": "35.0047", "longitude": "33.6891"}, {"country_code": "CY", "postal_code": "7100", "place_name": "Aradippou", "latitude": "34.9478", "longitude": "33.5881"}, {"country_code": "CY", "postal_code": "7101", "place_name": "Aradippou", "latitude": "34.9478", "longitude": "33.5881"}, {"country_code": "CY", "postal_code": "7102", "place_name": "Aradippou", "latitude": "34.9478", "longitude": "33.5881"}, {"country_code": "CY", "postal_code": "7103", "place_name": "Aradippou", "latitude": "34.9478", "longitude": "33.5881"}, {"country_code": "CY", "postal_code": "7104", "place_name": "Aradippou", "latitude": "34.9478", "longitude": "33.5881"}, {"country_code": "CY", "postal_code": "7105", "place_name": "Aradippou", "latitude": "34.9478", "longitude": "33.5881"}, {"country_code": "CY", "postal_code": "7501", "place_name": "Avdellero", "latitude": "35.008", "longitude": "33.5705"}, {"country_code": "CY", "postal_code": "7502", "place_name": "Dekeleia", "latitude": "35.0146", "longitude": "33.6294"}, {"country_code": "CY", "postal_code": "7503", "place_name": "Kellia", "latitude": "34.9761", "longitude": "33.6232"}, {"country_code": "CY", "postal_code": "7504", "place_name": "Pergamos", "latitude": "35.0417", "longitude": "33.7083"}, {"country_code": "CY", "postal_code": "7505", "place_name": "Troulloi", "latitude": "35.0326", "longitude": "33.6155"}, {"country_code": "CY", "postal_code": "7506", "place_name": "Prosfygikos Synoikismos EAC", "latitude": "35.0146", "longitude": "33.6294"}, {"country_code": "CY", "postal_code": "7508", "place_name": "Prosfygikos Synoikismos Vattaina", "latitude": "35.0146", "longitude": "33.6294"}, {"country_code": "CY", "postal_code": "7509", "place_name": "Moni Metamorfoseos tou Sotiros", "latitude": "35.0146", "longitude": "33.6294"}, {"country_code": "CY", "postal_code": "7510", "place_name": "Xylotymvou", "latitude": "35.0163", "longitude": "33.7435"}, {"country_code": "CY", "postal_code": "7520", "place_name": "Xylofagou", "latitude": "34.9774", "longitude": "33.8489"}, {"country_code": "CY", "postal_code": "7530", "place_name": "Ormideia", "latitude": "34.9918", "longitude": "33.7772"}, {"country_code": "CY", "postal_code": "7550", "place_name": "Kiti", "latitude": "34.849", "longitude": "33.5752"}, {"country_code": "CY", "postal_code": "7560", "place_name": "Perivolia Larnakas", "latitude": "34.8289", "longitude": "33.5827"}, {"country_code": "CY", "postal_code": "7561", "place_name": "Softades", "latitude": "34.8277", "longitude": "33.5401"}, {"country_code": "CY", "postal_code": "7562", "place_name": "Tersefanou", "latitude": "34.8541", "longitude": "33.5474"}, {"country_code": "CY", "postal_code": "7570", "place_name": "Alethriko", "latitude": "34.861", "longitude": "33.4943"}, {"country_code": "CY", "postal_code": "7571", "place_name": "Anglisides", "latitude": "34.855", "longitude": "33.4564"}, {"country_code": "CY", "postal_code": "7572", "place_name": "Alaminos", "latitude": "34.8073", "longitude": "33.4348"}, {"country_code": "CY", "postal_code": "7573", "place_name": "Anafotida", "latitude": "34.8244", "longitude": "33.4636"}, {"country_code": "CY", "postal_code": "7574", "place_name": "Aplanta", "latitude": "34.8296", "longitude": "33.4755"}, {"country_code": "CY", "postal_code": "7575", "place_name": "Kivisili", "latitude": "34.8396", "longitude": "33.5048"}, {"country_code": "CY", "postal_code": "7576", "place_name": "Klavdia", "latitude": "34.8931", "longitude": "33.5149"}, {"country_code": "CY", "postal_code": "7577", "place_name": "Mazotos", "latitude": "34.8036", "longitude": "33.4895"}, {"country_code": "CY", "postal_code": "7578", "place_name": "Menogeia", "latitude": "34.8437", "longitude": "33.4412"}, {"country_code": "CY", "postal_code": "7600", "place_name": "Athienou", "latitude": "35.0618", "longitude": "33.5417"}, {"country_code": "CY", "postal_code": "7620", "place_name": "Arsos Larnakas", "latitude": "35.0901", "longitude": "33.6281"}, {"country_code": "CY", "postal_code": "7621", "place_name": "Kosi", "latitude": "34.9667", "longitude": "33.55"}, {"country_code": "CY", "postal_code": "7622", "place_name": "Melouseia", "latitude": "35.0771", "longitude": "33.5844"}, {"country_code": "CY", "postal_code": "7623", "place_name": "Petrofani", "latitude": "35.0312", "longitude": "33.509"}, {"country_code": "CY", "postal_code": "7624", "place_name": "Tremethousia", "latitude": "35.0413", "longitude": "33.5679"}, {"country_code": "CY", "postal_code": "7640", "place_name": "Kornos", "latitude": "34.9222", "longitude": "33.3959"}, {"country_code": "CY", "postal_code": "7641", "place_name": "Agia Anna", "latitude": "34.9429", "longitude": "33.4808"}, {"country_code": "CY", "postal_code": "7642", "place_name": "Delikipos", "latitude": "34.9177", "longitude": "33.3618"}, {"country_code": "CY", "postal_code": "7643", "place_name": "Kalo Chorio Larnakas", "latitude": "34.9285", "longitude": "33.5362"}, {"country_code": "CY", "postal_code": "7644", "place_name": "Moni Agias Theklis", "latitude": "34.9336", "longitude": "33.442"}, {"country_code": "CY", "postal_code": "7645", "place_name": "Moni Stavrovouniou", "latitude": "34.9336", "longitude": "33.442"}, {"country_code": "CY", "postal_code": "7646", "place_name": "Moni Panagias Galaktotrofousis", "latitude": "34.9336", "longitude": "33.442"}, {"country_code": "CY", "postal_code": "7647", "place_name": "Mosfiloti", "latitude": "34.9532", "longitude": "33.4252"}, {"country_code": "CY", "postal_code": "7648", "place_name": "Pyrga Larnakas", "latitude": "34.9259", "longitude": "33.4338"}, {"country_code": "CY", "postal_code": "7649", "place_name": "Psevdas", "latitude": "34.9448", "longitude": "33.4607"}, {"country_code": "CY", "postal_code": "7650", "place_name": "Moni Agias Varvaras", "latitude": "34.9802", "longitude": "33.4923"}, {"country_code": "CY", "postal_code": "7700", "place_name": "Pano Lefkara", "latitude": "34.8167", "longitude": "33.2833"}, {"country_code": "CY", "postal_code": "7710", "place_name": "Kato Lefkara", "latitude": "34.8625", "longitude": "33.3168"}, {"country_code": "CY", "postal_code": "7711", "place_name": "Agioi Vavatsinias", "latitude": "34.8796", "longitude": "33.1913"}, {"country_code": "CY", "postal_code": "7712", "place_name": "Vavatsinia", "latitude": "34.8935", "longitude": "33.2285"}, {"country_code": "CY", "postal_code": "7713", "place_name": "Vavla", "latitude": "34.8416", "longitude": "33.2688"}, {"country_code": "CY", "postal_code": "7714", "place_name": "Kato Drys", "latitude": "34.8511", "longitude": "33.3043"}, {"country_code": "CY", "postal_code": "7715", "place_name": "Lageia", "latitude": "34.8429", "longitude": "33.2467"}, {"country_code": "CY", "postal_code": "7716", "place_name": "Melini", "latitude": "34.8675", "longitude": "33.157"}, {"country_code": "CY", "postal_code": "7717", "place_name": "Moni Agiou Mina", "latitude": "34.8652", "longitude": "33.2289"}, {"country_code": "CY", "postal_code": "7718", "place_name": "Odou", "latitude": "34.8854", "longitude": "33.1507"}, {"country_code": "CY", "postal_code": "7719", "place_name": "Ora", "latitude": "34.8624", "longitude": "33.1956"}, {"country_code": "CY", "postal_code": "7721", "place_name": "Parsata", "latitude": "34.8265", "longitude": "33.2662"}, {"country_code": "CY", "postal_code": "7722", "place_name": "Drapeia", "latitude": "34.8023", "longitude": "33.2796"}, {"country_code": "CY", "postal_code": "7730", "place_name": "Agios Theodoros Larnakas", "latitude": "34.7999", "longitude": "33.3847"}, {"country_code": "CY", "postal_code": "7731", "place_name": "Skarinou", "latitude": "34.8192", "longitude": "33.3588"}, {"country_code": "CY", "postal_code": "7732", "place_name": "Stathmos Skarinou", "latitude": "34.7755", "longitude": "33.3481"}, {"country_code": "CY", "postal_code": "7733", "place_name": "Kalavasos", "latitude": "34.7584", "longitude": "33.308"}, {"country_code": "CY", "postal_code": "7734", "place_name": "Stathmos Kalavasou", "latitude": "34.7755", "longitude": "33.3481"}, {"country_code": "CY", "postal_code": "7735", "place_name": "Kofinou", "latitude": "34.8243", "longitude": "33.3913"}, {"country_code": "CY", "postal_code": "7736", "place_name": "Mari", "latitude": "34.7406", "longitude": "33.2993"}, {"country_code": "CY", "postal_code": "7737", "place_name": "Maroni", "latitude": "34.7573", "longitude": "33.3566"}, {"country_code": "CY", "postal_code": "7738", "place_name": "Vasiliko", "latitude": "34.7755", "longitude": "33.3481"}, {"country_code": "CY", "postal_code": "7739", "place_name": "Zygi", "latitude": "34.7289", "longitude": "33.3378"}, {"country_code": "CY", "postal_code": "7740", "place_name": "Tochni", "latitude": "34.781", "longitude": "33.3236"}, {"country_code": "CY", "postal_code": "7741", "place_name": "Choirokoitia", "latitude": "34.7975", "longitude": "33.3352"}, {"country_code": "CY", "postal_code": "7742", "place_name": "Stathmos Choirokoitias", "latitude": "34.776", "longitude": "33.3364"}, {"country_code": "CY", "postal_code": "7743", "place_name": "Psematismenos", "latitude": "34.7495", "longitude": "33.3504"}, {"country_code": "CY", "postal_code": "1010", "place_name": "Lefkosia", "latitude": "35.1753", "longitude": "33.3642"}, {"country_code": "CY", "postal_code": "1011", "place_name": "Lefkosia", "latitude": "35.1753", "longitude": "33.3642"}, {"country_code": "CY", "postal_code": "1015", "place_name": "Lefkosia", "latitude": "35.1753", "longitude": "33.3642"}, {"country_code": "CY", "postal_code": "1016", "place_name": "Lefkosia", "latitude": "35.1753", "longitude": "33.3642"}, {"country_code": "CY", "postal_code": "1017", "place_name": "Lefkosia", "latitude": "35.1753", "longitude": "33.3642"}, {"country_code": "CY", "postal_code": "1020", "place_name": "Lefkosia (Kaimakli)", "latitude": "35.1755", "longitude": "33.372"}, {"country_code": "CY", "postal_code": "1021", "place_name": "Lefkosia (Kaimakli)", "latitude": "35.1755", "longitude": "33.372"}, {"country_code": "CY", "postal_code": "1022", "place_name": "Lefkosia (Kaimakli)", "latitude": "35.1755", "longitude": "33.372"}, {"country_code": "CY", "postal_code": "1025", "place_name": "Lefkosia (Kaimakli)", "latitude": "35.1755", "longitude": "33.372"}, {"country_code": "CY", "postal_code": "1026", "place_name": "Lefkosia (Kaimakli)", "latitude": "35.1755", "longitude": "33.372"}, {"country_code": "CY", "postal_code": "1027", "place_name": "Lefkosia (Kaimakli)", "latitude": "35.1755", "longitude": "33.372"}, {"country_code": "CY", "postal_code": "1028", "place_name": "Lefkosia (Kaimakli)", "latitude": "35.1755", "longitude": "33.372"}, {"country_code": "CY", "postal_code": "1035", "place_name": "Lefkosia (Pallouriotissa)", "latitude": "35.1759", "longitude": "33.3907"}, {"country_code": "CY", "postal_code": "1036", "place_name": "Lefkosia (Kaimakli)", "latitude": "35.1759", "longitude": "33.3907"}, {"country_code": "CY", "postal_code": "1036", "place_name": "Lefkosia (Pallouriotissa)", "latitude": "35.1759", "longitude": "33.3907"}, {"country_code": "CY", "postal_code": "1037", "place_name": "Lefkosia (Kaimakli)", "latitude": "35.1759", "longitude": "33.3907"}, {"country_code": "CY", "postal_code": "1040", "place_name": "Lefkosia (Pallouriotissa)", "latitude": "35.1759", "longitude": "33.3907"}, {"country_code": "CY", "postal_code": "1041", "place_name": "Lefkosia (Pallouriotissa)", "latitude": "35.1759", "longitude": "33.3907"}, {"country_code": "CY", "postal_code": "1042", "place_name": "Lefkosia (Pallouriotissa)", "latitude": "35.1759", "longitude": "33.3907"}, {"country_code": "CY", "postal_code": "1045", "place_name": "Lefkosia (Pallouriotissa)", "latitude": "35.1759", "longitude": "33.3907"}, {"country_code": "CY", "postal_code": "1046", "place_name": "Lefkosia (Pallouriotissa)", "latitude": "35.1759", "longitude": "33.3907"}, {"country_code": "CY", "postal_code": "1047", "place_name": "Lefkosia (Pallouriotissa)", "latitude": "35.1759", "longitude": "33.3907"}, {"country_code": "CY", "postal_code": "1048", "place_name": "Lefkosia (Pallouriotissa)", "latitude": "35.1759", "longitude": "33.3907"}, {"country_code": "CY", "postal_code": "1049", "place_name": "Lefkosia (Pallouriotissa)", "latitude": "35.1759", "longitude": "33.3907"}, {"country_code": "CY", "postal_code": "1055", "place_name": "Lefkosia (Lykavittos)", "latitude": "35.1755", "longitude": "33.372"}, {"country_code": "CY", "postal_code": "1056", "place_name": "Lefkosia (Lykavittos)", "latitude": "35.1755", "longitude": "33.372"}, {"country_code": "CY", "postal_code": "1057", "place_name": "Lefkosia (Lykavittos)", "latitude": "35.1755", "longitude": "33.372"}, {"country_code": "CY", "postal_code": "1060", "place_name": "Lefkosia", "latitude": "35.1753", "longitude": "33.3642"}, {"country_code": "CY", "postal_code": "1061", "place_name": "Lefkosia", "latitude": "35.1753", "longitude": "33.3642"}, {"country_code": "CY", "postal_code": "1065", "place_name": "Lefkosia", "latitude": "35.1753", "longitude": "33.3642"}, {"country_code": "CY", "postal_code": "1066", "place_name": "Lefkosia", "latitude": "35.1753", "longitude": "33.3642"}, {"country_code": "CY", "postal_code": "1070", "place_name": "Lefkosia", "latitude": "35.1753", "longitude": "33.3642"}, {"country_code": "CY", "postal_code": "1071", "place_name": "Lefkosia", "latitude": "35.1753", "longitude": "33.3642"}, {"country_code": "CY", "postal_code": "1075", "place_name": "Lefkosia", "latitude": "35.1753", "longitude": "33.3642"}, {"country_code": "CY", "postal_code": "1076", "place_name": "Lefkosia", "latitude": "35.1753", "longitude": "33.3642"}, {"country_code": "CY", "postal_code": "1077", "place_name": "Lefkosia", "latitude": "35.1753", "longitude": "33.3642"}, {"country_code": "CY", "postal_code": "1080", "place_name": "Lefkosia", "latitude": "35.1753", "longitude": "33.3642"}, {"country_code": "CY", "postal_code": "1081", "place_name": "Lefkosia", "latitude": "35.1753", "longitude": "33.3642"}, {"country_code": "CY", "postal_code": "1082", "place_name": "Lefkosia", "latitude": "35.1753", "longitude": "33.3642"}, {"country_code": "CY", "postal_code": "1085", "place_name": "Lefkosia", "latitude": "35.1753", "longitude": "33.3642"}, {"country_code": "CY", "postal_code": "1086", "place_name": "Lefkosia", "latitude": "35.1753", "longitude": "33.3642"}, {"country_code": "CY", "postal_code": "1087", "place_name": "Lefkosia", "latitude": "35.1753", "longitude": "33.3642"}, {"country_code": "CY", "postal_code": "1090", "place_name": "Lefkosia", "latitude": "35.1753", "longitude": "33.3642"}, {"country_code": "CY", "postal_code": "1095", "place_name": "Lefkosia", "latitude": "35.1753", "longitude": "33.3642"}, {"country_code": "CY", "postal_code": "1096", "place_name": "Lefkosia", "latitude": "35.1753", "longitude": "33.3642"}, {"country_code": "CY", "postal_code": "1097", "place_name": "Lefkosia", "latitude": "35.1753", "longitude": "33.3642"}, {"country_code": "CY", "postal_code": "1100", "place_name": "Lefkosia", "latitude": "35.1753", "longitude": "33.3642"}, {"country_code": "CY", "postal_code": "1101", "place_name": "Lefkosia", "latitude": "35.1753", "longitude": "33.3642"}, {"country_code": "CY", "postal_code": "1102", "place_name": "Lefkosia", "latitude": "35.1753", "longitude": "33.3642"}, {"country_code": "CY", "postal_code": "1105", "place_name": "Lefkosia", "latitude": "35.1753", "longitude": "33.3642"}, {"country_code": "CY", "postal_code": "1106", "place_name": "Lefkosia", "latitude": "35.1753", "longitude": "33.3642"}, {"country_code": "CY", "postal_code": "1107", "place_name": "Lefkosia", "latitude": "35.1753", "longitude": "33.3642"}, {"country_code": "CY", "postal_code": "1370", "place_name": "Anglikos Stratos Lefkosias", "latitude": "34.6706", "longitude": "32.9018"}, {"country_code": "CY", "postal_code": "1380", "place_name": "Elliniki Dynamis Kyprou (EL.DY.K.)", "latitude": "35.1487", "longitude": "33.3338"}, {"country_code": "CY", "postal_code": "2000", "place_name": "Strovolos", "latitude": "35.1487", "longitude": "33.3338"}, {"country_code": "CY", "postal_code": "2001", "place_name": "Strovolos", "latitude": "35.1487", "longitude": "33.3338"}, {"country_code": "CY", "postal_code": "2002", "place_name": "Strovolos", "latitude": "35.1487", "longitude": "33.3338"}, {"country_code": "CY", "postal_code": "2003", "place_name": "Strovolos", "latitude": "35.1487", "longitude": "33.3338"}, {"country_code": "CY", "postal_code": "2006", "place_name": "Strovolos", "latitude": "35.1487", "longitude": "33.3338"}, {"country_code": "CY", "postal_code": "2007", "place_name": "Strovolos", "latitude": "35.1487", "longitude": "33.3338"}, {"country_code": "CY", "postal_code": "2008", "place_name": "Strovolos", "latitude": "35.1487", "longitude": "33.3338"}, {"country_code": "CY", "postal_code": "2011", "place_name": "Strovolos", "latitude": "35.1487", "longitude": "33.3338"}, {"country_code": "CY", "postal_code": "2012", "place_name": "Strovolos", "latitude": "35.1487", "longitude": "33.3338"}, {"country_code": "CY", "postal_code": "2013", "place_name": "Strovolos", "latitude": "35.1487", "longitude": "33.3338"}, {"country_code": "CY", "postal_code": "2014", "place_name": "Strovolos", "latitude": "35.1487", "longitude": "33.3338"}, {"country_code": "CY", "postal_code": "2015", "place_name": "Strovolos", "latitude": "35.1487", "longitude": "33.3338"}, {"country_code": "CY", "postal_code": "2018", "place_name": "Strovolos", "latitude": "35.1487", "longitude": "33.3338"}, {"country_code": "CY", "postal_code": "2019", "place_name": "Strovolos", "latitude": "35.1487", "longitude": "33.3338"}, {"country_code": "CY", "postal_code": "2020", "place_name": "Strovolos", "latitude": "35.1487", "longitude": "33.3338"}, {"country_code": "CY", "postal_code": "2021", "place_name": "Strovolos", "latitude": "35.1487", "longitude": "33.3338"}, {"country_code": "CY", "postal_code": "2023", "place_name": "Strovolos", "latitude": "35.1487", "longitude": "33.3338"}, {"country_code": "CY", "postal_code": "2024", "place_name": "Strovolos", "latitude": "35.1487", "longitude": "33.3338"}, {"country_code": "CY", "postal_code": "2025", "place_name": "Strovolos", "latitude": "35.1487", "longitude": "33.3338"}, {"country_code": "CY", "postal_code": "2027", "place_name": "Strovolos", "latitude": "35.1487", "longitude": "33.3338"}, {"country_code": "CY", "postal_code": "2028", "place_name": "Strovolos", "latitude": "35.1487", "longitude": "33.3338"}, {"country_code": "CY", "postal_code": "2029", "place_name": "Strovolos", "latitude": "35.1487", "longitude": "33.3338"}, {"country_code": "CY", "postal_code": "2030", "place_name": "Strovolos", "latitude": "35.1487", "longitude": "33.3338"}, {"country_code": "CY", "postal_code": "2031", "place_name": "Strovolos", "latitude": "35.1487", "longitude": "33.3338"}, {"country_code": "CY", "postal_code": "2032", "place_name": "Strovolos", "latitude": "35.1487", "longitude": "33.3338"}, {"country_code": "CY", "postal_code": "2033", "place_name": "Strovolos", "latitude": "35.1487", "longitude": "33.3338"}, {"country_code": "CY", "postal_code": "2034", "place_name": "Strovolos", "latitude": "35.1487", "longitude": "33.3338"}, {"country_code": "CY", "postal_code": "2035", "place_name": "Strovolos", "latitude": "35.1487", "longitude": "33.3338"}, {"country_code": "CY", "postal_code": "2036", "place_name": "Strovolos", "latitude": "35.1487", "longitude": "33.3338"}, {"country_code": "CY", "postal_code": "2037", "place_name": "Strovolos", "latitude": "35.1487", "longitude": "33.3338"}, {"country_code": "CY", "postal_code": "2038", "place_name": "Strovolos", "latitude": "35.1487", "longitude": "33.3338"}, {"country_code": "CY", "postal_code": "2039", "place_name": "Strovolos", "latitude": "35.1487", "longitude": "33.3338"}, {"country_code": "CY", "postal_code": "2040", "place_name": "Strovolos", "latitude": "35.1487", "longitude": "33.3338"}, {"country_code": "CY", "postal_code": "2042", "place_name": "Strovolos", "latitude": "35.1487", "longitude": "33.3338"}, {"country_code": "CY", "postal_code": "2043", "place_name": "Strovolos", "latitude": "35.1487", "longitude": "33.3338"}, {"country_code": "CY", "postal_code": "2044", "place_name": "Strovolos", "latitude": "35.1487", "longitude": "33.3338"}, {"country_code": "CY", "postal_code": "2045", "place_name": "Strovolos", "latitude": "35.1487", "longitude": "33.3338"}, {"country_code": "CY", "postal_code": "2046", "place_name": "Strovolos", "latitude": "35.1487", "longitude": "33.3338"}, {"country_code": "CY", "postal_code": "2047", "place_name": "Strovolos", "latitude": "35.1487", "longitude": "33.3338"}, {"country_code": "CY", "postal_code": "2048", "place_name": "Strovolos", "latitude": "35.1487", "longitude": "33.3338"}, {"country_code": "CY", "postal_code": "2049", "place_name": "Strovolos", "latitude": "35.1487", "longitude": "33.3338"}, {"country_code": "CY", "postal_code": "2050", "place_name": "Strovolos", "latitude": "35.1487", "longitude": "33.3338"}, {"country_code": "CY", "postal_code": "2051", "place_name": "Strovolos", "latitude": "35.1487", "longitude": "33.3338"}, {"country_code": "CY", "postal_code": "2052", "place_name": "Strovolos", "latitude": "35.1487", "longitude": "33.3338"}, {"country_code": "CY", "postal_code": "2054", "place_name": "Strovolos", "latitude": "35.1487", "longitude": "33.3338"}, {"country_code": "CY", "postal_code": "2055", "place_name": "Strovolos", "latitude": "35.1487", "longitude": "33.3338"}, {"country_code": "CY", "postal_code": "2057", "place_name": "Strovolos", "latitude": "35.1487", "longitude": "33.3338"}, {"country_code": "CY", "postal_code": "2058", "place_name": "Strovolos", "latitude": "35.1487", "longitude": "33.3338"}, {"country_code": "CY", "postal_code": "2059", "place_name": "Strovolos", "latitude": "35.1487", "longitude": "33.3338"}, {"country_code": "CY", "postal_code": "2060", "place_name": "Strovolos", "latitude": "35.1487", "longitude": "33.3338"}, {"country_code": "CY", "postal_code": "2062", "place_name": "Strovolos", "latitude": "35.1487", "longitude": "33.3338"}, {"country_code": "CY", "postal_code": "2063", "place_name": "Strovolos", "latitude": "35.1487", "longitude": "33.3338"}, {"country_code": "CY", "postal_code": "2064", "place_name": "Strovolos", "latitude": "35.1487", "longitude": "33.3338"}, {"country_code": "CY", "postal_code": "2066", "place_name": "Strovolos", "latitude": "35.1487", "longitude": "33.3338"}, {"country_code": "CY", "postal_code": "2100", "place_name": "Aglantzia", "latitude": "35.1542", "longitude": "33.3964"}, {"country_code": "CY", "postal_code": "2101", "place_name": "Aglantzia", "latitude": "35.1542", "longitude": "33.3964"}, {"country_code": "CY", "postal_code": "2102", "place_name": "Aglantzia", "latitude": "35.1542", "longitude": "33.3964"}, {"country_code": "CY", "postal_code": "2103", "place_name": "Aglantzia", "latitude": "35.1542", "longitude": "33.3964"}, {"country_code": "CY", "postal_code": "2107", "place_name": "Aglantzia", "latitude": "35.1542", "longitude": "33.3964"}, {"country_code": "CY", "postal_code": "2108", "place_name": "Aglantzia", "latitude": "35.1542", "longitude": "33.3964"}, {"country_code": "CY", "postal_code": "2109", "place_name": "Aglantzia", "latitude": "35.1542", "longitude": "33.3964"}, {"country_code": "CY", "postal_code": "2112", "place_name": "Aglantzia", "latitude": "35.1542", "longitude": "33.3964"}, {"country_code": "CY", "postal_code": "2113", "place_name": "Aglantzia", "latitude": "35.1542", "longitude": "33.3964"}, {"country_code": "CY", "postal_code": "2114", "place_name": "Aglantzia", "latitude": "35.1542", "longitude": "33.3964"}, {"country_code": "CY", "postal_code": "2115", "place_name": "Aglantzia", "latitude": "35.1542", "longitude": "33.3964"}, {"country_code": "CY", "postal_code": "2116", "place_name": "Aglantzia", "latitude": "35.1542", "longitude": "33.3964"}, {"country_code": "CY", "postal_code": "2120", "place_name": "Aglantzia", "latitude": "35.1542", "longitude": "33.3964"}, {"country_code": "CY", "postal_code": "2121", "place_name": "Aglantzia", "latitude": "35.1542", "longitude": "33.3964"}, {"country_code": "CY", "postal_code": "2122", "place_name": "Aglantzia", "latitude": "35.1542", "longitude": "33.3964"}, {"country_code": "CY", "postal_code": "2123", "place_name": "Aglantzia", "latitude": "35.1542", "longitude": "33.3964"}, {"country_code": "CY", "postal_code": "2200", "place_name": "Geri", "latitude": "35.1056", "longitude": "33.4198"}, {"country_code": "CY", "postal_code": "2201", "place_name": "Geri", "latitude": "35.1056", "longitude": "33.4198"}, {"country_code": "CY", "postal_code": "2202", "place_name": "Geri", "latitude": "35.1056", "longitude": "33.4198"}, {"country_code": "CY", "postal_code": "2220", "place_name": "Latsia", "latitude": "35.1017", "longitude": "33.3795"}, {"country_code": "CY", "postal_code": "2221", "place_name": "Latsia", "latitude": "35.1017", "longitude": "33.3795"}, {"country_code": "CY", "postal_code": "2222", "place_name": "Latsia", "latitude": "35.1017", "longitude": "33.3795"}, {"country_code": "CY", "postal_code": "2223", "place_name": "Latsia", "latitude": "35.1017", "longitude": "33.3795"}, {"country_code": "CY", "postal_code": "2224", "place_name": "Latsia", "latitude": "35.1017", "longitude": "33.3795"}, {"country_code": "CY", "postal_code": "2230", "place_name": "Latsia", "latitude": "35.1017", "longitude": "33.3795"}, {"country_code": "CY", "postal_code": "2231", "place_name": "Latsia", "latitude": "35.1017", "longitude": "33.3795"}, {"country_code": "CY", "postal_code": "2232", "place_name": "Latsia", "latitude": "35.1017", "longitude": "33.3795"}, {"country_code": "CY", "postal_code": "2233", "place_name": "Latsia", "latitude": "35.1017", "longitude": "33.3795"}, {"country_code": "CY", "postal_code": "2234", "place_name": "Latsia", "latitude": "35.1017", "longitude": "33.3795"}, {"country_code": "CY", "postal_code": "2235", "place_name": "Latsia", "latitude": "35.1017", "longitude": "33.3795"}, {"country_code": "CY", "postal_code": "2236", "place_name": "Latsia", "latitude": "35.1017", "longitude": "33.3795"}, {"country_code": "CY", "postal_code": "2237", "place_name": "Latsia", "latitude": "35.1017", "longitude": "33.3795"}, {"country_code": "CY", "postal_code": "2238", "place_name": "Latsia", "latitude": "35.1017", "longitude": "33.3795"}, {"country_code": "CY", "postal_code": "2300", "place_name": "Lakatameia", "latitude": "35.1735", "longitude": "33.3405"}, {"country_code": "CY", "postal_code": "2301", "place_name": "Lakatameia", "latitude": "35.1735", "longitude": "33.3405"}, {"country_code": "CY", "postal_code": "2302", "place_name": "Lakatameia", "latitude": "35.1735", "longitude": "33.3405"}, {"country_code": "CY", "postal_code": "2303", "place_name": "Lakatameia", "latitude": "35.1735", "longitude": "33.3405"}, {"country_code": "CY", "postal_code": "2304", "place_name": "Lakatameia", "latitude": "35.1735", "longitude": "33.3405"}, {"country_code": "CY", "postal_code": "2305", "place_name": "Lakatameia", "latitude": "35.1735", "longitude": "33.3405"}, {"country_code": "CY", "postal_code": "2306", "place_name": "Lakatameia", "latitude": "35.1735", "longitude": "33.3405"}, {"country_code": "CY", "postal_code": "2310", "place_name": "Lakatameia", "latitude": "35.1735", "longitude": "33.3405"}, {"country_code": "CY", "postal_code": "2311", "place_name": "Lakatameia", "latitude": "35.1735", "longitude": "33.3405"}, {"country_code": "CY", "postal_code": "2312", "place_name": "Lakatameia", "latitude": "35.1735", "longitude": "33.3405"}, {"country_code": "CY", "postal_code": "2313", "place_name": "Lakatameia", "latitude": "35.1735", "longitude": "33.3405"}, {"country_code": "CY", "postal_code": "2314", "place_name": "Lakatameia", "latitude": "35.1735", "longitude": "33.3405"}, {"country_code": "CY", "postal_code": "2320", "place_name": "Lakatameia", "latitude": "35.1735", "longitude": "33.3405"}, {"country_code": "CY", "postal_code": "2321", "place_name": "Lakatameia", "latitude": "35.1735", "longitude": "33.3405"}, {"country_code": "CY", "postal_code": "2322", "place_name": "Lakatameia", "latitude": "35.1735", "longitude": "33.3405"}, {"country_code": "CY", "postal_code": "2323", "place_name": "Lakatameia", "latitude": "35.1735", "longitude": "33.3405"}, {"country_code": "CY", "postal_code": "2324", "place_name": "Lakatameia", "latitude": "35.1735", "longitude": "33.3405"}, {"country_code": "CY", "postal_code": "2325", "place_name": "Lakatameia", "latitude": "35.1735", "longitude": "33.3405"}, {"country_code": "CY", "postal_code": "2326", "place_name": "Lakatameia", "latitude": "35.1735", "longitude": "33.3405"}, {"country_code": "CY", "postal_code": "2328", "place_name": "Lakatameia", "latitude": "35.1735", "longitude": "33.3405"}, {"country_code": "CY", "postal_code": "2330", "place_name": "Lakatameia", "latitude": "35.1735", "longitude": "33.3405"}, {"country_code": "CY", "postal_code": "2331", "place_name": "Lakatameia", "latitude": "35.1735", "longitude": "33.3405"}, {"country_code": "CY", "postal_code": "2332", "place_name": "Lakatameia", "latitude": "35.1735", "longitude": "33.3405"}, {"country_code": "CY", "postal_code": "2333", "place_name": "Lakatameia", "latitude": "35.1735", "longitude": "33.3405"}, {"country_code": "CY", "postal_code": "2334", "place_name": "Lakatameia", "latitude": "35.1735", "longitude": "33.3405"}, {"country_code": "CY", "postal_code": "2335", "place_name": "Lakatameia", "latitude": "35.1735", "longitude": "33.3405"}, {"country_code": "CY", "postal_code": "2350", "place_name": "Synoikismos Anthoupolis", "latitude": "35.1735", "longitude": "33.3405"}, {"country_code": "CY", "postal_code": "2360", "place_name": "Agios Dometios", "latitude": "35.1735", "longitude": "33.3405"}, {"country_code": "CY", "postal_code": "2361", "place_name": "Agios Dometios", "latitude": "35.1735", "longitude": "33.3405"}, {"country_code": "CY", "postal_code": "2362", "place_name": "Agios Dometios", "latitude": "35.1735", "longitude": "33.3405"}, {"country_code": "CY", "postal_code": "2363", "place_name": "Agios Dometios", "latitude": "35.1735", "longitude": "33.3405"}, {"country_code": "CY", "postal_code": "2364", "place_name": "Agios Dometios", "latitude": "35.1735", "longitude": "33.3405"}, {"country_code": "CY", "postal_code": "2365", "place_name": "Agios Dometios", "latitude": "35.1735", "longitude": "33.3405"}, {"country_code": "CY", "postal_code": "2368", "place_name": "Agios Dometios", "latitude": "35.1735", "longitude": "33.3405"}, {"country_code": "CY", "postal_code": "2369", "place_name": "Agios Dometios", "latitude": "35.1735", "longitude": "33.3405"}, {"country_code": "CY", "postal_code": "2370", "place_name": "Agios Dometios", "latitude": "35.1735", "longitude": "33.3405"}, {"country_code": "CY", "postal_code": "2371", "place_name": "Agios Dometios", "latitude": "35.1735", "longitude": "33.3405"}, {"country_code": "CY", "postal_code": "2373", "place_name": "Agios Dometios", "latitude": "35.1735", "longitude": "33.3405"}, {"country_code": "CY", "postal_code": "2400", "place_name": "Egkomi", "latitude": "35.1632", "longitude": "33.3401"}, {"country_code": "CY", "postal_code": "2401", "place_name": "Egkomi", "latitude": "35.1632", "longitude": "33.3401"}, {"country_code": "CY", "postal_code": "2402", "place_name": "Egkomi", "latitude": "35.1632", "longitude": "33.3401"}, {"country_code": "CY", "postal_code": "2404", "place_name": "Egkomi", "latitude": "35.1632", "longitude": "33.3401"}, {"country_code": "CY", "postal_code": "2406", "place_name": "Egkomi", "latitude": "35.1632", "longitude": "33.3401"}, {"country_code": "CY", "postal_code": "2407", "place_name": "Egkomi", "latitude": "35.1632", "longitude": "33.3401"}, {"country_code": "CY", "postal_code": "2408", "place_name": "Egkomi", "latitude": "35.1632", "longitude": "33.3401"}, {"country_code": "CY", "postal_code": "2409", "place_name": "Egkomi", "latitude": "35.1632", "longitude": "33.3401"}, {"country_code": "CY", "postal_code": "2410", "place_name": "Egkomi", "latitude": "35.1632", "longitude": "33.3401"}, {"country_code": "CY", "postal_code": "2411", "place_name": "Egkomi", "latitude": "35.1632", "longitude": "33.3401"}, {"country_code": "CY", "postal_code": "2412", "place_name": "Egkomi", "latitude": "35.1632", "longitude": "33.3401"}, {"country_code": "CY", "postal_code": "2413", "place_name": "Egkomi", "latitude": "35.1632", "longitude": "33.3401"}, {"country_code": "CY", "postal_code": "2414", "place_name": "Egkomi", "latitude": "35.1632", "longitude": "33.3401"}, {"country_code": "CY", "postal_code": "2415", "place_name": "Egkomi", "latitude": "35.1632", "longitude": "33.3401"}, {"country_code": "CY", "postal_code": "2416", "place_name": "Egkomi", "latitude": "35.1632", "longitude": "33.3401"}, {"country_code": "CY", "postal_code": "2417", "place_name": "Egkomi", "latitude": "35.1632", "longitude": "33.3401"}, {"country_code": "CY", "postal_code": "2450", "place_name": "Kato Deftera", "latitude": "35.0849", "longitude": "33.2756"}, {"country_code": "CY", "postal_code": "2460", "place_name": "Pano Deftera", "latitude": "35.0778", "longitude": "33.2658"}, {"country_code": "CY", "postal_code": "2470", "place_name": "Trachonas", "latitude": "35.1964", "longitude": "33.3598"}, {"country_code": "CY", "postal_code": "2480", "place_name": "Tseri", "latitude": "35.0731", "longitude": "33.3234"}, {"country_code": "CY", "postal_code": "2500", "place_name": "Kythrea", "latitude": "35.2504", "longitude": "33.4806"}, {"country_code": "CY", "postal_code": "2520", "place_name": "Voni", "latitude": "35.2304", "longitude": "33.4961"}, {"country_code": "CY", "postal_code": "2521", "place_name": "E\u03c7\u03bf Metochi", "latitude": "35.2224", "longitude": "33.506"}, {"country_code": "CY", "postal_code": "2522", "place_name": "Epicho", "latitude": "35.2282", "longitude": "33.5126"}, {"country_code": "CY", "postal_code": "2523", "place_name": "Kalyvakia", "latitude": "35.2582", "longitude": "33.5484"}, {"country_code": "CY", "postal_code": "2524", "place_name": "Kourou Monastiri", "latitude": "35.224", "longitude": "33.5557"}, {"country_code": "CY", "postal_code": "2525", "place_name": "Mia Milia", "latitude": "35.2067", "longitude": "33.4201"}, {"country_code": "CY", "postal_code": "2526", "place_name": "Mora", "latitude": "35.1751", "longitude": "33.5508"}, {"country_code": "CY", "postal_code": "2527", "place_name": "Beikioi", "latitude": "35.2368", "longitude": "33.502"}, {"country_code": "CY", "postal_code": "2528", "place_name": "Neo Chorio Lefkosias", "latitude": "35.2348", "longitude": "33.4757"}, {"country_code": "CY", "postal_code": "2529", "place_name": "Palaikythro", "latitude": "35.2075", "longitude": "33.493"}, {"country_code": "CY", "postal_code": "2530", "place_name": "Petra Tou Digeni", "latitude": "35.238", "longitude": "33.5464"}, {"country_code": "CY", "postal_code": "2531", "place_name": "Pyrogi", "latitude": "35.0764", "longitude": "33.4903"}, {"country_code": "CY", "postal_code": "2532", "place_name": "Trachoni Lefkosias", "latitude": "35.2244", "longitude": "33.4786"}, {"country_code": "CY", "postal_code": "2533", "place_name": "Tymvou", "latitude": "35.1334", "longitude": "33.5114"}, {"country_code": "CY", "postal_code": "2534", "place_name": "Mandres Lefkosias", "latitude": "35.1681", "longitude": "33.5067"}, {"country_code": "CY", "postal_code": "2540", "place_name": "Dali", "latitude": "35.0229", "longitude": "33.4219"}, {"country_code": "CY", "postal_code": "2546", "place_name": "Dali (Ilioupoli)", "latitude": "35.0229", "longitude": "33.4219"}, {"country_code": "CY", "postal_code": "2547", "place_name": "Dali (Konstantia)", "latitude": "35.0229", "longitude": "33.4219"}, {"country_code": "CY", "postal_code": "2548", "place_name": "Dali (Kallithea)", "latitude": "35.0229", "longitude": "33.4219"}, {"country_code": "CY", "postal_code": "2549", "place_name": "Dali (Nea Lidra)", "latitude": "35.0229", "longitude": "33.4219"}, {"country_code": "CY", "postal_code": "2560", "place_name": "Agia Varvara Lefkosias", "latitude": "34.9969", "longitude": "33.3695"}, {"country_code": "CY", "postal_code": "2561", "place_name": "Agia", "latitude": "35.1091", "longitude": "33.5641"}, {"country_code": "CY", "postal_code": "2562", "place_name": "Agios Sozomenos", "latitude": "35.0657", "longitude": "33.4385"}, {"country_code": "CY", "postal_code": "2563", "place_name": "Alampra", "latitude": "34.989", "longitude": "33.3989"}, {"country_code": "CY", "postal_code": "2564", "place_name": "Kotsiatis", "latitude": "35.0132", "longitude": "33.3501"}, {"country_code": "CY", "postal_code": "2565", "place_name": "Lythrodontas", "latitude": "34.9511", "longitude": "33.2978"}, {"country_code": "CY", "postal_code": "2566", "place_name": "Lympia", "latitude": "34.9989", "longitude": "33.4617"}, {"country_code": "CY", "postal_code": "2567", "place_name": "Louroukina", "latitude": "35.0102", "longitude": "33.4647"}, {"country_code": "CY", "postal_code": "2568", "place_name": "Mathiatis", "latitude": "34.9635", "longitude": "33.3363"}, {"country_code": "CY", "postal_code": "2569", "place_name": "Margo", "latitude": "35.0833", "longitude": "33.4833"}, {"country_code": "CY", "postal_code": "2570", "place_name": "Moni Profitou Iliou", "latitude": "35.0075", "longitude": "33.4057"}, {"country_code": "CY", "postal_code": "2571", "place_name": "Nisou", "latitude": "35.0207", "longitude": "33.3935"}, {"country_code": "CY", "postal_code": "2572", "place_name": "Pera Chorio", "latitude": "35.012", "longitude": "33.3939"}, {"country_code": "CY", "postal_code": "2573", "place_name": "Potamia", "latitude": "35.0422", "longitude": "33.4453"}, {"country_code": "CY", "postal_code": "2574", "place_name": "Sia", "latitude": "34.9552", "longitude": "33.39"}, {"country_code": "CY", "postal_code": "2600", "place_name": "Klirou", "latitude": "35.02", "longitude": "33.1781"}, {"country_code": "CY", "postal_code": "2610", "place_name": "Agios Epifanios Oreinis", "latitude": "34.9818", "longitude": "33.1594"}, {"country_code": "CY", "postal_code": "2611", "place_name": "Agios Ioannis Malountas", "latitude": "34.9818", "longitude": "33.1594"}, {"country_code": "CY", "postal_code": "2612", "place_name": "Malounta", "latitude": "35.0351", "longitude": "33.1831"}, {"country_code": "CY", "postal_code": "2613", "place_name": "Apliki", "latitude": "34.9306", "longitude": "33.1175"}, {"country_code": "CY", "postal_code": "2614", "place_name": "Arediou", "latitude": "35.0484", "longitude": "33.1961"}, {"country_code": "CY", "postal_code": "2615", "place_name": "Gourri", "latitude": "34.9574", "longitude": "33.1578"}, {"country_code": "CY", "postal_code": "2616", "place_name": "Kalo Chorio Oreinis", "latitude": "34.9818", "longitude": "33.1594"}, {"country_code": "CY", "postal_code": "2617", "place_name": "Agrokipia", "latitude": "35.0436", "longitude": "33.1579"}, {"country_code": "CY", "postal_code": "2618", "place_name": "Lazanias", "latitude": "34.9487", "longitude": "33.1746"}, {"country_code": "CY", "postal_code": "2619", "place_name": "Kampi", "latitude": "34.9085", "longitude": "33.129"}, {"country_code": "CY", "postal_code": "2620", "place_name": "Farmakas", "latitude": "34.9124", "longitude": "33.1362"}, {"country_code": "CY", "postal_code": "2621", "place_name": "Moni Machaira", "latitude": "34.9716", "longitude": "33.1437"}, {"country_code": "CY", "postal_code": "2622", "place_name": "Mitsero", "latitude": "35.0427", "longitude": "33.124"}, {"country_code": "CY", "postal_code": "2623", "place_name": "Fikardou", "latitude": "34.9597", "longitude": "33.1709"}, {"country_code": "CY", "postal_code": "2624", "place_name": "Moni Agiou Panteleimonos Achera", "latitude": "34.9716", "longitude": "33.1437"}, {"country_code": "CY", "postal_code": "2630", "place_name": "Psimolofou", "latitude": "35.0625", "longitude": "33.2625"}, {"country_code": "CY", "postal_code": "2640", "place_name": "Anageia", "latitude": "35.0756", "longitude": "33.2543"}, {"country_code": "CY", "postal_code": "2641", "place_name": "Analiontas", "latitude": "35.0067", "longitude": "33.29"}, {"country_code": "CY", "postal_code": "2642", "place_name": "Episkopeio", "latitude": "35.0426", "longitude": "33.2458"}, {"country_code": "CY", "postal_code": "2643", "place_name": "Ergates", "latitude": "35.0537", "longitude": "33.2429"}, {"country_code": "CY", "postal_code": "2644", "place_name": "Kampia", "latitude": "35.0082", "longitude": "33.2563"}, {"country_code": "CY", "postal_code": "2645", "place_name": "Kapedes", "latitude": "34.9759", "longitude": "33.2537"}, {"country_code": "CY", "postal_code": "2646", "place_name": "Kataliontas", "latitude": "34.9907", "longitude": "33.2978"}, {"country_code": "CY", "postal_code": "2647", "place_name": "Margi", "latitude": "35.0239", "longitude": "33.3252"}, {"country_code": "CY", "postal_code": "2648", "place_name": "Moni Agiou Irakleidiou", "latitude": "35.0222", "longitude": "33.2707"}, {"country_code": "CY", "postal_code": "2649", "place_name": "Moni Archangelou Michail", "latitude": "35.0222", "longitude": "33.2707"}, {"country_code": "CY", "postal_code": "2650", "place_name": "Pera", "latitude": "35.0335", "longitude": "33.2541"}, {"country_code": "CY", "postal_code": "2651", "place_name": "Politiko", "latitude": "35.0274", "longitude": "33.2433"}, {"country_code": "CY", "postal_code": "2652", "place_name": "Filani", "latitude": "35.0304", "longitude": "33.2487"}, {"country_code": "CY", "postal_code": "2653", "place_name": "Moni Panagias Theotokou", "latitude": "35.0304", "longitude": "33.2487"}, {"country_code": "CY", "postal_code": "2660", "place_name": "Kokkinotrimithia", "latitude": "35.153", "longitude": "33.1997"}, {"country_code": "CY", "postal_code": "2670", "place_name": "Agia Marina Skyllouras", "latitude": "35.2265", "longitude": "33.1298"}, {"country_code": "CY", "postal_code": "2671", "place_name": "Agioi Trimithias", "latitude": "35.1146", "longitude": "33.2104"}, {"country_code": "CY", "postal_code": "2672", "place_name": "Agios Vasileios", "latitude": "35.2184", "longitude": "33.1838"}, {"country_code": "CY", "postal_code": "2673", "place_name": "Avlona", "latitude": "35.1613", "longitude": "33.1069"}, {"country_code": "CY", "postal_code": "2674", "place_name": "Gerolakkos", "latitude": "35.1814", "longitude": "33.2527"}, {"country_code": "CY", "postal_code": "2675", "place_name": "Deneia", "latitude": "35.1667", "longitude": "33.146"}, {"country_code": "CY", "postal_code": "2676", "place_name": "Dyo Potamoi", "latitude": "35.2458", "longitude": "33.0958"}, {"country_code": "CY", "postal_code": "2677", "place_name": "Kanli", "latitude": "35.2217", "longitude": "33.2596"}, {"country_code": "CY", "postal_code": "2678", "place_name": "Kioneli", "latitude": "35.2108", "longitude": "33.3095"}, {"country_code": "CY", "postal_code": "2679", "place_name": "Mammari", "latitude": "35.176", "longitude": "33.2043"}, {"country_code": "CY", "postal_code": "2680", "place_name": "Masari", "latitude": "35.1865", "longitude": "33.0769"}, {"country_code": "CY", "postal_code": "2681", "place_name": "Ortakioi", "latitude": "35.2022", "longitude": "33.3386"}, {"country_code": "CY", "postal_code": "2682", "place_name": "Palaiometocho", "latitude": "35.1249", "longitude": "33.191"}, {"country_code": "CY", "postal_code": "2683", "place_name": "Skylloura", "latitude": "35.2303", "longitude": "33.1654"}, {"country_code": "CY", "postal_code": "2684", "place_name": "Fyllia", "latitude": "35.1882", "longitude": "33.0919"}, {"country_code": "CY", "postal_code": "2700", "place_name": "Morfou", "latitude": "35.1987", "longitude": "32.9934"}, {"country_code": "CY", "postal_code": "2720", "place_name": "Akaki", "latitude": "35.1334", "longitude": "33.1287"}, {"country_code": "CY", "postal_code": "2721", "place_name": "Argaki", "latitude": "35.1799", "longitude": "33.0352"}, {"country_code": "CY", "postal_code": "2722", "place_name": "Astromeritis", "latitude": "35.141", "longitude": "33.0379"}, {"country_code": "CY", "postal_code": "2723", "place_name": "Kato Z\u03bfdia", "latitude": "35.1665", "longitude": "33.0079"}, {"country_code": "CY", "postal_code": "2724", "place_name": "Pano Zodia", "latitude": "35.1636", "longitude": "33.015"}, {"country_code": "CY", "postal_code": "2725", "place_name": "Katokopia", "latitude": "35.1742", "longitude": "33.0511"}, {"country_code": "CY", "postal_code": "2726", "place_name": "Kalo Chorio (Kapouti)", "latitude": "35.2443", "longitude": "33.0395"}, {"country_code": "CY", "postal_code": "2727", "place_name": "Kyra", "latitude": "35.2039", "longitude": "33.0603"}, {"country_code": "CY", "postal_code": "2728", "place_name": "Meniko", "latitude": "35.1094", "longitude": "33.1447"}, {"country_code": "CY", "postal_code": "2729", "place_name": "Syrianochori", "latitude": "35.2244", "longitude": "32.9412"}, {"country_code": "CY", "postal_code": "2730", "place_name": "Chrysida", "latitude": "35.0717", "longitude": "33.0357"}, {"country_code": "CY", "postal_code": "2731", "place_name": "Peristerona Lefkosias", "latitude": "35.0717", "longitude": "33.0357"}, {"country_code": "CY", "postal_code": "2740", "place_name": "Palaichori Morfou", "latitude": "35.0717", "longitude": "33.0357"}, {"country_code": "CY", "postal_code": "2745", "place_name": "Palaichori Oreinis", "latitude": "35.0717", "longitude": "33.0357"}, {"country_code": "CY", "postal_code": "2750", "place_name": "Alithinou", "latitude": "34.9461", "longitude": "33.0331"}, {"country_code": "CY", "postal_code": "2751", "place_name": "Alona", "latitude": "34.9337", "longitude": "33.0403"}, {"country_code": "CY", "postal_code": "2752", "place_name": "Askas", "latitude": "34.9297", "longitude": "33.0778"}, {"country_code": "CY", "postal_code": "2753", "place_name": "Lagoudera", "latitude": "34.9621", "longitude": "33.0101"}, {"country_code": "CY", "postal_code": "2754", "place_name": "Livadia Lefkosias", "latitude": "34.9459", "longitude": "33.0222"}, {"country_code": "CY", "postal_code": "2755", "place_name": "Platanistasa", "latitude": "34.9471", "longitude": "33.0461"}, {"country_code": "CY", "postal_code": "2756", "place_name": "Polystypos", "latitude": "34.9395", "longitude": "33.0183"}, {"country_code": "CY", "postal_code": "2757", "place_name": "Saranti", "latitude": "34.9692", "longitude": "32.9993"}, {"country_code": "CY", "postal_code": "2758", "place_name": "Fterikoudi", "latitude": "34.9436", "longitude": "33.0688"}, {"country_code": "CY", "postal_code": "2770", "place_name": "Kato Koutrafas", "latitude": "35.1028", "longitude": "32.9776"}, {"country_code": "CY", "postal_code": "2771", "place_name": "Pano Koutrafas", "latitude": "35.096", "longitude": "32.9894"}, {"country_code": "CY", "postal_code": "2772", "place_name": "Agia Marina Xyliatou", "latitude": "35.0503", "longitude": "33.0571"}, {"country_code": "CY", "postal_code": "2773", "place_name": "Agios Georgios Kafkallou", "latitude": "35.0375", "longitude": "33.013"}, {"country_code": "CY", "postal_code": "2774", "place_name": "Vyzakia", "latitude": "35.0785", "longitude": "33.0143"}, {"country_code": "CY", "postal_code": "2775", "place_name": "Agioi Iliofotoi", "latitude": "35.058", "longitude": "33.0928"}, {"country_code": "CY", "postal_code": "2776", "place_name": "Kato Moni", "latitude": "35.0605", "longitude": "33.0941"}, {"country_code": "CY", "postal_code": "2777", "place_name": "Nikitari", "latitude": "35.0733", "longitude": "32.9933"}, {"country_code": "CY", "postal_code": "2778", "place_name": "Asinou", "latitude": "35.0442", "longitude": "32.9723"}, {"country_code": "CY", "postal_code": "2779", "place_name": "Orounta", "latitude": "35.1012", "longitude": "33.0936"}, {"country_code": "CY", "postal_code": "2780", "place_name": "Potami", "latitude": "35.1044", "longitude": "33.0298"}, {"country_code": "CY", "postal_code": "2781", "place_name": "Xyliatos", "latitude": "35.0298", "longitude": "33.0434"}, {"country_code": "CY", "postal_code": "2782", "place_name": "Dasikos Stathmos Panagias", "latitude": "35.0671", "longitude": "33.0366"}, {"country_code": "CY", "postal_code": "2800", "place_name": "Kakopetria", "latitude": "34.9877", "longitude": "32.9047"}, {"country_code": "CY", "postal_code": "2820", "place_name": "Agia Eirini Lefkosias", "latitude": "34.9812", "longitude": "32.9695"}, {"country_code": "CY", "postal_code": "2821", "place_name": "Agios Epifanios Soleas", "latitude": "35.0638", "longitude": "32.8861"}, {"country_code": "CY", "postal_code": "2822", "place_name": "Agios Georgios Soleas", "latitude": "35.0508", "longitude": "32.9186"}, {"country_code": "CY", "postal_code": "2823", "place_name": "Agios Theodoros Soleas", "latitude": "35.0423", "longitude": "32.9279"}, {"country_code": "CY", "postal_code": "2824", "place_name": "Agios Nikolaos Lefkas", "latitude": "35.1024", "longitude": "32.8803"}, {"country_code": "CY", "postal_code": "2825", "place_name": "Agios Nikolaos Stegis", "latitude": "35.0508", "longitude": "32.9186"}, {"country_code": "CY", "postal_code": "2826", "place_name": "Angolemi", "latitude": "35.1181", "longitude": "32.9483"}, {"country_code": "CY", "postal_code": "2827", "place_name": "Galata", "latitude": "34.997", "longitude": "32.8993"}, {"country_code": "CY", "postal_code": "2828", "place_name": "Dasikos Stathmos Kapouras", "latitude": "35.0508", "longitude": "32.9186"}, {"country_code": "CY", "postal_code": "2829", "place_name": "Dasikos Stathmos Platanion", "latitude": "35.0508", "longitude": "32.9186"}, {"country_code": "CY", "postal_code": "2830", "place_name": "Elia Lefkosias", "latitude": "35.1327", "longitude": "32.9125"}, {"country_code": "CY", "postal_code": "2831", "place_name": "Evrychou", "latitude": "35.0414", "longitude": "32.9023"}, {"country_code": "CY", "postal_code": "2832", "place_name": "Kaliana", "latitude": "35.0107", "longitude": "32.8835"}, {"country_code": "CY", "postal_code": "2833", "place_name": "Kalo Chorio Soleas", "latitude": "35.051", "longitude": "32.9061"}, {"country_code": "CY", "postal_code": "2834", "place_name": "Kannavia", "latitude": "34.9831", "longitude": "32.9769"}, {"country_code": "CY", "postal_code": "2835", "place_name": "Katydata", "latitude": "35.0825", "longitude": "32.8879"}, {"country_code": "CY", "postal_code": "2836", "place_name": "Korakou", "latitude": "35.0411", "longitude": "32.8874"}, {"country_code": "CY", "postal_code": "2837", "place_name": "Agroladou", "latitude": "35.0486", "longitude": "32.897"}, {"country_code": "CY", "postal_code": "2838", "place_name": "Petra", "latitude": "35.1093", "longitude": "32.9085"}, {"country_code": "CY", "postal_code": "2839", "place_name": "Sinaoros", "latitude": "35.0093", "longitude": "32.8993"}, {"country_code": "CY", "postal_code": "2840", "place_name": "Skouriotissa", "latitude": "35.0917", "longitude": "32.8841"}, {"country_code": "CY", "postal_code": "2841", "place_name": "Spilia", "latitude": "34.9668", "longitude": "32.9555"}, {"country_code": "CY", "postal_code": "2842", "place_name": "Temvria", "latitude": "35.0278", "longitude": "32.8918"}, {"country_code": "CY", "postal_code": "2843", "place_name": "Kato Flasou", "latitude": "35.0608", "longitude": "32.8877"}, {"country_code": "CY", "postal_code": "2844", "place_name": "Pano Flasou", "latitude": "35.0689", "longitude": "32.8887"}, {"country_code": "CY", "postal_code": "2845", "place_name": "Linou", "latitude": "35.0744", "longitude": "32.8924"}, {"country_code": "CY", "postal_code": "2846", "place_name": "Kourdali", "latitude": "34.9751", "longitude": "32.9501"}, {"country_code": "CY", "postal_code": "2850", "place_name": "Pedoulas", "latitude": "34.968", "longitude": "32.829"}, {"country_code": "CY", "postal_code": "2860", "place_name": "Frodisia", "latitude": "35.0679", "longitude": "32.6608"}, {"country_code": "CY", "postal_code": "2861", "place_name": "Gerakies", "latitude": "35.0001", "longitude": "32.8051"}, {"country_code": "CY", "postal_code": "2862", "place_name": "Kalopanagiotis", "latitude": "34.9904", "longitude": "32.8273"}, {"country_code": "CY", "postal_code": "2863", "place_name": "Kampos", "latitude": "35.0403", "longitude": "32.7324"}, {"country_code": "CY", "postal_code": "2864", "place_name": "Mylikouri", "latitude": "34.9619", "longitude": "32.7509"}, {"country_code": "CY", "postal_code": "2865", "place_name": "Moni Kykkou", "latitude": "35.0084", "longitude": "32.769"}, {"country_code": "CY", "postal_code": "2866", "place_name": "Moutoullas", "latitude": "34.9843", "longitude": "32.8252"}, {"country_code": "CY", "postal_code": "2867", "place_name": "Oikos", "latitude": "34.9971", "longitude": "32.8277"}, {"country_code": "CY", "postal_code": "2868", "place_name": "Stathmos Orgonta", "latitude": "35.0084", "longitude": "32.769"}, {"country_code": "CY", "postal_code": "2869", "place_name": "Tsakistra", "latitude": "35.0251", "longitude": "32.7225"}, {"country_code": "CY", "postal_code": "2900", "place_name": "Lefka", "latitude": "35.112", "longitude": "32.85"}, {"country_code": "CY", "postal_code": "2920", "place_name": "Ampelikou", "latitude": "35.1203", "longitude": "32.804"}, {"country_code": "CY", "postal_code": "2921", "place_name": "Variseia", "latitude": "35.1303", "longitude": "32.7498"}, {"country_code": "CY", "postal_code": "2922", "place_name": "Galini", "latitude": "35.1358", "longitude": "32.767"}, {"country_code": "CY", "postal_code": "2923", "place_name": "Kazivera", "latitude": "35.1717", "longitude": "32.9164"}, {"country_code": "CY", "postal_code": "2924", "place_name": "Karavostasi", "latitude": "35.1381", "longitude": "32.8302"}, {"country_code": "CY", "postal_code": "2925", "place_name": "Neo Livadi", "latitude": "35.1442", "longitude": "32.8454"}, {"country_code": "CY", "postal_code": "2926", "place_name": "Nikitas", "latitude": "35.1763", "longitude": "32.9572"}, {"country_code": "CY", "postal_code": "2927", "place_name": "Xeros", "latitude": "35.1395", "longitude": "32.8343"}, {"country_code": "CY", "postal_code": "2928", "place_name": "Pentageia", "latitude": "35.1533", "longitude": "32.8848"}, {"country_code": "CY", "postal_code": "2929", "place_name": "Peristeronari", "latitude": "35.1326", "longitude": "32.8651"}, {"country_code": "CY", "postal_code": "2930", "place_name": "Potamos Tou Kampou", "latitude": "35.1437", "longitude": "32.8079"}, {"country_code": "CY", "postal_code": "2931", "place_name": "Prastio Lefkosias", "latitude": "35.1758", "longitude": "32.9396"}, {"country_code": "CY", "postal_code": "2932", "place_name": "Soloi", "latitude": "35.1598", "longitude": "32.8738"}, {"country_code": "CY", "postal_code": "2940", "place_name": "Kato Pyrgos", "latitude": "35.179", "longitude": "32.686"}, {"country_code": "CY", "postal_code": "2950", "place_name": "Pano Pyrgos", "latitude": "35.1549", "longitude": "32.6823"}, {"country_code": "CY", "postal_code": "2951", "place_name": "Agios Theodoros Tillirias", "latitude": "35.1763", "longitude": "32.6417"}, {"country_code": "CY", "postal_code": "2952", "place_name": "Agio Georgoudi", "latitude": "35.1607", "longitude": "32.6227"}, {"country_code": "CY", "postal_code": "2953", "place_name": "Alevga", "latitude": "35.1544", "longitude": "32.6063"}, {"country_code": "CY", "postal_code": "2954", "place_name": "Ammadies", "latitude": "35.1568", "longitude": "32.7165"}, {"country_code": "CY", "postal_code": "2955", "place_name": "Kokkina", "latitude": "35.1775", "longitude": "32.612"}, {"country_code": "CY", "postal_code": "2956", "place_name": "Limnitis", "latitude": "35.1679", "longitude": "32.7372"}, {"country_code": "CY", "postal_code": "2957", "place_name": "Loutros", "latitude": "35.1458", "longitude": "32.7456"}, {"country_code": "CY", "postal_code": "2958", "place_name": "Mansoura", "latitude": "35.1881", "longitude": "32.6324"}, {"country_code": "CY", "postal_code": "2959", "place_name": "Mosfileri", "latitude": "35.1804", "longitude": "32.6309"}, {"country_code": "CY", "postal_code": "2960", "place_name": "Xerovounos", "latitude": "35.1477", "longitude": "32.7339"}, {"country_code": "CY", "postal_code": "2961", "place_name": "Pachyammos", "latitude": "35.1716", "longitude": "32.5847"}, {"country_code": "CY", "postal_code": "2962", "place_name": "Pigenia", "latitude": "35.1676", "longitude": "32.6543"}, {"country_code": "CY", "postal_code": "2963", "place_name": "Challeri", "latitude": "35.1699", "longitude": "32.6612"}, {"country_code": "CY", "postal_code": "2964", "place_name": "Selladi tou Appi", "latitude": "35.1566", "longitude": "32.6196"}, {"country_code": "CY", "postal_code": "2965", "place_name": "Agios Ioannis Selemani", "latitude": "35.1492", "longitude": "32.7072"}, {"country_code": "CY", "postal_code": "3010", "place_name": "Lemesos", "latitude": "34.6841", "longitude": "33.0379"}, {"country_code": "CY", "postal_code": "3011", "place_name": "Lemesos", "latitude": "34.6841", "longitude": "33.0379"}, {"country_code": "CY", "postal_code": "3012", "place_name": "Lemesos", "latitude": "34.6841", "longitude": "33.0379"}, {"country_code": "CY", "postal_code": "3013", "place_name": "Lemesos", "latitude": "34.6841", "longitude": "33.0379"}, {"country_code": "CY", "postal_code": "3015", "place_name": "Lemesos", "latitude": "34.6841", "longitude": "33.0379"}, {"country_code": "CY", "postal_code": "3016", "place_name": "Lemesos", "latitude": "34.6841", "longitude": "33.0379"}, {"country_code": "CY", "postal_code": "3017", "place_name": "Lemesos", "latitude": "34.6841", "longitude": "33.0379"}, {"country_code": "CY", "postal_code": "3020", "place_name": "Lemesos", "latitude": "34.6841", "longitude": "33.0379"}, {"country_code": "CY", "postal_code": "3021", "place_name": "Lemesos", "latitude": "34.6841", "longitude": "33.0379"}, {"country_code": "CY", "postal_code": "3022", "place_name": "Lemesos", "latitude": "34.6841", "longitude": "33.0379"}, {"country_code": "CY", "postal_code": "3025", "place_name": "Lemesos", "latitude": "34.6841", "longitude": "33.0379"}, {"country_code": "CY", "postal_code": "3026", "place_name": "Lemesos", "latitude": "34.6841", "longitude": "33.0379"}, {"country_code": "CY", "postal_code": "3027", "place_name": "Lemesos", "latitude": "34.6841", "longitude": "33.0379"}, {"country_code": "CY", "postal_code": "3030", "place_name": "Lemesos", "latitude": "34.6841", "longitude": "33.0379"}, {"country_code": "CY", "postal_code": "3031", "place_name": "Lemesos", "latitude": "34.6841", "longitude": "33.0379"}, {"country_code": "CY", "postal_code": "3032", "place_name": "Lemesos", "latitude": "34.6841", "longitude": "33.0379"}, {"country_code": "CY", "postal_code": "3035", "place_name": "Lemesos", "latitude": "34.6841", "longitude": "33.0379"}, {"country_code": "CY", "postal_code": "3036", "place_name": "Lemesos", "latitude": "34.6841", "longitude": "33.0379"}, {"country_code": "CY", "postal_code": "3040", "place_name": "Lemesos", "latitude": "34.6841", "longitude": "33.0379"}, {"country_code": "CY", "postal_code": "3041", "place_name": "Lemesos", "latitude": "34.6841", "longitude": "33.0379"}, {"country_code": "CY", "postal_code": "3042", "place_name": "Lemesos", "latitude": "34.6841", "longitude": "33.0379"}, {"country_code": "CY", "postal_code": "3045", "place_name": "Lemesos", "latitude": "34.6841", "longitude": "33.0379"}, {"country_code": "CY", "postal_code": "3046", "place_name": "Lemesos", "latitude": "34.6841", "longitude": "33.0379"}, {"country_code": "CY", "postal_code": "3047", "place_name": "Lemesos", "latitude": "34.6841", "longitude": "33.0379"}, {"country_code": "CY", "postal_code": "3048", "place_name": "Lemesos", "latitude": "34.6841", "longitude": "33.0379"}, {"country_code": "CY", "postal_code": "3050", "place_name": "Lemesos", "latitude": "34.6841", "longitude": "33.0379"}, {"country_code": "CY", "postal_code": "3051", "place_name": "Lemesos", "latitude": "34.6841", "longitude": "33.0379"}, {"country_code": "CY", "postal_code": "3052", "place_name": "Lemesos", "latitude": "34.6841", "longitude": "33.0379"}, {"country_code": "CY", "postal_code": "3055", "place_name": "Lemesos", "latitude": "34.6841", "longitude": "33.0379"}, {"country_code": "CY", "postal_code": "3056", "place_name": "Lemesos", "latitude": "34.6841", "longitude": "33.0379"}, {"country_code": "CY", "postal_code": "3060", "place_name": "Lemesos", "latitude": "34.6841", "longitude": "33.0379"}, {"country_code": "CY", "postal_code": "3061", "place_name": "Lemesos", "latitude": "34.6841", "longitude": "33.0379"}, {"country_code": "CY", "postal_code": "3065", "place_name": "Lemesos", "latitude": "34.6841", "longitude": "33.0379"}, {"country_code": "CY", "postal_code": "3066", "place_name": "Lemesos", "latitude": "34.6841", "longitude": "33.0379"}, {"country_code": "CY", "postal_code": "3067", "place_name": "Lemesos", "latitude": "34.6841", "longitude": "33.0379"}, {"country_code": "CY", "postal_code": "3070", "place_name": "Lemesos", "latitude": "34.6841", "longitude": "33.0379"}, {"country_code": "CY", "postal_code": "3071", "place_name": "Lemesos", "latitude": "34.6841", "longitude": "33.0379"}, {"country_code": "CY", "postal_code": "3075", "place_name": "Lemesos", "latitude": "34.6841", "longitude": "33.0379"}, {"country_code": "CY", "postal_code": "3076", "place_name": "Lemesos", "latitude": "34.6841", "longitude": "33.0379"}, {"country_code": "CY", "postal_code": "3077", "place_name": "Lemesos", "latitude": "34.6841", "longitude": "33.0379"}, {"country_code": "CY", "postal_code": "3080", "place_name": "Lemesos", "latitude": "34.6841", "longitude": "33.0379"}, {"country_code": "CY", "postal_code": "3081", "place_name": "Lemesos", "latitude": "34.6841", "longitude": "33.0379"}, {"country_code": "CY", "postal_code": "3082", "place_name": "Lemesos", "latitude": "34.6841", "longitude": "33.0379"}, {"country_code": "CY", "postal_code": "3083", "place_name": "Lemesos", "latitude": "34.6841", "longitude": "33.0379"}, {"country_code": "CY", "postal_code": "3085", "place_name": "Lemesos", "latitude": "34.6841", "longitude": "33.0379"}, {"country_code": "CY", "postal_code": "3086", "place_name": "Lemesos", "latitude": "34.6841", "longitude": "33.0379"}, {"country_code": "CY", "postal_code": "3087", "place_name": "Lemesos", "latitude": "34.6841", "longitude": "33.0379"}, {"country_code": "CY", "postal_code": "3090", "place_name": "Lemesos", "latitude": "34.6841", "longitude": "33.0379"}, {"country_code": "CY", "postal_code": "3091", "place_name": "Lemesos", "latitude": "34.6841", "longitude": "33.0379"}, {"country_code": "CY", "postal_code": "3095", "place_name": "Lemesos", "latitude": "34.6841", "longitude": "33.0379"}, {"country_code": "CY", "postal_code": "3096", "place_name": "Lemesos", "latitude": "34.6841", "longitude": "33.0379"}, {"country_code": "CY", "postal_code": "3100", "place_name": "Lemesos", "latitude": "34.6841", "longitude": "33.0379"}, {"country_code": "CY", "postal_code": "3101", "place_name": "Lemesos", "latitude": "34.6841", "longitude": "33.0379"}, {"country_code": "CY", "postal_code": "3105", "place_name": "Lemesos", "latitude": "34.6841", "longitude": "33.0379"}, {"country_code": "CY", "postal_code": "3106", "place_name": "Lemesos", "latitude": "34.6841", "longitude": "33.0379"}, {"country_code": "CY", "postal_code": "3107", "place_name": "Lemesos", "latitude": "34.6841", "longitude": "33.0379"}, {"country_code": "CY", "postal_code": "3110", "place_name": "Lemesos", "latitude": "34.6841", "longitude": "33.0379"}, {"country_code": "CY", "postal_code": "3111", "place_name": "Lemesos", "latitude": "34.6841", "longitude": "33.0379"}, {"country_code": "CY", "postal_code": "3112", "place_name": "Lemesos", "latitude": "34.6841", "longitude": "33.0379"}, {"country_code": "CY", "postal_code": "3113", "place_name": "Lemesos", "latitude": "34.6841", "longitude": "33.0379"}, {"country_code": "CY", "postal_code": "3115", "place_name": "Lemesos", "latitude": "34.6841", "longitude": "33.0379"}, {"country_code": "CY", "postal_code": "3116", "place_name": "Lemesos", "latitude": "34.6841", "longitude": "33.0379"}, {"country_code": "CY", "postal_code": "3117", "place_name": "Lemesos", "latitude": "34.6841", "longitude": "33.0379"}, {"country_code": "CY", "postal_code": "3118", "place_name": "Lemesos", "latitude": "34.6841", "longitude": "33.0379"}, {"country_code": "CY", "postal_code": "3119", "place_name": "Lemesos", "latitude": "34.6841", "longitude": "33.0379"}, {"country_code": "CY", "postal_code": "3120", "place_name": "Lemesos", "latitude": "34.6841", "longitude": "33.0379"}, {"country_code": "CY", "postal_code": "3150", "place_name": "Lemesos", "latitude": "34.6841", "longitude": "33.0379"}, {"country_code": "CY", "postal_code": "3370", "place_name": "Anglikos Stratos Akrotiriou", "latitude": "34.6009", "longitude": "32.9554"}, {"country_code": "CY", "postal_code": "4000", "place_name": "Mesa Geitonia", "latitude": "34.7006", "longitude": "33.0437"}, {"country_code": "CY", "postal_code": "4001", "place_name": "Mesa Geitonia", "latitude": "34.7006", "longitude": "33.0437"}, {"country_code": "CY", "postal_code": "4002", "place_name": "Mesa Geitonia", "latitude": "34.7006", "longitude": "33.0437"}, {"country_code": "CY", "postal_code": "4003", "place_name": "Mesa Geitonia", "latitude": "34.7006", "longitude": "33.0437"}, {"country_code": "CY", "postal_code": "4004", "place_name": "Mesa Geitonia", "latitude": "34.7006", "longitude": "33.0437"}, {"country_code": "CY", "postal_code": "4005", "place_name": "Mesa Geitonia", "latitude": "34.7006", "longitude": "33.0437"}, {"country_code": "CY", "postal_code": "4006", "place_name": "Mesa Geitonia", "latitude": "34.7006", "longitude": "33.0437"}, {"country_code": "CY", "postal_code": "4007", "place_name": "Mesa Geitonia", "latitude": "34.7006", "longitude": "33.0437"}, {"country_code": "CY", "postal_code": "4008", "place_name": "Mesa Geitonia", "latitude": "34.7006", "longitude": "33.0437"}, {"country_code": "CY", "postal_code": "4040", "place_name": "Germasogeia", "latitude": "34.7207", "longitude": "33.0845"}, {"country_code": "CY", "postal_code": "4041", "place_name": "Germasogeia", "latitude": "34.7207", "longitude": "33.0845"}, {"country_code": "CY", "postal_code": "4042", "place_name": "Germasogeia", "latitude": "34.7207", "longitude": "33.0845"}, {"country_code": "CY", "postal_code": "4043", "place_name": "Germasogeia", "latitude": "34.7207", "longitude": "33.0845"}, {"country_code": "CY", "postal_code": "4044", "place_name": "Germasogeia", "latitude": "34.7207", "longitude": "33.0845"}, {"country_code": "CY", "postal_code": "4045", "place_name": "Germasogeia", "latitude": "34.7207", "longitude": "33.0845"}, {"country_code": "CY", "postal_code": "4046", "place_name": "Germasogeia", "latitude": "34.7207", "longitude": "33.0845"}, {"country_code": "CY", "postal_code": "4047", "place_name": "Germasogeia", "latitude": "34.7207", "longitude": "33.0845"}, {"country_code": "CY", "postal_code": "4048", "place_name": "Germasogeia", "latitude": "34.7207", "longitude": "33.0845"}, {"country_code": "CY", "postal_code": "4049", "place_name": "Germasogeia", "latitude": "34.7207", "longitude": "33.0845"}, {"country_code": "CY", "postal_code": "4100", "place_name": "Agios Athanasios", "latitude": "34.7093", "longitude": "33.05"}, {"country_code": "CY", "postal_code": "4101", "place_name": "Agios Athanasios", "latitude": "34.7093", "longitude": "33.05"}, {"country_code": "CY", "postal_code": "4102", "place_name": "Agios Athanasios", "latitude": "34.7093", "longitude": "33.05"}, {"country_code": "CY", "postal_code": "4103", "place_name": "Agios Athanasios", "latitude": "34.7093", "longitude": "33.05"}, {"country_code": "CY", "postal_code": "4104", "place_name": "Agios Athanasios", "latitude": "34.7093", "longitude": "33.05"}, {"country_code": "CY", "postal_code": "4105", "place_name": "Agios Athanasios", "latitude": "34.7093", "longitude": "33.05"}, {"country_code": "CY", "postal_code": "4106", "place_name": "Agios Athanasios", "latitude": "34.7093", "longitude": "33.05"}, {"country_code": "CY", "postal_code": "4107", "place_name": "Agios Athanasios", "latitude": "34.7093", "longitude": "33.05"}, {"country_code": "CY", "postal_code": "4108", "place_name": "Agios Athanasios", "latitude": "34.7093", "longitude": "33.05"}, {"country_code": "CY", "postal_code": "4130", "place_name": "Pano Polemidia", "latitude": "34.7056", "longitude": "32.9927"}, {"country_code": "CY", "postal_code": "4131", "place_name": "Pano Polemidia", "latitude": "34.7056", "longitude": "32.9927"}, {"country_code": "CY", "postal_code": "4150", "place_name": "Kato Polemidia", "latitude": "34.6972", "longitude": "32.9932"}, {"country_code": "CY", "postal_code": "4151", "place_name": "Kato Polemidia", "latitude": "34.6972", "longitude": "32.9932"}, {"country_code": "CY", "postal_code": "4152", "place_name": "Kato Polemidia", "latitude": "34.6972", "longitude": "32.9932"}, {"country_code": "CY", "postal_code": "4153", "place_name": "Kato Polemidia", "latitude": "34.6972", "longitude": "32.9932"}, {"country_code": "CY", "postal_code": "4154", "place_name": "Kato Polemidia", "latitude": "34.6972", "longitude": "32.9932"}, {"country_code": "CY", "postal_code": "4155", "place_name": "Kato Polemidia", "latitude": "34.6972", "longitude": "32.9932"}, {"country_code": "CY", "postal_code": "4156", "place_name": "Kato Polemidia", "latitude": "34.6972", "longitude": "32.9932"}, {"country_code": "CY", "postal_code": "4157", "place_name": "Kato Polemidia", "latitude": "34.6972", "longitude": "32.9932"}, {"country_code": "CY", "postal_code": "4158", "place_name": "Kato Polemidia", "latitude": "34.6972", "longitude": "32.9932"}, {"country_code": "CY", "postal_code": "4159", "place_name": "Kato Polemidia", "latitude": "34.6972", "longitude": "32.9932"}, {"country_code": "CY", "postal_code": "4170", "place_name": "Kato Polemidia", "latitude": "34.6972", "longitude": "32.9932"}, {"country_code": "CY", "postal_code": "4180", "place_name": "Ypsonas", "latitude": "34.688", "longitude": "32.9619"}, {"country_code": "CY", "postal_code": "4181", "place_name": "Ypsonas", "latitude": "34.688", "longitude": "32.9619"}, {"country_code": "CY", "postal_code": "4182", "place_name": "Ypsonas", "latitude": "34.688", "longitude": "32.9619"}, {"country_code": "CY", "postal_code": "4183", "place_name": "Ypsonas", "latitude": "34.688", "longitude": "32.9619"}, {"country_code": "CY", "postal_code": "4184", "place_name": "Ypsonas", "latitude": "34.688", "longitude": "32.9619"}, {"country_code": "CY", "postal_code": "4185", "place_name": "Ypsonas", "latitude": "34.688", "longitude": "32.9619"}, {"country_code": "CY", "postal_code": "4186", "place_name": "Ypsonas", "latitude": "34.688", "longitude": "32.9619"}, {"country_code": "CY", "postal_code": "4187", "place_name": "Ypsonas", "latitude": "34.688", "longitude": "32.9619"}, {"country_code": "CY", "postal_code": "4188", "place_name": "Ypsonas", "latitude": "34.688", "longitude": "32.9619"}, {"country_code": "CY", "postal_code": "4189", "place_name": "Ypsonas", "latitude": "34.688", "longitude": "32.9619"}, {"country_code": "CY", "postal_code": "4190", "place_name": "Ypsonas", "latitude": "34.688", "longitude": "32.9619"}, {"country_code": "CY", "postal_code": "4191", "place_name": "Ypsonas", "latitude": "34.688", "longitude": "32.9619"}, {"country_code": "CY", "postal_code": "4192", "place_name": "Ypsonas", "latitude": "34.688", "longitude": "32.9619"}, {"country_code": "CY", "postal_code": "4193", "place_name": "Ypsonas", "latitude": "34.688", "longitude": "32.9619"}, {"country_code": "CY", "postal_code": "4194", "place_name": "Ypsonas", "latitude": "34.688", "longitude": "32.9619"}, {"country_code": "CY", "postal_code": "4500", "place_name": "Kellaki", "latitude": "34.8165", "longitude": "33.1583"}, {"country_code": "CY", "postal_code": "4501", "place_name": "Akapnou", "latitude": "34.8388", "longitude": "33.1865"}, {"country_code": "CY", "postal_code": "4502", "place_name": "Asgata", "latitude": "34.7793", "longitude": "33.2553"}, {"country_code": "CY", "postal_code": "4503", "place_name": "Platies Metalleia", "latitude": "34.8225", "longitude": "33.1891"}, {"country_code": "CY", "postal_code": "4504", "place_name": "Vasa Kellakiou", "latitude": "34.8225", "longitude": "33.1891"}, {"country_code": "CY", "postal_code": "4505", "place_name": "Prastio Kellakiou", "latitude": "34.8225", "longitude": "33.1891"}, {"country_code": "CY", "postal_code": "4506", "place_name": "Eptagoneia", "latitude": "34.8472", "longitude": "33.1578"}, {"country_code": "CY", "postal_code": "4507", "place_name": "Klonari", "latitude": "34.8259", "longitude": "33.1814"}, {"country_code": "CY", "postal_code": "4508", "place_name": "Moni Zoodochou Pigis", "latitude": "34.8225", "longitude": "33.1891"}, {"country_code": "CY", "postal_code": "4509", "place_name": "Vikla", "latitude": "34.8271", "longitude": "33.1955"}, {"country_code": "CY", "postal_code": "4510", "place_name": "Sanida", "latitude": "34.8075", "longitude": "33.1887"}, {"country_code": "CY", "postal_code": "4511", "place_name": "Profitis Ilias", "latitude": "34.8075", "longitude": "33.1887"}, {"country_code": "CY", "postal_code": "4520", "place_name": "Parekklisia", "latitude": "34.7458", "longitude": "33.1583"}, {"country_code": "CY", "postal_code": "4521", "place_name": "Agios Tychon", "latitude": "34.743", "longitude": "33.1523"}, {"country_code": "CY", "postal_code": "4522", "place_name": "Akrounta", "latitude": "34.7652", "longitude": "33.0816"}, {"country_code": "CY", "postal_code": "4523", "place_name": "Armenochori", "latitude": "34.7458", "longitude": "33.1292"}, {"country_code": "CY", "postal_code": "4524", "place_name": "Monagroulli", "latitude": "34.749", "longitude": "33.213"}, {"country_code": "CY", "postal_code": "4525", "place_name": "Moni", "latitude": "34.7333", "longitude": "33.2"}, {"country_code": "CY", "postal_code": "4526", "place_name": "Moni Agiou Georgiou Alamanou", "latitude": "34.743", "longitude": "33.1523"}, {"country_code": "CY", "postal_code": "4527", "place_name": "Mouttagiaka", "latitude": "34.7202", "longitude": "33.1007"}, {"country_code": "CY", "postal_code": "4528", "place_name": "Akti Kyverniti", "latitude": "34.743", "longitude": "33.1523"}, {"country_code": "CY", "postal_code": "4528", "place_name": "Pentakomo", "latitude": "34.743", "longitude": "33.1523"}, {"country_code": "CY", "postal_code": "4529", "place_name": "Pyrgos", "latitude": "34.7417", "longitude": "33.1833"}, {"country_code": "CY", "postal_code": "4530", "place_name": "Foinikaria", "latitude": "34.7519", "longitude": "33.0978"}, {"country_code": "CY", "postal_code": "4531", "place_name": "Mouttagiaka Touristiki Periochi", "latitude": "34.7519", "longitude": "33.0978"}, {"country_code": "CY", "postal_code": "4532", "place_name": "Agios Tychon Touristiki Periochi", "latitude": "34.7519", "longitude": "33.0978"}, {"country_code": "CY", "postal_code": "4533", "place_name": "Parekklisia Touristiki Periochi", "latitude": "34.7519", "longitude": "33.0978"}, {"country_code": "CY", "postal_code": "4534", "place_name": "Pyrgos Touristiki Periochi", "latitude": "34.7519", "longitude": "33.0978"}, {"country_code": "CY", "postal_code": "4540", "place_name": "Paramytha", "latitude": "34.7608", "longitude": "32.9946"}, {"country_code": "CY", "postal_code": "4541", "place_name": "Apesia", "latitude": "34.7894", "longitude": "32.9776"}, {"country_code": "CY", "postal_code": "4542", "place_name": "Apsiou", "latitude": "34.7973", "longitude": "33.0167"}, {"country_code": "CY", "postal_code": "4543", "place_name": "Gerasa", "latitude": "34.8025", "longitude": "32.998"}, {"country_code": "CY", "postal_code": "4544", "place_name": "Kapileio", "latitude": "34.8325", "longitude": "32.959"}, {"country_code": "CY", "postal_code": "4545", "place_name": "Korfi", "latitude": "34.7959", "longitude": "32.9648"}, {"country_code": "CY", "postal_code": "4546", "place_name": "Limnatis", "latitude": "34.8132", "longitude": "32.9481"}, {"country_code": "CY", "postal_code": "4547", "place_name": "Mathikoloni", "latitude": "34.7752", "longitude": "33.0491"}, {"country_code": "CY", "postal_code": "4548", "place_name": "Moni Evangelistrias", "latitude": "34.7902", "longitude": "32.9904"}, {"country_code": "CY", "postal_code": "4549", "place_name": "Palodeia", "latitude": "34.745", "longitude": "33.0058"}, {"country_code": "CY", "postal_code": "4550", "place_name": "Spitali", "latitude": "34.7634", "longitude": "33.0022"}, {"country_code": "CY", "postal_code": "4551", "place_name": "Fasoula Lemesou", "latitude": "34.7639", "longitude": "33.0272"}, {"country_code": "CY", "postal_code": "4552", "place_name": "Monte Korfi", "latitude": "34.7636", "longitude": "33.0147"}, {"country_code": "CY", "postal_code": "4560", "place_name": "Louvaras", "latitude": "34.8365", "longitude": "33.0402"}, {"country_code": "CY", "postal_code": "4561", "place_name": "Agios Konstantinos", "latitude": "34.867", "longitude": "33.0665"}, {"country_code": "CY", "postal_code": "4562", "place_name": "Agios Pavlos", "latitude": "34.8639", "longitude": "33.046"}, {"country_code": "CY", "postal_code": "4563", "place_name": "Arakapas", "latitude": "34.8438", "longitude": "33.1121"}, {"country_code": "CY", "postal_code": "4564", "place_name": "Dierona", "latitude": "34.8299", "longitude": "33.1111"}, {"country_code": "CY", "postal_code": "4565", "place_name": "Zoopigi", "latitude": "34.8632", "longitude": "33.0158"}, {"country_code": "CY", "postal_code": "4566", "place_name": "Kalo Chorio Lemesou", "latitude": "34.8502", "longitude": "33.0311"}, {"country_code": "CY", "postal_code": "4567", "place_name": "Athrakos", "latitude": "34.8514", "longitude": "33.0491"}, {"country_code": "CY", "postal_code": "4568", "place_name": "Stathmos Pefkou", "latitude": "34.8538", "longitude": "33.0649"}, {"country_code": "CY", "postal_code": "4569", "place_name": "Sykopetra", "latitude": "34.8786", "longitude": "33.1125"}, {"country_code": "CY", "postal_code": "4600", "place_name": "Avdimou", "latitude": "34.6941", "longitude": "32.7626"}, {"country_code": "CY", "postal_code": "4601", "place_name": "Prastio Avdimou", "latitude": "34.705", "longitude": "32.7311"}, {"country_code": "CY", "postal_code": "4602", "place_name": "Alektora", "latitude": "34.7093", "longitude": "32.6835"}, {"country_code": "CY", "postal_code": "4603", "place_name": "Anogyra", "latitude": "34.7397", "longitude": "32.7345"}, {"country_code": "CY", "postal_code": "4604", "place_name": "Paramali", "latitude": "34.6941", "longitude": "32.7992"}, {"country_code": "CY", "postal_code": "4605", "place_name": "Platanisteia", "latitude": "34.7124", "longitude": "32.7109"}, {"country_code": "CY", "postal_code": "4606", "place_name": "Agios Thomas", "latitude": "34.7162", "longitude": "32.7255"}, {"country_code": "CY", "postal_code": "4607", "place_name": "Pissouri", "latitude": "34.6694", "longitude": "32.7013"}, {"country_code": "CY", "postal_code": "4608", "place_name": "Stathmos Pissouriou", "latitude": "34.705", "longitude": "32.7311"}, {"country_code": "CY", "postal_code": "4620", "place_name": "Episkopi Lemesou", "latitude": "34.6706", "longitude": "32.9018"}, {"country_code": "CY", "postal_code": "4630", "place_name": "Erimi", "latitude": "34.6777", "longitude": "32.9182"}, {"country_code": "CY", "postal_code": "4631", "place_name": "Kantou", "latitude": "34.6903", "longitude": "32.9067"}, {"country_code": "CY", "postal_code": "4632", "place_name": "Kolossi", "latitude": "34.6976", "longitude": "32.8768"}, {"country_code": "CY", "postal_code": "4633", "place_name": "Sotira Lemesou", "latitude": "34.7119", "longitude": "32.8634"}, {"country_code": "CY", "postal_code": "4634", "place_name": "Symvoulos", "latitude": "34.6976", "longitude": "32.8768"}, {"country_code": "CY", "postal_code": "4635", "place_name": "Sterakovou", "latitude": "34.7106", "longitude": "32.8189"}, {"country_code": "CY", "postal_code": "4636", "place_name": "Kolossi (Synoikismos)", "latitude": "34.6976", "longitude": "32.8768"}, {"country_code": "CY", "postal_code": "4640", "place_name": "Akrotiri", "latitude": "34.6377", "longitude": "32.9596"}, {"country_code": "CY", "postal_code": "4645", "place_name": "Asomatos Lemesou", "latitude": "34.6377", "longitude": "32.9596"}, {"country_code": "CY", "postal_code": "4650", "place_name": "Moni Agiou Nikolaou Gaton", "latitude": "34.6469", "longitude": "32.9737"}, {"country_code": "CY", "postal_code": "4651", "place_name": "Trachoni Lemesou", "latitude": "34.6469", "longitude": "32.9737"}, {"country_code": "CY", "postal_code": "4652", "place_name": "Tserkezoi", "latitude": "34.6469", "longitude": "32.9737"}, {"country_code": "CY", "postal_code": "4653", "place_name": "Fasouri", "latitude": "34.6469", "longitude": "32.9737"}, {"country_code": "CY", "postal_code": "4700", "place_name": "Pachna", "latitude": "34.7787", "longitude": "32.7935"}, {"country_code": "CY", "postal_code": "4710", "place_name": "Agios Amvrosios Lemesou", "latitude": "34.7811", "longitude": "32.8261"}, {"country_code": "CY", "postal_code": "4711", "place_name": "Agios Therapon", "latitude": "34.7976", "longitude": "32.8398"}, {"country_code": "CY", "postal_code": "4712", "place_name": "Alassa", "latitude": "34.7631", "longitude": "32.9269"}, {"country_code": "CY", "postal_code": "4713", "place_name": "Zanakia", "latitude": "34.7304", "longitude": "32.8755"}, {"country_code": "CY", "postal_code": "4714", "place_name": "Kato Kivides", "latitude": "34.7647", "longitude": "32.8638"}, {"country_code": "CY", "postal_code": "4715", "place_name": "Pano Kivides", "latitude": "34.7574", "longitude": "32.8572"}, {"country_code": "CY", "postal_code": "4716", "place_name": "Lofou", "latitude": "34.816", "longitude": "32.8754"}, {"country_code": "CY", "postal_code": "4717", "place_name": "Souni", "latitude": "34.7398", "longitude": "32.8811"}, {"country_code": "CY", "postal_code": "4730", "place_name": "Trimiklini", "latitude": "34.8472", "longitude": "32.9123"}, {"country_code": "CY", "postal_code": "4740", "place_name": "Agios Georgios Lemesou", "latitude": "34.8437", "longitude": "32.9104"}, {"country_code": "CY", "postal_code": "4741", "place_name": "Agios Mamas", "latitude": "34.8512", "longitude": "32.9489"}, {"country_code": "CY", "postal_code": "4742", "place_name": "Silikou", "latitude": "34.8318", "longitude": "32.8898"}, {"country_code": "CY", "postal_code": "4743", "place_name": "Kouka", "latitude": "34.8512", "longitude": "32.8879"}, {"country_code": "CY", "postal_code": "4744", "place_name": "Laneia", "latitude": "34.8249", "longitude": "32.9215"}, {"country_code": "CY", "postal_code": "4745", "place_name": "Mesa Potamos", "latitude": "34.8437", "longitude": "32.9104"}, {"country_code": "CY", "postal_code": "4746", "place_name": "Monagri", "latitude": "34.8098", "longitude": "32.9106"}, {"country_code": "CY", "postal_code": "4747", "place_name": "Moniatis", "latitude": "34.868", "longitude": "32.8976"}, {"country_code": "CY", "postal_code": "4748", "place_name": "Saittas", "latitude": "34.8687", "longitude": "32.9163"}, {"country_code": "CY", "postal_code": "4749", "place_name": "Stathmos Filagron", "latitude": "34.8437", "longitude": "32.9104"}, {"country_code": "CY", "postal_code": "4750", "place_name": "Doros", "latitude": "34.8153", "longitude": "32.9089"}, {"country_code": "CY", "postal_code": "4751", "place_name": "Stathmos Laneias", "latitude": "34.8153", "longitude": "32.9089"}, {"country_code": "CY", "postal_code": "4760", "place_name": "Omodos", "latitude": "34.8483", "longitude": "32.8089"}, {"country_code": "CY", "postal_code": "4770", "place_name": "Arsos Lemesou", "latitude": "34.8412", "longitude": "32.7694"}, {"country_code": "CY", "postal_code": "4771", "place_name": "Vasa Koilaniou", "latitude": "34.8291", "longitude": "32.803"}, {"country_code": "CY", "postal_code": "4772", "place_name": "Vouni", "latitude": "34.824", "longitude": "32.8342"}, {"country_code": "CY", "postal_code": "4773", "place_name": "Gerovasa", "latitude": "34.8128", "longitude": "32.7393"}, {"country_code": "CY", "postal_code": "4774", "place_name": "Dora", "latitude": "34.7807", "longitude": "32.7383"}, {"country_code": "CY", "postal_code": "4775", "place_name": "Kissousa", "latitude": "34.8108", "longitude": "32.7948"}, {"country_code": "CY", "postal_code": "4776", "place_name": "Koilani", "latitude": "34.8447", "longitude": "32.8603"}, {"country_code": "CY", "postal_code": "4777", "place_name": "Malia", "latitude": "34.8173", "longitude": "32.7826"}, {"country_code": "CY", "postal_code": "4778", "place_name": "Mandria Lemesou", "latitude": "34.8701", "longitude": "32.8323"}, {"country_code": "CY", "postal_code": "4779", "place_name": "Pera Pedi", "latitude": "34.8598", "longitude": "32.8757"}, {"country_code": "CY", "postal_code": "4780", "place_name": "Potamiou", "latitude": "34.8241", "longitude": "32.8067"}, {"country_code": "CY", "postal_code": "4781", "place_name": "Trozaina", "latitude": "34.8241", "longitude": "32.8067"}, {"country_code": "CY", "postal_code": "4800", "place_name": "Troodos", "latitude": "34.9234", "longitude": "32.8805"}, {"country_code": "CY", "postal_code": "4810", "place_name": "Kato Amiantos", "latitude": "34.9172", "longitude": "32.9358"}, {"country_code": "CY", "postal_code": "4811", "place_name": "Pano Amiantos", "latitude": "34.9278", "longitude": "32.9173"}, {"country_code": "CY", "postal_code": "4812", "place_name": "Moni Trooditissis", "latitude": "34.9039", "longitude": "32.8826"}, {"country_code": "CY", "postal_code": "4813", "place_name": "Stathmos Mozora", "latitude": "34.9039", "longitude": "32.8826"}, {"country_code": "CY", "postal_code": "4814", "place_name": "Foini", "latitude": "34.8924", "longitude": "32.8378"}, {"country_code": "CY", "postal_code": "4815", "place_name": "Kato Platres", "latitude": "34.8782", "longitude": "32.8396"}, {"country_code": "CY", "postal_code": "4820", "place_name": "Pano Platres", "latitude": "34.8866", "longitude": "32.8597"}, {"country_code": "CY", "postal_code": "4840", "place_name": "Prodromos", "latitude": "34.9487", "longitude": "32.831"}, {"country_code": "CY", "postal_code": "4841", "place_name": "Dasiko Kolegio Kyprou", "latitude": "34.9364", "longitude": "32.8087"}, {"country_code": "CY", "postal_code": "4842", "place_name": "Agios Dimitrios", "latitude": "34.9256", "longitude": "32.8092"}, {"country_code": "CY", "postal_code": "4843", "place_name": "Kaminaria", "latitude": "34.9283", "longitude": "32.7842"}, {"country_code": "CY", "postal_code": "4844", "place_name": "Lemithou", "latitude": "34.9494", "longitude": "32.8114"}, {"country_code": "CY", "postal_code": "4845", "place_name": "Palaiomylos", "latitude": "34.9352", "longitude": "32.8221"}, {"country_code": "CY", "postal_code": "4846", "place_name": "Treis Elies", "latitude": "34.9311", "longitude": "32.7942"}, {"country_code": "CY", "postal_code": "4847", "place_name": "Moni Panagias Trikoukkiotissis", "latitude": "34.9364", "longitude": "32.8087"}, {"country_code": "CY", "postal_code": "4848", "place_name": "Scholi Mitsi", "latitude": "34.9364", "longitude": "32.8087"}, {"country_code": "CY", "postal_code": "4860", "place_name": "Agros", "latitude": "34.9178", "longitude": "33.0181"}, {"country_code": "CY", "postal_code": "4870", "place_name": "Agios Theodoros Lemesou", "latitude": "34.8939", "longitude": "33.0325"}, {"country_code": "CY", "postal_code": "4871", "place_name": "Agios Ioannis Lemesou", "latitude": "34.915", "longitude": "32.993"}, {"country_code": "CY", "postal_code": "4872", "place_name": "Agridia", "latitude": "34.9283", "longitude": "32.9947"}, {"country_code": "CY", "postal_code": "4873", "place_name": "Dymes", "latitude": "34.9175", "longitude": "32.9839"}, {"country_code": "CY", "postal_code": "4874", "place_name": "Kato Mylos", "latitude": "34.8953", "longitude": "33.006"}, {"country_code": "CY", "postal_code": "4875", "place_name": "Chandria", "latitude": "34.9439", "longitude": "32.9939"}, {"country_code": "CY", "postal_code": "4876", "place_name": "Kyperounta", "latitude": "34.9381", "longitude": "32.9755"}, {"country_code": "CY", "postal_code": "4877", "place_name": "Sanatorio Kyperountas", "latitude": "34.915", "longitude": "32.993"}, {"country_code": "CY", "postal_code": "4878", "place_name": "Pelendri", "latitude": "34.896", "longitude": "32.9682"}, {"country_code": "CY", "postal_code": "4879", "place_name": "Potamitissa", "latitude": "34.9073", "longitude": "32.9897"}, {"country_code": "CY", "postal_code": "8010", "place_name": "Pafos", "latitude": "34.7768", "longitude": "32.4245"}, {"country_code": "CY", "postal_code": "8011", "place_name": "Pafos", "latitude": "34.7768", "longitude": "32.4245"}, {"country_code": "CY", "postal_code": "8015", "place_name": "Pafos", "latitude": "34.7768", "longitude": "32.4245"}, {"country_code": "CY", "postal_code": "8016", "place_name": "Pafos", "latitude": "34.7768", "longitude": "32.4245"}, {"country_code": "CY", "postal_code": "8020", "place_name": "Pafos", "latitude": "34.7768", "longitude": "32.4245"}, {"country_code": "CY", "postal_code": "8021", "place_name": "Pafos", "latitude": "34.7768", "longitude": "32.4245"}, {"country_code": "CY", "postal_code": "8025", "place_name": "Pafos", "latitude": "34.7768", "longitude": "32.4245"}, {"country_code": "CY", "postal_code": "8026", "place_name": "Pafos", "latitude": "34.7768", "longitude": "32.4245"}, {"country_code": "CY", "postal_code": "8027", "place_name": "Pafos", "latitude": "34.7768", "longitude": "32.4245"}, {"country_code": "CY", "postal_code": "8028", "place_name": "Pafos", "latitude": "34.7768", "longitude": "32.4245"}, {"country_code": "CY", "postal_code": "8035", "place_name": "Pafos", "latitude": "34.7768", "longitude": "32.4245"}, {"country_code": "CY", "postal_code": "8036", "place_name": "Pafos", "latitude": "34.7768", "longitude": "32.4245"}, {"country_code": "CY", "postal_code": "8040", "place_name": "Pafos", "latitude": "34.7768", "longitude": "32.4245"}, {"country_code": "CY", "postal_code": "8041", "place_name": "Pafos", "latitude": "34.7768", "longitude": "32.4245"}, {"country_code": "CY", "postal_code": "8042", "place_name": "Pafos", "latitude": "34.7768", "longitude": "32.4245"}, {"country_code": "CY", "postal_code": "8045", "place_name": "Pafos", "latitude": "34.7768", "longitude": "32.4245"}, {"country_code": "CY", "postal_code": "8046", "place_name": "Pafos", "latitude": "34.7768", "longitude": "32.4245"}, {"country_code": "CY", "postal_code": "8047", "place_name": "Pafos", "latitude": "34.7768", "longitude": "32.4245"}, {"country_code": "CY", "postal_code": "8048", "place_name": "Pafos", "latitude": "34.7768", "longitude": "32.4245"}, {"country_code": "CY", "postal_code": "8049", "place_name": "Pafos", "latitude": "34.7768", "longitude": "32.4245"}, {"country_code": "CY", "postal_code": "8200", "place_name": "Geroskipou", "latitude": "34.7609", "longitude": "32.4484"}, {"country_code": "CY", "postal_code": "8201", "place_name": "Geroskipou", "latitude": "34.7609", "longitude": "32.4484"}, {"country_code": "CY", "postal_code": "8220", "place_name": "Chlorakas", "latitude": "34.7984", "longitude": "32.4065"}, {"country_code": "CY", "postal_code": "8221", "place_name": "Chlorakas", "latitude": "34.7984", "longitude": "32.4065"}, {"country_code": "CY", "postal_code": "8240", "place_name": "Agia Marinouda", "latitude": "34.7598", "longitude": "32.4759"}, {"country_code": "CY", "postal_code": "8250", "place_name": "Empa", "latitude": "34.807", "longitude": "32.4241"}, {"country_code": "CY", "postal_code": "8260", "place_name": "Lempa", "latitude": "34.8086", "longitude": "32.4079"}, {"country_code": "CY", "postal_code": "8270", "place_name": "Tremithousa", "latitude": "34.8174", "longitude": "32.4437"}, {"country_code": "CY", "postal_code": "8280", "place_name": "Mesogi", "latitude": "34.8153", "longitude": "32.4563"}, {"country_code": "CY", "postal_code": "8290", "place_name": "Mesa Chorio", "latitude": "34.8089", "longitude": "32.462"}, {"country_code": "CY", "postal_code": "8300", "place_name": "Konia", "latitude": "34.7852", "longitude": "32.459"}, {"country_code": "CY", "postal_code": "8310", "place_name": "Koloni", "latitude": "34.7486", "longitude": "32.4656"}, {"country_code": "CY", "postal_code": "8500", "place_name": "Kouklia Pafou", "latitude": "34.7099", "longitude": "32.5733"}, {"country_code": "CY", "postal_code": "8501", "place_name": "Agia Varvara Pafou", "latitude": "34.7507", "longitude": "32.5116"}, {"country_code": "CY", "postal_code": "8502", "place_name": "Anarita", "latitude": "34.7406", "longitude": "32.5338"}, {"country_code": "CY", "postal_code": "8503", "place_name": "Acheleia", "latitude": "34.7392", "longitude": "32.4859"}, {"country_code": "CY", "postal_code": "8504", "place_name": "Mandria Pafou", "latitude": "34.7157", "longitude": "32.5317"}, {"country_code": "CY", "postal_code": "8505", "place_name": "Nikokleia", "latitude": "34.7289", "longitude": "32.5774"}, {"country_code": "CY", "postal_code": "8506", "place_name": "Souskiou", "latitude": "34.7335", "longitude": "32.6026"}, {"country_code": "CY", "postal_code": "8507", "place_name": "Timi", "latitude": "34.7318", "longitude": "32.5161"}, {"country_code": "CY", "postal_code": "8508", "place_name": "Foinikas", "latitude": "34.7528", "longitude": "32.5687"}, {"country_code": "CY", "postal_code": "8509", "place_name": "Kouklia Pafou (Lofoi Afroditis)", "latitude": "34.7337", "longitude": "32.5446"}, {"country_code": "CY", "postal_code": "8510", "place_name": "Kouklia Pafou (Cha Potami)", "latitude": "34.808", "longitude": "32.5118"}, {"country_code": "CY", "postal_code": "8520", "place_name": "Marathounta", "latitude": "34.791", "longitude": "32.4881"}, {"country_code": "CY", "postal_code": "8521", "place_name": "Axylou", "latitude": "34.8063", "longitude": "32.5644"}, {"country_code": "CY", "postal_code": "8522", "place_name": "Armou", "latitude": "34.7994", "longitude": "32.4785"}, {"country_code": "CY", "postal_code": "8523", "place_name": "Eledio", "latitude": "34.8095", "longitude": "32.5676"}, {"country_code": "CY", "postal_code": "8524", "place_name": "Episkopi Pafou", "latitude": "34.7958", "longitude": "32.5264"}, {"country_code": "CY", "postal_code": "8525", "place_name": "Nata", "latitude": "34.7782", "longitude": "32.5712"}, {"country_code": "CY", "postal_code": "8526", "place_name": "Choletria", "latitude": "34.7632", "longitude": "32.5988"}, {"country_code": "CY", "postal_code": "8540", "place_name": "Tsada", "latitude": "34.8386", "longitude": "32.475"}, {"country_code": "CY", "postal_code": "8541", "place_name": "Kallepeia", "latitude": "34.8456", "longitude": "32.5001"}, {"country_code": "CY", "postal_code": "8542", "place_name": "Moro Nero", "latitude": "34.813", "longitude": "32.5259"}, {"country_code": "CY", "postal_code": "8543", "place_name": "Koili", "latitude": "34.8596", "longitude": "32.4551"}, {"country_code": "CY", "postal_code": "8544", "place_name": "Kourdaka", "latitude": "34.85", "longitude": "32.5085"}, {"country_code": "CY", "postal_code": "8545", "place_name": "Lemona", "latitude": "34.8623", "longitude": "32.5577"}, {"country_code": "CY", "postal_code": "8546", "place_name": "Letymvou", "latitude": "34.8573", "longitude": "32.5136"}, {"country_code": "CY", "postal_code": "8547", "place_name": "Pitargou", "latitude": "34.8374", "longitude": "32.5337"}, {"country_code": "CY", "postal_code": "8548", "place_name": "Kato Panagia", "latitude": "34.85", "longitude": "32.5085"}, {"country_code": "CY", "postal_code": "8549", "place_name": "Polemi", "latitude": "34.8861", "longitude": "32.5071"}, {"country_code": "CY", "postal_code": "8550", "place_name": "Stroumpi", "latitude": "34.8878", "longitude": "32.4813"}, {"country_code": "CY", "postal_code": "8552", "place_name": "Choulou", "latitude": "34.8726", "longitude": "32.5582"}, {"country_code": "CY", "postal_code": "8560", "place_name": "Pegeia", "latitude": "34.8838", "longitude": "32.3819"}, {"country_code": "CY", "postal_code": "8570", "place_name": "Pegeia (Agios Georgios Pegeias)", "latitude": "34.8646", "longitude": "32.4199"}, {"country_code": "CY", "postal_code": "8571", "place_name": "Pegeia (Maa)", "latitude": "34.8646", "longitude": "32.4199"}, {"country_code": "CY", "postal_code": "8572", "place_name": "Akoursos", "latitude": "34.8868", "longitude": "32.4215"}, {"country_code": "CY", "postal_code": "8573", "place_name": "Kathikas", "latitude": "34.9125", "longitude": "32.4257"}, {"country_code": "CY", "postal_code": "8574", "place_name": "Kissonerga", "latitude": "34.8228", "longitude": "32.4013"}, {"country_code": "CY", "postal_code": "8575", "place_name": "Pegeia (Kolpos Korallion)", "latitude": "34.8646", "longitude": "32.4199"}, {"country_code": "CY", "postal_code": "8576", "place_name": "Moni Agiou Neofytou", "latitude": "34.8646", "longitude": "32.4199"}, {"country_code": "CY", "postal_code": "8577", "place_name": "Tala", "latitude": "34.8363", "longitude": "32.431"}, {"country_code": "CY", "postal_code": "8600", "place_name": "Mamonia", "latitude": "34.7697", "longitude": "32.6372"}, {"country_code": "CY", "postal_code": "8601", "place_name": "Stavrokonnou", "latitude": "34.7855", "longitude": "32.6182"}, {"country_code": "CY", "postal_code": "8602", "place_name": "Kato Archimandrita", "latitude": "34.7354", "longitude": "32.6788"}, {"country_code": "CY", "postal_code": "8603", "place_name": "Pano Archimandrita", "latitude": "34.7509", "longitude": "32.6781"}, {"country_code": "CY", "postal_code": "8604", "place_name": "Maronas", "latitude": "34.7683", "longitude": "32.6672"}, {"country_code": "CY", "postal_code": "8605", "place_name": "Mousere", "latitude": "34.7708", "longitude": "32.7155"}, {"country_code": "CY", "postal_code": "8606", "place_name": "Prastio Pafou", "latitude": "34.7915", "longitude": "32.6938"}, {"country_code": "CY", "postal_code": "8607", "place_name": "Agios Georgios Pafou", "latitude": "34.7787", "longitude": "32.6522"}, {"country_code": "CY", "postal_code": "8608", "place_name": "Trachypedoula", "latitude": "34.8006", "longitude": "32.679"}, {"country_code": "CY", "postal_code": "8609", "place_name": "Fasoula Pafou", "latitude": "34.7509", "longitude": "32.632"}, {"country_code": "CY", "postal_code": "8620", "place_name": "Salamiou", "latitude": "34.8403", "longitude": "32.69"}, {"country_code": "CY", "postal_code": "8621", "place_name": "Agios Ioannis Pafou", "latitude": "34.8695", "longitude": "32.6912"}, {"country_code": "CY", "postal_code": "8622", "place_name": "Malounta Pafou", "latitude": "34.8649", "longitude": "32.6907"}, {"country_code": "CY", "postal_code": "8623", "place_name": "Agios Nikolaos Pafou", "latitude": "34.862", "longitude": "32.7535"}, {"country_code": "CY", "postal_code": "8624", "place_name": "Pera Vasa", "latitude": "34.8444", "longitude": "32.7058"}, {"country_code": "CY", "postal_code": "8625", "place_name": "Arminou", "latitude": "34.8623", "longitude": "32.7199"}, {"country_code": "CY", "postal_code": "8626", "place_name": "Kedares", "latitude": "34.8363", "longitude": "32.7365"}, {"country_code": "CY", "postal_code": "8627", "place_name": "Kidasi", "latitude": "34.8073", "longitude": "32.7133"}, {"country_code": "CY", "postal_code": "8628", "place_name": "Kelokedara", "latitude": "34.8124", "longitude": "32.6516"}, {"country_code": "CY", "postal_code": "8629", "place_name": "Fylousa Chrysochous", "latitude": "34.8444", "longitude": "32.7058"}, {"country_code": "CY", "postal_code": "8630", "place_name": "Praitori", "latitude": "34.849", "longitude": "32.7458"}, {"country_code": "CY", "postal_code": "8631", "place_name": "Mesana", "latitude": "34.8491", "longitude": "32.7068"}, {"country_code": "CY", "postal_code": "8640", "place_name": "Pano Panagia", "latitude": "34.9195", "longitude": "32.6315"}, {"country_code": "CY", "postal_code": "8641", "place_name": "Agia Marina Kelokedaron", "latitude": "34.8287", "longitude": "32.6144"}, {"country_code": "CY", "postal_code": "8642", "place_name": "Amargeti", "latitude": "34.8243", "longitude": "32.5838"}, {"country_code": "CY", "postal_code": "8643", "place_name": "Asprogia", "latitude": "34.9223", "longitude": "32.6147"}, {"country_code": "CY", "postal_code": "8644", "place_name": "Vretsia", "latitude": "34.8899", "longitude": "32.6588"}, {"country_code": "CY", "postal_code": "8645", "place_name": "Galataria", "latitude": "34.8774", "longitude": "32.6317"}, {"country_code": "CY", "postal_code": "8646", "place_name": "Koilineia", "latitude": "34.8851", "longitude": "32.6167"}, {"country_code": "CY", "postal_code": "8647", "place_name": "Lapithiou", "latitude": "34.9048", "longitude": "32.5965"}, {"country_code": "CY", "postal_code": "8648", "place_name": "Mamountali", "latitude": "34.914", "longitude": "32.6023"}, {"country_code": "CY", "postal_code": "8649", "place_name": "Moni Chrysorroiatissis", "latitude": "34.8851", "longitude": "32.6167"}, {"country_code": "CY", "postal_code": "8650", "place_name": "Pentalia", "latitude": "34.856", "longitude": "32.6207"}, {"country_code": "CY", "postal_code": "8651", "place_name": "Statos - Agios Fotios", "latitude": "34.8885", "longitude": "32.6159"}, {"country_code": "CY", "postal_code": "8654", "place_name": "Faleia", "latitude": "34.8598", "longitude": "32.5893"}, {"country_code": "CY", "postal_code": "8700", "place_name": "Drouseia", "latitude": "34.9626", "longitude": "32.3911"}, {"country_code": "CY", "postal_code": "8701", "place_name": "Androlikou", "latitude": "34.9986", "longitude": "32.3817"}, {"country_code": "CY", "postal_code": "8702", "place_name": "Kato Arodes", "latitude": "34.9407", "longitude": "32.4023"}, {"country_code": "CY", "postal_code": "8703", "place_name": "Pano Arodes", "latitude": "34.9361", "longitude": "32.4072"}, {"country_code": "CY", "postal_code": "8704", "place_name": "Ineia", "latitude": "34.9561", "longitude": "32.3934"}, {"country_code": "CY", "postal_code": "8705", "place_name": "Pittokopos", "latitude": "34.9626", "longitude": "32.3911"}, {"country_code": "CY", "postal_code": "8706", "place_name": "Fasli", "latitude": "34.9817", "longitude": "32.371"}, {"country_code": "CY", "postal_code": "8720", "place_name": "Giolou", "latitude": "34.9242", "longitude": "32.4747"}, {"country_code": "CY", "postal_code": "8721", "place_name": "Kato Akourdaleia", "latitude": "34.945", "longitude": "32.4524"}, {"country_code": "CY", "postal_code": "8722", "place_name": "Pano Akourdaleia", "latitude": "34.9419", "longitude": "32.4445"}, {"country_code": "CY", "postal_code": "8723", "place_name": "Theletra", "latitude": "34.9118", "longitude": "32.4475"}, {"country_code": "CY", "postal_code": "8724", "place_name": "Kritou Tera", "latitude": "34.945", "longitude": "32.4524"}, {"country_code": "CY", "postal_code": "8725", "place_name": "Loukrounou", "latitude": "34.9514", "longitude": "32.4636"}, {"country_code": "CY", "postal_code": "8726", "place_name": "Miliou", "latitude": "34.9393", "longitude": "32.4608"}, {"country_code": "CY", "postal_code": "8727", "place_name": "Moni Agion Anargyron", "latitude": "34.945", "longitude": "32.4524"}, {"country_code": "CY", "postal_code": "8728", "place_name": "Skoulli", "latitude": "34.9806", "longitude": "32.4512"}, {"country_code": "CY", "postal_code": "8729", "place_name": "Tera", "latitude": "34.9657", "longitude": "32.4247"}, {"country_code": "CY", "postal_code": "8730", "place_name": "Choli", "latitude": "34.9798", "longitude": "32.4433"}, {"country_code": "CY", "postal_code": "8740", "place_name": "Lasa", "latitude": "34.9247", "longitude": "32.5277"}, {"country_code": "CY", "postal_code": "8741", "place_name": "Agios Dimitrianos", "latitude": "34.9068", "longitude": "32.5505"}, {"country_code": "CY", "postal_code": "8742", "place_name": "Drymou", "latitude": "34.9255", "longitude": "32.5134"}, {"country_code": "CY", "postal_code": "8743", "place_name": "Thrinia", "latitude": "34.9183", "longitude": "32.5435"}, {"country_code": "CY", "postal_code": "8744", "place_name": "Milia Pafou", "latitude": "34.92", "longitude": "32.5403"}, {"country_code": "CY", "postal_code": "8745", "place_name": "Melamiou", "latitude": "34.9183", "longitude": "32.5435"}, {"country_code": "CY", "postal_code": "8746", "place_name": "Kannaviou", "latitude": "34.9162", "longitude": "32.5754"}, {"country_code": "CY", "postal_code": "8747", "place_name": "Kritou Marottou", "latitude": "34.9268", "longitude": "32.5626"}, {"country_code": "CY", "postal_code": "8748", "place_name": "Fyti", "latitude": "34.9287", "longitude": "32.5448"}, {"country_code": "CY", "postal_code": "8749", "place_name": "Psathi", "latitude": "34.8978", "longitude": "32.5331"}, {"country_code": "CY", "postal_code": "8800", "place_name": "Lysos", "latitude": "34.9958", "longitude": "32.5125"}, {"country_code": "CY", "postal_code": "8801", "place_name": "Agios Merkourios", "latitude": "34.9759", "longitude": "32.5242"}, {"country_code": "CY", "postal_code": "8802", "place_name": "Anadiou", "latitude": "34.9444", "longitude": "32.5662"}, {"country_code": "CY", "postal_code": "8803", "place_name": "Dasikos Stathmos Agias", "latitude": "34.9759", "longitude": "32.5242"}, {"country_code": "CY", "postal_code": "8804", "place_name": "Dasikos Stathmos Stavrou tis Psokas", "latitude": "34.9759", "longitude": "32.5242"}, {"country_code": "CY", "postal_code": "8805", "place_name": "Evretou", "latitude": "34.9571", "longitude": "32.4881"}, {"country_code": "CY", "postal_code": "8806", "place_name": "Zacharia", "latitude": "34.9818", "longitude": "32.5433"}, {"country_code": "CY", "postal_code": "8807", "place_name": "Kios", "latitude": "34.9751", "longitude": "32.5273"}, {"country_code": "CY", "postal_code": "8808", "place_name": "Meladeia", "latitude": "34.9882", "longitude": "32.5067"}, {"country_code": "CY", "postal_code": "8809", "place_name": "Melandra", "latitude": "34.9892", "longitude": "32.525"}, {"country_code": "CY", "postal_code": "8810", "place_name": "Peristerona Pafou", "latitude": "34.9905", "longitude": "32.4901"}, {"country_code": "CY", "postal_code": "8811", "place_name": "Fylousa Kelokedaron", "latitude": "34.9655", "longitude": "32.5027"}, {"country_code": "CY", "postal_code": "8812", "place_name": "Simou", "latitude": "34.9412", "longitude": "32.5042"}, {"country_code": "CY", "postal_code": "8813", "place_name": "Trimithousa", "latitude": "34.9742", "longitude": "32.4875"}, {"country_code": "CY", "postal_code": "8814", "place_name": "Sarama", "latitude": "34.9563", "longitude": "32.5289"}, {"country_code": "CY", "postal_code": "8820", "place_name": "Polis", "latitude": "35.034", "longitude": "32.4255"}, {"country_code": "CY", "postal_code": "8840", "place_name": "Latsi", "latitude": "35.0409", "longitude": "32.3943"}, {"country_code": "CY", "postal_code": "8850", "place_name": "Goudi", "latitude": "34.9922", "longitude": "32.442"}, {"country_code": "CY", "postal_code": "8851", "place_name": "Karamoullides", "latitude": "34.9995", "longitude": "32.443"}, {"country_code": "CY", "postal_code": "8852", "place_name": "Neo Chorio Pafou", "latitude": "35.0253", "longitude": "32.3647"}, {"country_code": "CY", "postal_code": "8853", "place_name": "Loutra Tis Afroditis", "latitude": "35.0096", "longitude": "32.4214"}, {"country_code": "CY", "postal_code": "8854", "place_name": "Prodromi", "latitude": "35.0273", "longitude": "32.4176"}, {"country_code": "CY", "postal_code": "8855", "place_name": "Chrysochou", "latitude": "35.0038", "longitude": "32.4398"}, {"country_code": "CY", "postal_code": "8870", "place_name": "Pomos", "latitude": "35.1604", "longitude": "32.5457"}, {"country_code": "CY", "postal_code": "8871", "place_name": "Paliampela", "latitude": "35.0837", "longitude": "32.5172"}, {"country_code": "CY", "postal_code": "8872", "place_name": "Agios Isidoros", "latitude": "35.0052", "longitude": "32.4714"}, {"country_code": "CY", "postal_code": "8873", "place_name": "Argaka", "latitude": "35.0659", "longitude": "32.4923"}, {"country_code": "CY", "postal_code": "8874", "place_name": "Kato Gialia", "latitude": "35.1182", "longitude": "32.5139"}, {"country_code": "CY", "postal_code": "8875", "place_name": "Pano Gialia", "latitude": "35.0837", "longitude": "32.5172"}, {"country_code": "CY", "postal_code": "8876", "place_name": "Kynousa", "latitude": "35.0837", "longitude": "32.5172"}, {"country_code": "CY", "postal_code": "8877", "place_name": "Limni", "latitude": "35.0837", "longitude": "32.5172"}, {"country_code": "CY", "postal_code": "8878", "place_name": "Livadi", "latitude": "35.1021", "longitude": "32.594"}, {"country_code": "CY", "postal_code": "8879", "place_name": "Makounta", "latitude": "35.0505", "longitude": "32.4856"}, {"country_code": "CY", "postal_code": "8880", "place_name": "Nea Dimmata", "latitude": "35.1373", "longitude": "32.5269"}, {"country_code": "CY", "postal_code": "8881", "place_name": "Agia Marina Chrysochous", "latitude": "35.1204", "longitude": "32.5137"}, {"country_code": "CY", "postal_code": "8882", "place_name": "Pelathousa", "latitude": "35.0276", "longitude": "32.476"}, {"country_code": "CY", "postal_code": "8883", "place_name": "Myrmigkofou", "latitude": "35.0707", "longitude": "32.4972"}, {"country_code": "CY", "postal_code": "8884", "place_name": "Steni", "latitude": "34.9976", "longitude": "32.4723"}]