[{"country_code": "BM", "postal_code": "DV 01", "place_name": "Devonshire", "latitude": "32.3028", "longitude": "-64.7558"}, {"country_code": "BM", "postal_code": "DV 02", "place_name": "Devonshire", "latitude": "32.3028", "longitude": "-64.7558"}, {"country_code": "BM", "postal_code": "DV 03", "place_name": "Devonshire", "latitude": "32.3028", "longitude": "-64.7558"}, {"country_code": "BM", "postal_code": "DV 04", "place_name": "Devonshire", "latitude": "32.3028", "longitude": "-64.7558"}, {"country_code": "BM", "postal_code": "DV 05", "place_name": "Devonshire", "latitude": "32.3028", "longitude": "-64.7558"}, {"country_code": "BM", "postal_code": "DV 06", "place_name": "Devonshire", "latitude": "32.3028", "longitude": "-64.7558"}, {"country_code": "BM", "postal_code": "DV 07", "place_name": "Devonshire", "latitude": "32.3028", "longitude": "-64.7558"}, {"country_code": "BM", "postal_code": "DV 08", "place_name": "Devonshire", "latitude": "32.3028", "longitude": "-64.7558"}, {"country_code": "BM", "postal_code": "FL 01", "place_name": "Devonshire", "latitude": "32.3264", "longitude": "-64.7411"}, {"country_code": "BM", "postal_code": "FL 02", "place_name": "Devonshire", "latitude": "32.3264", "longitude": "-64.7411"}, {"country_code": "BM", "postal_code": "FL 03", "place_name": "Devonshire", "latitude": "32.3264", "longitude": "-64.7411"}, {"country_code": "BM", "postal_code": "FL 05", "place_name": "Devonshire", "latitude": "32.3264", "longitude": "-64.7411"}, {"country_code": "BM", "postal_code": "HM 14", "place_name": "Devonshire", "latitude": "32.3002", "longitude": "-64.792"}, {"country_code": "BM", "postal_code": "HM 15", "place_name": "Devonshire", "latitude": "32.3002", "longitude": "-64.792"}, {"country_code": "BM", "postal_code": "HM 16", "place_name": "Devonshire", "latitude": "32.3002", "longitude": "-64.792"}, {"country_code": "BM", "postal_code": "HM 18", "place_name": "Devonshire", "latitude": "32.3002", "longitude": "-64.792"}, {"country_code": "BM", "postal_code": "HM 19", "place_name": "Devonshire", "latitude": "32.2975", "longitude": "-64.7875"}, {"country_code": "BM", "postal_code": "HM 20", "place_name": "Devonshire", "latitude": "32.3002", "longitude": "-64.792"}, {"country_code": "BM", "postal_code": "CR 01", "place_name": "Hamilton Parish", "latitude": "32.3264", "longitude": "-64.7411"}, {"country_code": "BM", "postal_code": "CR 02", "place_name": "Hamilton Parish", "latitude": "32.3264", "longitude": "-64.7411"}, {"country_code": "BM", "postal_code": "CR 03", "place_name": "Hamilton Parish", "latitude": "32.3264", "longitude": "-64.7411"}, {"country_code": "BM", "postal_code": "CR 04", "place_name": "Hamilton Parish", "latitude": "32.3264", "longitude": "-64.7411"}, {"country_code": "BM", "postal_code": "FL 04", "place_name": "Hamilton Parish", "latitude": "32.3264", "longitude": "-64.7411"}, {"country_code": "BM", "postal_code": "HS 02", "place_name": "Hamilton Parish", "latitude": "32.3264", "longitude": "-64.7411"}, {"country_code": "BM", "postal_code": "HM 08", "place_name": "City of Hamilton", "latitude": "32.2949", "longitude": "-64.783"}, {"country_code": "BM", "postal_code": "HM 09", "place_name": "City of Hamilton", "latitude": "32.2949", "longitude": "-64.783"}, {"country_code": "BM", "postal_code": "HM 10", "place_name": "City of Hamilton", "latitude": "32.2949", "longitude": "-64.783"}, {"country_code": "BM", "postal_code": "HM 11", "place_name": "City of Hamilton", "latitude": "32.2949", "longitude": "-64.783"}, {"country_code": "BM", "postal_code": "HM 12", "place_name": "City of Hamilton", "latitude": "32.2949", "longitude": "-64.783"}, {"country_code": "BM", "postal_code": "HM 17", "place_name": "City of Hamilton", "latitude": "32.2949", "longitude": "-64.783"}, {"country_code": "BM", "postal_code": "HM 19", "place_name": "City of Hamilton", "latitude": "32.2949", "longitude": "-64.783"}, {"country_code": "BM", "postal_code": "DV 03", "place_name": "Paget", "latitude": "32.2783", "longitude": "-64.7817"}, {"country_code": "BM", "postal_code": "DV 04", "place_name": "Paget", "latitude": "32.2783", "longitude": "-64.7817"}, {"country_code": "BM", "postal_code": "PG 01", "place_name": "Paget", "latitude": "32.2783", "longitude": "-64.7817"}, {"country_code": "BM", "postal_code": "PG 02", "place_name": "Paget", "latitude": "32.2783", "longitude": "-64.7817"}, {"country_code": "BM", "postal_code": "PG 03", "place_name": "Paget", "latitude": "32.2783", "longitude": "-64.7817"}, {"country_code": "BM", "postal_code": "PG 04", "place_name": "Paget", "latitude": "32.2783", "longitude": "-64.7817"}, {"country_code": "BM", "postal_code": "PG 05", "place_name": "Paget", "latitude": "32.2783", "longitude": "-64.7817"}, {"country_code": "BM", "postal_code": "PG 06", "place_name": "Paget", "latitude": "32.2783", "longitude": "-64.7817"}, {"country_code": "BM", "postal_code": "HM 01", "place_name": "Pembroke", "latitude": "32.3002", "longitude": "-64.792"}, {"country_code": "BM", "postal_code": "HM 02", "place_name": "Pembroke", "latitude": "32.3002", "longitude": "-64.792"}, {"country_code": "BM", "postal_code": "HM 03", "place_name": "Pembroke", "latitude": "32.3002", "longitude": "-64.792"}, {"country_code": "BM", "postal_code": "HM 04", "place_name": "Pembroke", "latitude": "32.3002", "longitude": "-64.792"}, {"country_code": "BM", "postal_code": "HM 05", "place_name": "Pembroke", "latitude": "32.3002", "longitude": "-64.792"}, {"country_code": "BM", "postal_code": "HM 06", "place_name": "Pembroke", "latitude": "32.3002", "longitude": "-64.792"}, {"country_code": "BM", "postal_code": "HM 07", "place_name": "Pembroke", "latitude": "32.3002", "longitude": "-64.792"}, {"country_code": "BM", "postal_code": "HM 08", "place_name": "Pembroke", "latitude": "32.3002", "longitude": "-64.792"}, {"country_code": "BM", "postal_code": "HM 09", "place_name": "Pembroke", "latitude": "32.3002", "longitude": "-64.792"}, {"country_code": "BM", "postal_code": "HM 13", "place_name": "Pembroke", "latitude": "32.3002", "longitude": "-64.792"}, {"country_code": "BM", "postal_code": "HM 14", "place_name": "Pembroke", "latitude": "32.3002", "longitude": "-64.792"}, {"country_code": "BM", "postal_code": "HM 15", "place_name": "Pembroke", "latitude": "32.3002", "longitude": "-64.792"}, {"country_code": "BM", "postal_code": "HM 16", "place_name": "Pembroke", "latitude": "32.3002", "longitude": "-64.792"}, {"country_code": "BM", "postal_code": "HM 17", "place_name": "Pembroke", "latitude": "32.3002", "longitude": "-64.792"}, {"country_code": "BM", "postal_code": "HM 18", "place_name": "Pembroke", "latitude": "32.3002", "longitude": "-64.792"}, {"country_code": "BM", "postal_code": "HM 19", "place_name": "Pembroke", "latitude": "32.3002", "longitude": "-64.792"}, {"country_code": "BM", "postal_code": "HM 20", "place_name": "Pembroke", "latitude": "32.3002", "longitude": "-64.792"}, {"country_code": "BM", "postal_code": "GE 02", "place_name": "Town of St. George", "latitude": "32.3842", "longitude": "-64.6764"}, {"country_code": "BM", "postal_code": "GE 03", "place_name": "Town of St. George", "latitude": "32.3842", "longitude": "-64.6764"}, {"country_code": "BM", "postal_code": "GE 04", "place_name": "Town of St. George", "latitude": "32.3842", "longitude": "-64.6764"}, {"country_code": "BM", "postal_code": "GE 05", "place_name": "Town of St. George", "latitude": "32.3842", "longitude": "-64.6764"}, {"country_code": "BM", "postal_code": "HS 02", "place_name": "St. George", "latitude": "32.3817", "longitude": "-64.6781"}, {"country_code": "BM", "postal_code": "CR 04", "place_name": "St. George's", "latitude": "32.3264", "longitude": "-64.7411"}, {"country_code": "BM", "postal_code": "DD 01", "place_name": "St. George's", "latitude": "32.3726", "longitude": "-64.6944"}, {"country_code": "BM", "postal_code": "DD 02", "place_name": "St. George's", "latitude": "32.3726", "longitude": "-64.6944"}, {"country_code": "BM", "postal_code": "DD 03", "place_name": "St. George's", "latitude": "32.3726", "longitude": "-64.6944"}, {"country_code": "BM", "postal_code": "GE 01", "place_name": "St. George's", "latitude": "32.3726", "longitude": "-64.6944"}, {"country_code": "BM", "postal_code": "GE 02", "place_name": "St. George's", "latitude": "32.3726", "longitude": "-64.6944"}, {"country_code": "BM", "postal_code": "GE 03", "place_name": "St. George's", "latitude": "32.3726", "longitude": "-64.6944"}, {"country_code": "BM", "postal_code": "GE 04", "place_name": "St. George's", "latitude": "32.3726", "longitude": "-64.6944"}, {"country_code": "BM", "postal_code": "GE 05", "place_name": "St. George's", "latitude": "32.3726", "longitude": "-64.6944"}, {"country_code": "BM", "postal_code": "GE CX", "place_name": "St. George's", "latitude": "32.3726", "longitude": "-64.6944"}, {"country_code": "BM", "postal_code": "HS 02", "place_name": "St. George's", "latitude": "32.354", "longitude": "-64.7096"}, {"country_code": "BM", "postal_code": "MA 01", "place_name": "Sandys", "latitude": "32.2934", "longitude": "-64.8683"}, {"country_code": "BM", "postal_code": "MA 02", "place_name": "Sandys", "latitude": "32.2934", "longitude": "-64.8683"}, {"country_code": "BM", "postal_code": "MA 03", "place_name": "Sandys", "latitude": "32.2934", "longitude": "-64.8683"}, {"country_code": "BM", "postal_code": "MA 04", "place_name": "Sandys", "latitude": "32.2934", "longitude": "-64.8683"}, {"country_code": "BM", "postal_code": "MA 05", "place_name": "Sandys", "latitude": "32.2934", "longitude": "-64.8683"}, {"country_code": "BM", "postal_code": "MA 06", "place_name": "Sandys", "latitude": "32.2934", "longitude": "-64.8683"}, {"country_code": "BM", "postal_code": "SB 01", "place_name": "Sandys", "latitude": "32.2934", "longitude": "-64.8683"}, {"country_code": "BM", "postal_code": "SB 02", "place_name": "Sandys", "latitude": "32.2934", "longitude": "-64.8683"}, {"country_code": "BM", "postal_code": "SB 03", "place_name": "Sandys", "latitude": "32.2934", "longitude": "-64.8683"}, {"country_code": "BM", "postal_code": "FL 01", "place_name": "Smith\u2019s", "latitude": "32.3264", "longitude": "-64.7411"}, {"country_code": "BM", "postal_code": "FL 02", "place_name": "Smith\u2019s", "latitude": "32.3264", "longitude": "-64.7411"}, {"country_code": "BM", "postal_code": "FL 03", "place_name": "Smith\u2019s", "latitude": "32.3264", "longitude": "-64.7411"}, {"country_code": "BM", "postal_code": "FL 04", "place_name": "Smith\u2019s", "latitude": "32.3264", "longitude": "-64.7411"}, {"country_code": "BM", "postal_code": "FL 05", "place_name": "Smith\u2019s", "latitude": "32.3264", "longitude": "-64.7411"}, {"country_code": "BM", "postal_code": "FL 06", "place_name": "Smith\u2019s", "latitude": "32.3264", "longitude": "-64.7411"}, {"country_code": "BM", "postal_code": "FL 07", "place_name": "Smith\u2019s", "latitude": "32.3264", "longitude": "-64.7411"}, {"country_code": "BM", "postal_code": "FL 08", "place_name": "Smith\u2019s", "latitude": "32.3264", "longitude": "-64.7411"}, {"country_code": "BM", "postal_code": "HS 01", "place_name": "Smith\u2019s", "latitude": "32.354", "longitude": "-64.7096"}, {"country_code": "BM", "postal_code": "HS 02", "place_name": "Smith\u2019s", "latitude": "32.354", "longitude": "-64.7096"}, {"country_code": "BM", "postal_code": "SB 02", "place_name": "Southampton", "latitude": "32.2508", "longitude": "-64.8564"}, {"country_code": "BM", "postal_code": "SB 03", "place_name": "Southampton", "latitude": "32.2508", "longitude": "-64.8564"}, {"country_code": "BM", "postal_code": "SB 04", "place_name": "Southampton", "latitude": "32.2508", "longitude": "-64.8564"}, {"country_code": "BM", "postal_code": "SN 01", "place_name": "Southampton", "latitude": "32.2508", "longitude": "-64.8564"}, {"country_code": "BM", "postal_code": "SN 02", "place_name": "Southampton", "latitude": "32.2508", "longitude": "-64.8564"}, {"country_code": "BM", "postal_code": "SN 03", "place_name": "Southampton", "latitude": "32.2508", "longitude": "-64.8564"}, {"country_code": "BM", "postal_code": "SN 04", "place_name": "Southampton", "latitude": "32.2508", "longitude": "-64.8564"}, {"country_code": "BM", "postal_code": "WK 01", "place_name": "Southampton", "latitude": "32.2508", "longitude": "-64.8564"}, {"country_code": "BM", "postal_code": "WK 03", "place_name": "Southampton", "latitude": "32.2508", "longitude": "-64.8564"}, {"country_code": "BM", "postal_code": "PG 01", "place_name": "Warwick", "latitude": "32.2658", "longitude": "-64.8072"}, {"country_code": "BM", "postal_code": "PG 04", "place_name": "Warwick", "latitude": "32.2658", "longitude": "-64.8072"}, {"country_code": "BM", "postal_code": "WK 01", "place_name": "Warwick", "latitude": "32.2658", "longitude": "-64.8072"}, {"country_code": "BM", "postal_code": "WK 02", "place_name": "Warwick", "latitude": "32.2658", "longitude": "-64.8072"}, {"country_code": "BM", "postal_code": "WK 03", "place_name": "Warwick", "latitude": "32.2658", "longitude": "-64.8072"}, {"country_code": "BM", "postal_code": "WK 04", "place_name": "Warwick", "latitude": "32.2658", "longitude": "-64.8072"}, {"country_code": "BM", "postal_code": "WK 05", "place_name": "Warwick", "latitude": "32.2658", "longitude": "-64.8072"}, {"country_code": "BM", "postal_code": "WK 06", "place_name": "Warwick", "latitude": "32.2658", "longitude": "-64.8072"}, {"country_code": "BM", "postal_code": "WK 07", "place_name": "Warwick", "latitude": "32.2658", "longitude": "-64.8072"}, {"country_code": "BM", "postal_code": "WK 08", "place_name": "Warwick", "latitude": "32.2658", "longitude": "-64.8072"}, {"country_code": "BM", "postal_code": "WK 09", "place_name": "Warwick", "latitude": "32.2658", "longitude": "-64.8072"}, {"country_code": "BM", "postal_code": "WK 10", "place_name": "Warwick", "latitude": "32.2658", "longitude": "-64.8072"}]