[{"country_code": "IE", "postal_code": "F12", "place_name": "Knock", "latitude": "53.7939", "longitude": "-8.9196"}, {"country_code": "IE", "postal_code": "F23", "place_name": "Castlebar", "latitude": "53.85", "longitude": "-9.3"}, {"country_code": "IE", "postal_code": "F26", "place_name": "Ballina", "latitude": "54.1167", "longitude": "-9.1667"}, {"country_code": "IE", "postal_code": "F28", "place_name": "Westport", "latitude": "53.8", "longitude": "-9.5167"}, {"country_code": "IE", "postal_code": "F31", "place_name": "Ballinrobe", "latitude": "53.6333", "longitude": "-9.2333"}, {"country_code": "IE", "postal_code": "F35", "place_name": "Ballyhaunis", "latitude": "53.7667", "longitude": "-8.7667"}, {"country_code": "IE", "postal_code": "F42", "place_name": "Roscommon", "latitude": "53.6333", "longitude": "-8.1833"}, {"country_code": "IE", "postal_code": "F45", "place_name": "Castlerea", "latitude": "53.7667", "longitude": "-8.5"}, {"country_code": "IE", "postal_code": "F52", "place_name": "Boyle", "latitude": "53.9667", "longitude": "-8.3"}, {"country_code": "IE", "postal_code": "F56", "place_name": "Ballymote", "latitude": "54.0833", "longitude": "-8.5167"}, {"country_code": "IE", "postal_code": "F91", "place_name": "Sligo", "latitude": "54.2697", "longitude": "-8.4694"}, {"country_code": "IE", "postal_code": "H53", "place_name": "Ballinasloe", "latitude": "53.3275", "longitude": "-8.2194"}, {"country_code": "IE", "postal_code": "H54", "place_name": "Tuam", "latitude": "53.5167", "longitude": "-8.85"}, {"country_code": "IE", "postal_code": "H62", "place_name": "Loughrea", "latitude": "53.1969", "longitude": "-8.5669"}, {"country_code": "IE", "postal_code": "H65", "place_name": "Athenry", "latitude": "53.2964", "longitude": "-8.7431"}, {"country_code": "IE", "postal_code": "H71", "place_name": "Clifden", "latitude": "53.4891", "longitude": "-10.0191"}, {"country_code": "IE", "postal_code": "H91", "place_name": "Galway", "latitude": "53.2719", "longitude": "-9.0489"}, {"country_code": "IE", "postal_code": "N41", "place_name": "Carrick On Shannon", "latitude": "53.9469", "longitude": "-8.09"}, {"country_code": "IE", "postal_code": "A41", "place_name": "Ballyboughal", "latitude": "53.5195", "longitude": "-6.2667"}, {"country_code": "IE", "postal_code": "A42", "place_name": "Garristown", "latitude": "53.5661", "longitude": "-6.3856"}, {"country_code": "IE", "postal_code": "A45", "place_name": "Oldtown", "latitude": "53.5253", "longitude": "-6.3156"}, {"country_code": "IE", "postal_code": "A63", "place_name": "Greystones", "latitude": "53.1408", "longitude": "-6.0631"}, {"country_code": "IE", "postal_code": "A67", "place_name": "Wicklow", "latitude": "52.975", "longitude": "-6.0494"}, {"country_code": "IE", "postal_code": "A82", "place_name": "Kells", "latitude": "53.7264", "longitude": "-6.8792"}, {"country_code": "IE", "postal_code": "A83", "place_name": "Enfield", "latitude": "53.4142", "longitude": "-6.8323"}, {"country_code": "IE", "postal_code": "A84", "place_name": "Ashbourne", "latitude": "53.5116", "longitude": "-6.3982"}, {"country_code": "IE", "postal_code": "A85", "place_name": "Dunshaughlin", "latitude": "53.5125", "longitude": "-6.54"}, {"country_code": "IE", "postal_code": "A86", "place_name": "Dunboyne", "latitude": "53.4", "longitude": "-6.4667"}, {"country_code": "IE", "postal_code": "A91", "place_name": "Dundalk", "latitude": "54", "longitude": "-6.4167"}, {"country_code": "IE", "postal_code": "A92", "place_name": "Drogheda", "latitude": "53.7189", "longitude": "-6.3478"}, {"country_code": "IE", "postal_code": "A94", "place_name": "Blackrock", "latitude": "53.3015", "longitude": "-6.1778"}, {"country_code": "IE", "postal_code": "A96", "place_name": "Dun Laoghaire", "latitude": "53.294", "longitude": "-6.1359"}, {"country_code": "IE", "postal_code": "A98", "place_name": "Bray", "latitude": "53.2028", "longitude": "-6.0983"}, {"country_code": "IE", "postal_code": "C15", "place_name": "Trim", "latitude": "53.555", "longitude": "-6.7917"}, {"country_code": "IE", "postal_code": "D01", "place_name": "Dublin 1", "latitude": "53.354", "longitude": "-6.2545"}, {"country_code": "IE", "postal_code": "D02", "place_name": "Dublin 2", "latitude": "53.34", "longitude": "-6.2543"}, {"country_code": "IE", "postal_code": "D03", "place_name": "Dublin 3", "latitude": "53.3645", "longitude": "-6.2378"}, {"country_code": "IE", "postal_code": "D04", "place_name": "Dublin 4", "latitude": "53.3334", "longitude": "-6.2335"}, {"country_code": "IE", "postal_code": "D05", "place_name": "Dublin 5", "latitude": "53.3842", "longitude": "-6.1921"}, {"country_code": "IE", "postal_code": "D06", "place_name": "Dublin 6", "latitude": "53.3088", "longitude": "-6.2631"}, {"country_code": "IE", "postal_code": "D07", "place_name": "Dublin 7", "latitude": "53.3615", "longitude": "-6.2918"}, {"country_code": "IE", "postal_code": "D08", "place_name": "Dublin 8", "latitude": "53.3346", "longitude": "-6.2733"}, {"country_code": "IE", "postal_code": "D09", "place_name": "Dublin 9", "latitude": "53.3818", "longitude": "-6.2465"}, {"country_code": "IE", "postal_code": "D10", "place_name": "Dublin 10", "latitude": "53.3409", "longitude": "-6.3545"}, {"country_code": "IE", "postal_code": "D11", "place_name": "Dublin 11", "latitude": "53.3899", "longitude": "-6.293"}, {"country_code": "IE", "postal_code": "D12", "place_name": "Dublin 12", "latitude": "53.322", "longitude": "-6.3165"}, {"country_code": "IE", "postal_code": "D13", "place_name": "Dublin 13", "latitude": "53.3946", "longitude": "-6.1495"}, {"country_code": "IE", "postal_code": "D14", "place_name": "Dublin 14", "latitude": "53.296", "longitude": "-6.2593"}, {"country_code": "IE", "postal_code": "D15", "place_name": "Dublin 15", "latitude": "53.3832", "longitude": "-6.4165"}, {"country_code": "IE", "postal_code": "D16", "place_name": "Dublin 16", "latitude": "53.3419", "longitude": "-6.279"}, {"country_code": "IE", "postal_code": "D17", "place_name": "Dublin 17", "latitude": "53.4006", "longitude": "-6.2058"}, {"country_code": "IE", "postal_code": "D18", "place_name": "Dublin 18", "latitude": "53.2469", "longitude": "-6.1774"}, {"country_code": "IE", "postal_code": "D20", "place_name": "Dublin 20", "latitude": "53.3518", "longitude": "-6.3693"}, {"country_code": "IE", "postal_code": "D22", "place_name": "Dublin 22", "latitude": "53.3275", "longitude": "-6.4006"}, {"country_code": "IE", "postal_code": "D24", "place_name": "Dublin 24", "latitude": "53.2851", "longitude": "-6.3713"}, {"country_code": "IE", "postal_code": "D6W", "place_name": "Dublin 6W", "latitude": "53.3087", "longitude": "-6.3012"}, {"country_code": "IE", "postal_code": "K32", "place_name": "Balbriggan", "latitude": "53.6128", "longitude": "-6.1819"}, {"country_code": "IE", "postal_code": "K34", "place_name": "Skerries", "latitude": "53.5828", "longitude": "-6.1083"}, {"country_code": "IE", "postal_code": "K36", "place_name": "Malahide", "latitude": "53.4508", "longitude": "-6.1544"}, {"country_code": "IE", "postal_code": "K45", "place_name": "Lusk", "latitude": "53.5274", "longitude": "-6.1642"}, {"country_code": "IE", "postal_code": "K56", "place_name": "Rush", "latitude": "53.5242", "longitude": "-6.105"}, {"country_code": "IE", "postal_code": "K67", "place_name": "Swords", "latitude": "53.4597", "longitude": "-6.2181"}, {"country_code": "IE", "postal_code": "K78", "place_name": "Lucan", "latitude": "53.3574", "longitude": "-6.4486"}, {"country_code": "IE", "postal_code": "N37", "place_name": "Athlone", "latitude": "53.4228", "longitude": "-7.9372"}, {"country_code": "IE", "postal_code": "N39", "place_name": "Longford", "latitude": "53.7254", "longitude": "-7.7982"}, {"country_code": "IE", "postal_code": "N91", "place_name": "Mullingar", "latitude": "53.5333", "longitude": "-7.35"}, {"country_code": "IE", "postal_code": "P14", "place_name": "Crookstown", "latitude": "53.0153", "longitude": "-6.8106"}, {"country_code": "IE", "postal_code": "R14", "place_name": "Athy", "latitude": "52.9914", "longitude": "-6.9803"}, {"country_code": "IE", "postal_code": "R21", "place_name": "Bagenalstown", "latitude": "52.7003", "longitude": "-6.9618"}, {"country_code": "IE", "postal_code": "R32", "place_name": "Portlaoise", "latitude": "53.0344", "longitude": "-7.2998"}, {"country_code": "IE", "postal_code": "R35", "place_name": "Tullamore", "latitude": "53.2739", "longitude": "-7.4889"}, {"country_code": "IE", "postal_code": "R42", "place_name": "Birr", "latitude": "53.0914", "longitude": "-7.9133"}, {"country_code": "IE", "postal_code": "R45", "place_name": "Edenderry", "latitude": "53.3453", "longitude": "-7.0497"}, {"country_code": "IE", "postal_code": "R51", "place_name": "Kildare", "latitude": "53.1561", "longitude": "-6.9144"}, {"country_code": "IE", "postal_code": "R56", "place_name": "Curragh", "latitude": "53.1469", "longitude": "-6.8304"}, {"country_code": "IE", "postal_code": "R93", "place_name": "Carlow", "latitude": "52.8408", "longitude": "-6.9261"}, {"country_code": "IE", "postal_code": "R95", "place_name": "Kilkenny", "latitude": "52.6542", "longitude": "-7.2522"}, {"country_code": "IE", "postal_code": "W12", "place_name": "Newbridge", "latitude": "53.1819", "longitude": "-6.7967"}, {"country_code": "IE", "postal_code": "W23", "place_name": "Maynooth", "latitude": "53.385", "longitude": "-6.5936"}, {"country_code": "IE", "postal_code": "W34", "place_name": "Monasterevin", "latitude": "53.1406", "longitude": "-7.0664"}, {"country_code": "IE", "postal_code": "W91", "place_name": "Naas", "latitude": "53.2158", "longitude": "-6.6669"}, {"country_code": "IE", "postal_code": "Y14", "place_name": "Arklow", "latitude": "52.7931", "longitude": "-6.1414"}, {"country_code": "IE", "postal_code": "Y21", "place_name": "Enniscorthy", "latitude": "52.5008", "longitude": "-6.5578"}, {"country_code": "IE", "postal_code": "Y25", "place_name": "Gorey", "latitude": "52.6747", "longitude": "-6.2925"}, {"country_code": "IE", "postal_code": "Y34", "place_name": "New Ross", "latitude": "52.3967", "longitude": "-6.9367"}, {"country_code": "IE", "postal_code": "Y35", "place_name": "Wexford", "latitude": "52.3342", "longitude": "-6.4575"}, {"country_code": "IE", "postal_code": "E21", "place_name": "Cahir", "latitude": "52.3769", "longitude": "-7.9217"}, {"country_code": "IE", "postal_code": "E25", "place_name": "Cashel", "latitude": "52.5158", "longitude": "-7.8856"}, {"country_code": "IE", "postal_code": "E32", "place_name": "Carrick on Suir", "latitude": "52.3492", "longitude": "-7.4131"}, {"country_code": "IE", "postal_code": "E34", "place_name": "Tipperary", "latitude": "52.4733", "longitude": "-8.1558"}, {"country_code": "IE", "postal_code": "E41", "place_name": "Thurles", "latitude": "52.6819", "longitude": "-7.8022"}, {"country_code": "IE", "postal_code": "E45", "place_name": "Nenagh", "latitude": "52.8619", "longitude": "-8.1967"}, {"country_code": "IE", "postal_code": "E53", "place_name": "Roscrea", "latitude": "52.9511", "longitude": "-7.8017"}, {"country_code": "IE", "postal_code": "E91", "place_name": "Clonmel", "latitude": "52.355", "longitude": "-7.7039"}, {"country_code": "IE", "postal_code": "P12", "place_name": "Macroom", "latitude": "51.9", "longitude": "-8.95"}, {"country_code": "IE", "postal_code": "P17", "place_name": "Kinsale", "latitude": "51.7075", "longitude": "-8.5306"}, {"country_code": "IE", "postal_code": "P24", "place_name": "Cobh", "latitude": "51.8572", "longitude": "-8.2992"}, {"country_code": "IE", "postal_code": "P25", "place_name": "Midleton", "latitude": "51.9153", "longitude": "-8.1805"}, {"country_code": "IE", "postal_code": "P31", "place_name": "Ballincollig", "latitude": "51.8833", "longitude": "-8.5833"}, {"country_code": "IE", "postal_code": "P32", "place_name": "Rylane", "latitude": "51.9833", "longitude": "-8.8333"}, {"country_code": "IE", "postal_code": "P36", "place_name": "Youghal", "latitude": "51.95", "longitude": "-7.8506"}, {"country_code": "IE", "postal_code": "P43", "place_name": "Carrigaline", "latitude": "51.8117", "longitude": "-8.3986"}, {"country_code": "IE", "postal_code": "P47", "place_name": "Dunmanway", "latitude": "51.7167", "longitude": "-9.1167"}, {"country_code": "IE", "postal_code": "P51", "place_name": "Mallow", "latitude": "52.1333", "longitude": "-8.6333"}, {"country_code": "IE", "postal_code": "P56", "place_name": "Charleville", "latitude": "52.35", "longitude": "-8.6833"}, {"country_code": "IE", "postal_code": "P61", "place_name": "Fermoy", "latitude": "52.1358", "longitude": "-8.2758"}, {"country_code": "IE", "postal_code": "P67", "place_name": "Mitchelstown", "latitude": "52.2658", "longitude": "-8.2681"}, {"country_code": "IE", "postal_code": "P72", "place_name": "Bandon", "latitude": "51.7469", "longitude": "-8.7425"}, {"country_code": "IE", "postal_code": "P75", "place_name": "Bantry", "latitude": "51.6833", "longitude": "-9.45"}, {"country_code": "IE", "postal_code": "P81", "place_name": "Skibbereen", "latitude": "51.55", "longitude": "-9.2667"}, {"country_code": "IE", "postal_code": "P85", "place_name": "Clonakilty", "latitude": "51.6231", "longitude": "-8.8706"}, {"country_code": "IE", "postal_code": "T12", "place_name": "Cork city southside", "latitude": "51.8728", "longitude": "-8.4902"}, {"country_code": "IE", "postal_code": "T23", "place_name": "Cork city northside", "latitude": "51.8972", "longitude": "-8.4702"}, {"country_code": "IE", "postal_code": "T34", "place_name": "Carrignavar", "latitude": "51.9886", "longitude": "-8.4797"}, {"country_code": "IE", "postal_code": "T45", "place_name": "Glanmire", "latitude": "51.9158", "longitude": "-8.3997"}, {"country_code": "IE", "postal_code": "T56", "place_name": "Watergrasshill", "latitude": "52.0114", "longitude": "-8.3442"}, {"country_code": "IE", "postal_code": "V14", "place_name": "Shannon", "latitude": "52.7039", "longitude": "-8.8642"}, {"country_code": "IE", "postal_code": "V15", "place_name": "Kilrush", "latitude": "52.6397", "longitude": "-9.4833"}, {"country_code": "IE", "postal_code": "V23", "place_name": "Caherciveen", "latitude": "51.9486", "longitude": "-10.2222"}, {"country_code": "IE", "postal_code": "V31", "place_name": "Listowel", "latitude": "52.4464", "longitude": "-9.485"}, {"country_code": "IE", "postal_code": "V35", "place_name": "Kilmallock", "latitude": "52.4", "longitude": "-8.5772"}, {"country_code": "IE", "postal_code": "V42", "place_name": "Newcastle West", "latitude": "52.4492", "longitude": "-9.0611"}, {"country_code": "IE", "postal_code": "V92", "place_name": "Tralee", "latitude": "52.2704", "longitude": "-9.7026"}, {"country_code": "IE", "postal_code": "V93", "place_name": "Kenmare", "latitude": "51.8833", "longitude": "-9.5833"}, {"country_code": "IE", "postal_code": "V94", "place_name": "Limerick", "latitude": "52.6647", "longitude": "-8.6231"}, {"country_code": "IE", "postal_code": "V95", "place_name": "Miltown Malbay", "latitude": "52.8553", "longitude": "-9.3983"}, {"country_code": "IE", "postal_code": "X35", "place_name": "Dungarvan", "latitude": "52.0881", "longitude": "-7.6253"}, {"country_code": "IE", "postal_code": "X42", "place_name": "Kilmacthomas", "latitude": "52.2097", "longitude": "-7.4258"}, {"country_code": "IE", "postal_code": "X91", "place_name": "Waterford", "latitude": "52.2583", "longitude": "-7.1119"}, {"country_code": "IE", "postal_code": "A75", "place_name": "Castleblayney", "latitude": "54.1167", "longitude": "-6.7333"}, {"country_code": "IE", "postal_code": "A81", "place_name": "Carrickmacross", "latitude": "53.9728", "longitude": "-6.7189"}, {"country_code": "IE", "postal_code": "F92", "place_name": "Letterkenny", "latitude": "54.95", "longitude": "-7.7333"}, {"country_code": "IE", "postal_code": "F93", "place_name": "Lifford", "latitude": "54.8319", "longitude": "-7.4836"}, {"country_code": "IE", "postal_code": "F94", "place_name": "Bundoran", "latitude": "54.4778", "longitude": "-8.2809"}, {"country_code": "IE", "postal_code": "H12", "place_name": "Cavan", "latitude": "53.9908", "longitude": "-7.3606"}, {"country_code": "IE", "postal_code": "H14", "place_name": "Belturbet", "latitude": "54.1", "longitude": "-7.45"}, {"country_code": "IE", "postal_code": "H16", "place_name": "Cootehill", "latitude": "54.0725", "longitude": "-7.0819"}, {"country_code": "IE", "postal_code": "H18", "place_name": "Monaghan", "latitude": "54.25", "longitude": "-6.9667"}, {"country_code": "IE", "postal_code": "H23", "place_name": "Clones", "latitude": "54.1833", "longitude": "-7.2333"}]