[{"country_code": "GF", "postal_code": "97300", "place_name": "Cayenne", "latitude": "4.9333", "longitude": "-52.3333"}, {"country_code": "GF", "postal_code": "97305 CEDEX", "place_name": "Cayenne", "latitude": "4.9333", "longitude": "-52.3333"}, {"country_code": "GF", "postal_code": "97306 CEDEX", "place_name": "Cayenne", "latitude": "4.9333", "longitude": "-52.3333"}, {"country_code": "GF", "postal_code": "97307 CEDEX", "place_name": "Cayenne", "latitude": "4.9333", "longitude": "-52.3333"}, {"country_code": "GF", "postal_code": "97308 CEDEX", "place_name": "Cayenne", "latitude": "4.9333", "longitude": "-52.3333"}, {"country_code": "GF", "postal_code": "97309 CEDEX", "place_name": "Cayenne", "latitude": "4.9333", "longitude": "-52.3333"}, {"country_code": "GF", "postal_code": "97310", "place_name": "Kourou", "latitude": "5.1628", "longitude": "-52.6427"}, {"country_code": "GF", "postal_code": "97311", "place_name": "Roura", "latitude": "4.7252", "longitude": "-52.3262"}, {"country_code": "GF", "postal_code": "97312", "place_name": "Saint-\u00c9lie", "latitude": "4.8243", "longitude": "-53.2882"}, {"country_code": "GF", "postal_code": "97313", "place_name": "Saint-Georges", "latitude": "3.9", "longitude": "-51.8"}, {"country_code": "GF", "postal_code": "97314", "place_name": "Sa\u00fcl", "latitude": "3.6231", "longitude": "-53.2092"}, {"country_code": "GF", "postal_code": "97315", "place_name": "Sinnamary", "latitude": "5.3768", "longitude": "-52.9568"}, {"country_code": "GF", "postal_code": "97316", "place_name": "Papa\u00efchton", "latitude": "3.8058", "longitude": "-54.1446"}, {"country_code": "GF", "postal_code": "97317", "place_name": "Apatou", "latitude": "5.1553", "longitude": "-54.3431"}, {"country_code": "GF", "postal_code": "97318", "place_name": "Mana", "latitude": "5.6677", "longitude": "-53.7783"}, {"country_code": "GF", "postal_code": "97319", "place_name": "Awala-Yalimapo", "latitude": "5.7364", "longitude": "-53.9087"}, {"country_code": "GF", "postal_code": "97320", "place_name": "Saint-Laurent-du-Maroni", "latitude": "5.501", "longitude": "-54.0294"}, {"country_code": "GF", "postal_code": "97321 CEDEX", "place_name": "Cayenne", "latitude": "4.9333", "longitude": "-52.3333"}, {"country_code": "GF", "postal_code": "97322 CEDEX", "place_name": "Cayenne", "latitude": "4.9333", "longitude": "-52.3333"}, {"country_code": "GF", "postal_code": "97323 CEDEX", "place_name": "Cayenne", "latitude": "4.9333", "longitude": "-52.3333"}, {"country_code": "GF", "postal_code": "97324 CEDEX", "place_name": "Cayenne", "latitude": "4.9333", "longitude": "-52.3333"}, {"country_code": "GF", "postal_code": "97325 CEDEX", "place_name": "Cayenne", "latitude": "4.9333", "longitude": "-52.3333"}, {"country_code": "GF", "postal_code": "97326 CEDEX", "place_name": "Cayenne", "latitude": "4.9333", "longitude": "-52.3333"}, {"country_code": "GF", "postal_code": "97327 CEDEX", "place_name": "Cayenne", "latitude": "4.9333", "longitude": "-52.3333"}, {"country_code": "GF", "postal_code": "97328 CEDEX", "place_name": "Cayenne", "latitude": "4.9333", "longitude": "-52.3333"}, {"country_code": "GF", "postal_code": "97329 CEDEX", "place_name": "Cayenne", "latitude": "4.9333", "longitude": "-52.3333"}, {"country_code": "GF", "postal_code": "97330", "place_name": "Camopi", "latitude": "3.1689", "longitude": "-52.3353"}, {"country_code": "GF", "postal_code": "97331 CEDEX", "place_name": "Cayenne", "latitude": "4.9333", "longitude": "-52.3333"}, {"country_code": "GF", "postal_code": "97332 CEDEX", "place_name": "Cayenne", "latitude": "4.9333", "longitude": "-52.3333"}, {"country_code": "GF", "postal_code": "97333 CEDEX", "place_name": "Cayenne", "latitude": "4.9333", "longitude": "-52.3333"}, {"country_code": "GF", "postal_code": "97334 CEDEX", "place_name": "Cayenne", "latitude": "4.9333", "longitude": "-52.3333"}, {"country_code": "GF", "postal_code": "97335 CEDEX", "place_name": "Cayenne", "latitude": "4.9333", "longitude": "-52.3333"}, {"country_code": "GF", "postal_code": "97336 CEDEX", "place_name": "Cayenne", "latitude": "4.9333", "longitude": "-52.3333"}, {"country_code": "GF", "postal_code": "97337 CEDEX", "place_name": "Cayenne", "latitude": "4.9333", "longitude": "-52.3333"}, {"country_code": "GF", "postal_code": "97338 CEDEX", "place_name": "Cayenne", "latitude": "4.9333", "longitude": "-52.3333"}, {"country_code": "GF", "postal_code": "97339 CEDEX", "place_name": "Cayenne", "latitude": "4.9333", "longitude": "-52.3333"}, {"country_code": "GF", "postal_code": "97340", "place_name": "Grand-Santi", "latitude": "4.2729", "longitude": "-54.3815"}, {"country_code": "GF", "postal_code": "97341 CEDEX", "place_name": "Cayenne", "latitude": "4.9333", "longitude": "-52.3333"}, {"country_code": "GF", "postal_code": "97342 CEDEX", "place_name": "Cayenne", "latitude": "4.9333", "longitude": "-52.3333"}, {"country_code": "GF", "postal_code": "97343 CEDEX", "place_name": "Cayenne", "latitude": "4.9333", "longitude": "-52.3333"}, {"country_code": "GF", "postal_code": "97344 CEDEX", "place_name": "Cayenne", "latitude": "4.9333", "longitude": "-52.3333"}, {"country_code": "GF", "postal_code": "97345 CEDEX", "place_name": "Cayenne", "latitude": "4.9333", "longitude": "-52.3333"}, {"country_code": "GF", "postal_code": "97346 CEDEX", "place_name": "Cayenne", "latitude": "4.9333", "longitude": "-52.3333"}, {"country_code": "GF", "postal_code": "97347 CEDEX", "place_name": "Cayenne", "latitude": "4.9333", "longitude": "-52.3333"}, {"country_code": "GF", "postal_code": "97350", "place_name": "Iracoubo", "latitude": "5.4787", "longitude": "-53.2052"}, {"country_code": "GF", "postal_code": "97351", "place_name": "Matoury", "latitude": "4.8487", "longitude": "-52.3257"}, {"country_code": "GF", "postal_code": "97352", "place_name": "Roura", "latitude": "4.7252", "longitude": "-52.3262"}, {"country_code": "GF", "postal_code": "97353", "place_name": "R\u00e9gina", "latitude": "4.313", "longitude": "-52.1308"}, {"country_code": "GF", "postal_code": "97354", "place_name": "R\u00e9mire-Montjoly", "latitude": "4.9167", "longitude": "-52.2667"}, {"country_code": "GF", "postal_code": "97355", "place_name": "Macouria", "latitude": "5.0136", "longitude": "-52.4739"}, {"country_code": "GF", "postal_code": "97356", "place_name": "Montsin\u00e9ry-Tonnegrande", "latitude": "4.9", "longitude": "-52.5"}, {"country_code": "GF", "postal_code": "97357 CEDEX", "place_name": "Matoury", "latitude": "4.8487", "longitude": "-52.3257"}, {"country_code": "GF", "postal_code": "97360", "place_name": "Mana", "latitude": "5.6677", "longitude": "-53.7783"}, {"country_code": "GF", "postal_code": "97370", "place_name": "Maripasoula", "latitude": "3.6416", "longitude": "-54.0317"}, {"country_code": "GF", "postal_code": "97371 CEDEX", "place_name": "Kourou", "latitude": "5.1628", "longitude": "-52.6427"}, {"country_code": "GF", "postal_code": "97372 CEDEX", "place_name": "Kourou", "latitude": "5.1628", "longitude": "-52.6427"}, {"country_code": "GF", "postal_code": "97373 CEDEX", "place_name": "Kourou", "latitude": "5.1628", "longitude": "-52.6427"}, {"country_code": "GF", "postal_code": "97374 CEDEX", "place_name": "Kourou", "latitude": "5.1628", "longitude": "-52.6427"}, {"country_code": "GF", "postal_code": "97375 CEDEX", "place_name": "Kourou", "latitude": "5.1628", "longitude": "-52.6427"}, {"country_code": "GF", "postal_code": "97376 CEDEX", "place_name": "Kourou", "latitude": "5.1628", "longitude": "-52.6427"}, {"country_code": "GF", "postal_code": "97377 CEDEX", "place_name": "Kourou", "latitude": "5.1628", "longitude": "-52.6427"}, {"country_code": "GF", "postal_code": "97378 CEDEX", "place_name": "Kourou", "latitude": "5.1628", "longitude": "-52.6427"}, {"country_code": "GF", "postal_code": "97379 CEDEX", "place_name": "Kourou", "latitude": "5.1628", "longitude": "-52.6427"}, {"country_code": "GF", "postal_code": "97380", "place_name": "Ouanary", "latitude": "4.2087", "longitude": "-51.6741"}, {"country_code": "GF", "postal_code": "97381 CEDEX", "place_name": "Kourou", "latitude": "5.1628", "longitude": "-52.6427"}, {"country_code": "GF", "postal_code": "97382 CEDEX", "place_name": "Kourou", "latitude": "5.1628", "longitude": "-52.6427"}, {"country_code": "GF", "postal_code": "97383 CEDEX", "place_name": "Kourou", "latitude": "5.1628", "longitude": "-52.6427"}, {"country_code": "GF", "postal_code": "97384 CEDEX", "place_name": "Kourou", "latitude": "5.1628", "longitude": "-52.6427"}, {"country_code": "GF", "postal_code": "97387 CEDEX", "place_name": "Kourou", "latitude": "5.1628", "longitude": "-52.6427"}, {"country_code": "GF", "postal_code": "97388 CEDEX", "place_name": "Kourou", "latitude": "5.1628", "longitude": "-52.6427"}, {"country_code": "GF", "postal_code": "97389 CEDEX", "place_name": "Kourou", "latitude": "5.1628", "longitude": "-52.6427"}, {"country_code": "GF", "postal_code": "97390", "place_name": "R\u00e9gina", "latitude": "4.313", "longitude": "-52.1308"}, {"country_code": "GF", "postal_code": "97391 CEDEX 2", "place_name": "Cayenne", "latitude": "4.9333", "longitude": "-52.3333"}, {"country_code": "GF", "postal_code": "97392 CEDEX 2", "place_name": "Cayenne", "latitude": "4.9333", "longitude": "-52.3333"}, {"country_code": "GF", "postal_code": "97393 CEDEX", "place_name": "Saint-Laurent-du-Maroni", "latitude": "5.501", "longitude": "-54.0294"}, {"country_code": "GF", "postal_code": "97394 CEDEX", "place_name": "R\u00e9mire-Montjoly", "latitude": "4.9167", "longitude": "-52.2667"}, {"country_code": "GF", "postal_code": "97399 CEDEX", "place_name": "Cayenne", "latitude": "4.9333", "longitude": "-52.3333"}]