[{"country_code": "MA", "postal_code": "32000", "place_name": "Al Hoceima", "latitude": "35.2516", "longitude": "-3.9372"}, {"country_code": "MA", "postal_code": "32003", "place_name": "Ait Youssef Ou Ali", "latitude": "35.1065", "longitude": "-3.9685"}, {"country_code": "MA", "postal_code": "32004", "place_name": "Arbaa Taourirt", "latitude": "34.9265", "longitude": "-3.832"}, {"country_code": "MA", "postal_code": "32006", "place_name": "Rouadi", "latitude": "35.1412", "longitude": "-4.1363"}, {"country_code": "MA", "postal_code": "32013", "place_name": "Senada", "latitude": "35.0745", "longitude": "-4.2158"}, {"country_code": "MA", "postal_code": "32014", "place_name": "Torres De Alcala", "latitude": "35.1521", "longitude": "-4.3259"}, {"country_code": "MA", "postal_code": "32022", "place_name": "Ait Kamra", "latitude": "35.0672", "longitude": "-3.9867"}, {"country_code": "MA", "postal_code": "32023", "place_name": "Chakrane", "latitude": "34.95", "longitude": "-3.98"}, {"country_code": "MA", "postal_code": "32024", "place_name": "Izemmouren", "latitude": "35.1844", "longitude": "-3.9933"}, {"country_code": "MA", "postal_code": "32050", "place_name": "Bni Bouayach", "latitude": "35.1051", "longitude": "-3.8403"}, {"country_code": "MA", "postal_code": "32072", "place_name": "Nekkour", "latitude": "35.0982", "longitude": "-4.0326"}, {"country_code": "MA", "postal_code": "32102", "place_name": "Bni Boufrah", "latitude": "35.1002", "longitude": "-4.3106"}, {"country_code": "MA", "postal_code": "32122", "place_name": "Beni Gmil Mestassa", "latitude": "35.0584", "longitude": "-4.1738"}, {"country_code": "MA", "postal_code": "32152", "place_name": "Bni Hadifa", "latitude": "35.0225", "longitude": "-4.1401"}, {"country_code": "MA", "postal_code": "32172", "place_name": "Bni Abdallah", "latitude": "35.0526", "longitude": "-4.0707"}, {"country_code": "MA", "postal_code": "32202", "place_name": "Imrabten", "latitude": "35.1464", "longitude": "-3.8506"}, {"country_code": "MA", "postal_code": "32250", "place_name": "Imzouren", "latitude": "35.1464", "longitude": "-3.8506"}, {"country_code": "MA", "postal_code": "32253", "place_name": "Troukout", "latitude": "35.1464", "longitude": "-3.8506"}, {"country_code": "MA", "postal_code": "32302", "place_name": "Issaguen", "latitude": "34.9391", "longitude": "-4.4938"}, {"country_code": "MA", "postal_code": "32322", "place_name": "Ikaouen", "latitude": "34.7492", "longitude": "-4.6575"}, {"country_code": "MA", "postal_code": "32323", "place_name": "Ketama", "latitude": "34.9177", "longitude": "-4.5713"}, {"country_code": "MA", "postal_code": "32324", "place_name": "Tabarannt", "latitude": "34.9395", "longitude": "-4.5522"}, {"country_code": "MA", "postal_code": "32325", "place_name": "Taghzout", "latitude": "35.1517", "longitude": "-4.4277"}, {"country_code": "MA", "postal_code": "32326", "place_name": "Tizi Tchen", "latitude": "34.9395", "longitude": "-4.5522"}, {"country_code": "MA", "postal_code": "32350", "place_name": "Targuist", "latitude": "34.9377", "longitude": "-4.3186"}, {"country_code": "MA", "postal_code": "32352", "place_name": "Bni Ammart", "latitude": "34.9377", "longitude": "-4.3186"}, {"country_code": "MA", "postal_code": "32372", "place_name": "Ain Benabbou", "latitude": "34.9391", "longitude": "-4.4938"}, {"country_code": "MA", "postal_code": "32373", "place_name": "Bni Bounsar", "latitude": "34.9391", "longitude": "-4.4938"}, {"country_code": "MA", "postal_code": "32374", "place_name": "Bni Bchir", "latitude": "34.9391", "longitude": "-4.4938"}, {"country_code": "MA", "postal_code": "32375", "place_name": "Sidi Bouzineb", "latitude": "34.9391", "longitude": "-4.4938"}, {"country_code": "MA", "postal_code": "91000", "place_name": "Chefchaouen", "latitude": "35.1688", "longitude": "-5.2636"}, {"country_code": "MA", "postal_code": "91002", "place_name": "Bab Taza", "latitude": "35.0617", "longitude": "-5.1983"}, {"country_code": "MA", "postal_code": "91003", "place_name": "Steha", "latitude": "35.1152", "longitude": "-5.2309"}, {"country_code": "MA", "postal_code": "91022", "place_name": "Ain Beida", "latitude": "35.0839", "longitude": "-5.0052"}, {"country_code": "MA", "postal_code": "91023", "place_name": "Asifane", "latitude": "35.1136", "longitude": "-4.9709"}, {"country_code": "MA", "postal_code": "91024", "place_name": "Asjen", "latitude": "35.0839", "longitude": "-5.0052"}, {"country_code": "MA", "postal_code": "91025", "place_name": "Beni Rzen", "latitude": "34.98", "longitude": "-5.4234"}, {"country_code": "MA", "postal_code": "91026", "place_name": "Brikcha", "latitude": "35.0839", "longitude": "-5.0052"}, {"country_code": "MA", "postal_code": "91032", "place_name": "Derkoul", "latitude": "35.2294", "longitude": "-5.2368"}, {"country_code": "MA", "postal_code": "91033", "place_name": "Fifi", "latitude": "34.9487", "longitude": "-5.248"}, {"country_code": "MA", "postal_code": "91034", "place_name": "Beni Bouzra", "latitude": "35.2294", "longitude": "-5.2368"}, {"country_code": "MA", "postal_code": "91035", "place_name": "Kaa Asrass", "latitude": "35.2294", "longitude": "-5.2368"}, {"country_code": "MA", "postal_code": "91036", "place_name": "Tassift", "latitude": "35.0839", "longitude": "-5.0052"}, {"country_code": "MA", "postal_code": "91042", "place_name": "Derdera", "latitude": "35.1781", "longitude": "-5.3216"}, {"country_code": "MA", "postal_code": "91043", "place_name": "Had Rhdir Krouch", "latitude": "35.1781", "longitude": "-5.3216"}, {"country_code": "MA", "postal_code": "91044", "place_name": "Talembote", "latitude": "35.2516", "longitude": "-5.1825"}, {"country_code": "MA", "postal_code": "91045", "place_name": "Tanacob", "latitude": "35.1045", "longitude": "-5.4608"}, {"country_code": "MA", "postal_code": "91046", "place_name": "Tlata Assifane", "latitude": "35.1781", "longitude": "-5.3216"}, {"country_code": "MA", "postal_code": "91052", "place_name": "Bab Berret", "latitude": "34.9983", "longitude": "-4.893"}, {"country_code": "MA", "postal_code": "91072", "place_name": "Tamorote", "latitude": "34.9363", "longitude": "-4.7794"}, {"country_code": "MA", "postal_code": "91073", "place_name": "Iouane", "latitude": "34.9363", "longitude": "-4.7794"}, {"country_code": "MA", "postal_code": "91102", "place_name": "Bni Ahmed", "latitude": "35.1064", "longitude": "-4.9389"}, {"country_code": "MA", "postal_code": "91122", "place_name": "El Melha", "latitude": "35.134", "longitude": "-5.3659"}, {"country_code": "MA", "postal_code": "91123", "place_name": "Bni Ahmed Gharbia", "latitude": "35.134", "longitude": "-5.3659"}, {"country_code": "MA", "postal_code": "91124", "place_name": "Mansoura", "latitude": "35.134", "longitude": "-5.3659"}, {"country_code": "MA", "postal_code": "91152", "place_name": "Mokrisset", "latitude": "35.0839", "longitude": "-5.0052"}, {"country_code": "MA", "postal_code": "91153", "place_name": "Jebha", "latitude": "35.2055", "longitude": "-4.6652"}, {"country_code": "MA", "postal_code": "91172", "place_name": "Bni Smih", "latitude": "35.1312", "longitude": "-4.6553"}, {"country_code": "MA", "postal_code": "91173", "place_name": "Amtar", "latitude": "35.2425", "longitude": "-4.7925"}, {"country_code": "MA", "postal_code": "91174", "place_name": "Ouaouzgane", "latitude": "35.0199", "longitude": "-4.5181"}, {"country_code": "MA", "postal_code": "91202", "place_name": "Zoumi", "latitude": "35.0839", "longitude": "-5.0052"}, {"country_code": "MA", "postal_code": "94022", "place_name": "Bahraouiyne Tanja", "latitude": "35.7132", "longitude": "-5.6967"}, {"country_code": "MA", "postal_code": "94023", "place_name": "Bahriyne El Aouama", "latitude": "35.7132", "longitude": "-5.6967"}, {"country_code": "MA", "postal_code": "94025", "place_name": "El Borch", "latitude": "35.7132", "longitude": "-5.6967"}, {"country_code": "MA", "postal_code": "94026", "place_name": "Zoco Jemis De Anyera", "latitude": "35.7132", "longitude": "-5.6967"}, {"country_code": "MA", "postal_code": "94031", "place_name": "Hakkama", "latitude": "35.6548", "longitude": "-5.6836"}, {"country_code": "MA", "postal_code": "94053", "place_name": "Melloussa", "latitude": "35.737", "longitude": "-5.6314"}, {"country_code": "MA", "postal_code": "94122", "place_name": "Tarhremt", "latitude": "35.7877", "longitude": "-5.4709"}, {"country_code": "MA", "postal_code": "94152", "place_name": "Ksar Sghir", "latitude": "35.8421", "longitude": "-5.5543"}, {"country_code": "MA", "postal_code": "92000", "place_name": "Larache", "latitude": "35.1932", "longitude": "-6.1557"}, {"country_code": "MA", "postal_code": "92002", "place_name": "Sebt Bni Garfet", "latitude": "35.1932", "longitude": "-6.1557"}, {"country_code": "MA", "postal_code": "92022", "place_name": "Arbaa Ayacha", "latitude": "35.3868", "longitude": "-5.8883"}, {"country_code": "MA", "postal_code": "92023", "place_name": "Sidi Ali", "latitude": "35.3035", "longitude": "-5.7799"}, {"country_code": "MA", "postal_code": "92024", "place_name": "Zaaroura", "latitude": "35.2201", "longitude": "-5.6715"}, {"country_code": "MA", "postal_code": "92052", "place_name": "Al Aouamra", "latitude": "35.2117", "longitude": "-5.9437"}, {"country_code": "MA", "postal_code": "92072", "place_name": "Zouada", "latitude": "35.0468", "longitude": "-6.0592"}, {"country_code": "MA", "postal_code": "92102", "place_name": "Khemis Sahel", "latitude": "35.2534", "longitude": "-6.0796"}, {"country_code": "MA", "postal_code": "92150", "place_name": "Ksar El Kebir", "latitude": "35.0004", "longitude": "-5.9038"}, {"country_code": "MA", "postal_code": "92172", "place_name": "Mecherah", "latitude": "35.1269", "longitude": "-5.9917"}, {"country_code": "MA", "postal_code": "92173", "place_name": "Souk Tolba", "latitude": "35.1269", "longitude": "-5.9917"}, {"country_code": "MA", "postal_code": "92202", "place_name": "Tatoufet", "latitude": "35.0327", "longitude": "-5.7738"}, {"country_code": "MA", "postal_code": "92252", "place_name": "Tlata Rissana", "latitude": "35.0327", "longitude": "-5.7738"}, {"country_code": "MA", "postal_code": "92272", "place_name": "Rissana Janoubia", "latitude": "35.0327", "longitude": "-5.7738"}, {"country_code": "MA", "postal_code": "93034", "place_name": "Moulay Abdesslam", "latitude": "35.553", "longitude": "-5.2447"}, {"country_code": "MA", "postal_code": "90025", "place_name": "Hajr Enhal", "latitude": "35.4509", "longitude": "-5.8449"}, {"country_code": "MA", "postal_code": "90036", "place_name": "Sebt Zeniate", "latitude": "35.4509", "longitude": "-5.8449"}, {"country_code": "MA", "postal_code": "90050", "place_name": "Assilah", "latitude": "35.4652", "longitude": "-6.0342"}, {"country_code": "MA", "postal_code": "90052", "place_name": "Dar Chaoui", "latitude": "35.5377", "longitude": "-5.7174"}, {"country_code": "MA", "postal_code": "90054", "place_name": "Tnine Sidi El Yamani", "latitude": "35.3693", "longitude": "-5.9724"}, {"country_code": "MA", "postal_code": "90102", "place_name": "Gzenaya", "latitude": "35.4637", "longitude": "-5.8621"}, {"country_code": "MA", "postal_code": "90302", "place_name": "Had Rharbia", "latitude": "35.5151", "longitude": "-5.9308"}, {"country_code": "MA", "postal_code": "90072", "place_name": "Bghaghza", "latitude": "35.4314", "longitude": "-5.6557"}, {"country_code": "MA", "postal_code": "93015", "place_name": "Asmaten", "latitude": "35.553", "longitude": "-5.2447"}, {"country_code": "MA", "postal_code": "93022", "place_name": "Azla", "latitude": "35.553", "longitude": "-5.2447"}, {"country_code": "MA", "postal_code": "93023", "place_name": "Beni Yder", "latitude": "35.553", "longitude": "-5.2447"}, {"country_code": "MA", "postal_code": "93024", "place_name": "Dar Ben Saddouk", "latitude": "35.553", "longitude": "-5.2447"}, {"country_code": "MA", "postal_code": "93026", "place_name": "El Fendeq", "latitude": "35.553", "longitude": "-5.2447"}, {"country_code": "MA", "postal_code": "93032", "place_name": "Zaouia Sidi Kacem", "latitude": "35.553", "longitude": "-5.2447"}, {"country_code": "MA", "postal_code": "93033", "place_name": "Jemaa El Oued", "latitude": "35.553", "longitude": "-5.2447"}, {"country_code": "MA", "postal_code": "93052", "place_name": "Bni Karrich Fouki", "latitude": "35.553", "longitude": "-5.2447"}, {"country_code": "MA", "postal_code": "93100", "place_name": "Fnidq", "latitude": "35.6166", "longitude": "-5.2752"}, {"country_code": "MA", "postal_code": "93150", "place_name": "Martil", "latitude": "35.457", "longitude": "-5.4324"}, {"country_code": "MA", "postal_code": "93200", "place_name": "M'Diq", "latitude": "35.457", "longitude": "-5.4324"}, {"country_code": "MA", "postal_code": "93250", "place_name": "Oued Laou", "latitude": "35.4484", "longitude": "-5.0963"}, {"country_code": "MA", "postal_code": "63050", "place_name": "Ahfir", "latitude": "34.9537", "longitude": "-2.1003"}, {"country_code": "MA", "postal_code": "63072", "place_name": "Arhbal", "latitude": "34.9537", "longitude": "-2.1003"}, {"country_code": "MA", "postal_code": "63200", "place_name": "Ain Erreggada", "latitude": "34.9335", "longitude": "-2.23"}, {"country_code": "MA", "postal_code": "63250", "place_name": "Aklim", "latitude": "34.92", "longitude": "-2.43"}, {"country_code": "MA", "postal_code": "63303", "place_name": "Madagh", "latitude": "35.0103", "longitude": "-2.337"}, {"country_code": "MA", "postal_code": "63322", "place_name": "Zayest", "latitude": "34.8418", "longitude": "-2.3554"}, {"country_code": "MA", "postal_code": "63323", "place_name": "Zegzel", "latitude": "34.8418", "longitude": "-2.3554"}, {"country_code": "MA", "postal_code": "63324", "place_name": "Laatmna", "latitude": "34.8418", "longitude": "-2.3554"}, {"country_code": "MA", "postal_code": "63600", "place_name": "Saidia", "latitude": "35.0819", "longitude": "-2.229"}, {"country_code": "MA", "postal_code": "63652", "place_name": "Sidi Bouhouria", "latitude": "34.9259", "longitude": "-2.3447"}, {"country_code": "MA", "postal_code": "63672", "place_name": "Rislane", "latitude": "34.7699", "longitude": "-2.4603"}, {"country_code": "MA", "postal_code": "63752", "place_name": "Taforhalt", "latitude": "34.8078", "longitude": "-2.4109"}, {"country_code": "MA", "postal_code": "61000", "place_name": "Figuig", "latitude": "31.8329", "longitude": "-2.9572"}, {"country_code": "MA", "postal_code": "61052", "place_name": "Ain Chouater", "latitude": "31.8329", "longitude": "-2.9572"}, {"country_code": "MA", "postal_code": "61102", "place_name": "Beni Tajjite", "latitude": "32.2893", "longitude": "-3.4662"}, {"country_code": "MA", "postal_code": "61122", "place_name": "Ait Ahmad Ou Haddou", "latitude": "32.1716", "longitude": "-3.2636"}, {"country_code": "MA", "postal_code": "61152", "place_name": "Bouanane", "latitude": "32.0539", "longitude": "-3.0611"}, {"country_code": "MA", "postal_code": "61200", "place_name": "Bouarfa", "latitude": "32.5338", "longitude": "-1.9621"}, {"country_code": "MA", "postal_code": "61222", "place_name": "Ain Echchair", "latitude": "32.2672", "longitude": "-2.3553"}, {"country_code": "MA", "postal_code": "61223", "place_name": "Mengoub", "latitude": "32.2672", "longitude": "-2.3553"}, {"country_code": "MA", "postal_code": "61252", "place_name": "Talsinnt", "latitude": "32.536", "longitude": "-3.4414"}, {"country_code": "MA", "postal_code": "61272", "place_name": "Anoual Bouchaouen", "latitude": "32.4457", "longitude": "-2.5863"}, {"country_code": "MA", "postal_code": "61273", "place_name": "Boumeriem", "latitude": "32.4457", "longitude": "-2.5863"}, {"country_code": "MA", "postal_code": "61302", "place_name": "Tendrara", "latitude": "33.0496", "longitude": "-2.0002"}, {"country_code": "MA", "postal_code": "64022", "place_name": "Oued El Heimer", "latitude": "34.449", "longitude": "-1.9006"}, {"country_code": "MA", "postal_code": "64100", "place_name": "Ain Bni Mathar", "latitude": "34.0097", "longitude": "-2.0324"}, {"country_code": "MA", "postal_code": "64122", "place_name": "Merija", "latitude": "34.0223", "longitude": "-2.3829"}, {"country_code": "MA", "postal_code": "64123", "place_name": "Ouled Ghziyel", "latitude": "34.0223", "longitude": "-2.3829"}, {"country_code": "MA", "postal_code": "64152", "place_name": "Ain El Guenfouda", "latitude": "34.016", "longitude": "-2.2076"}, {"country_code": "MA", "postal_code": "64500", "place_name": "Hassi Blal", "latitude": "34.3", "longitude": "-2.18"}, {"country_code": "MA", "postal_code": "64550", "place_name": "Jerada", "latitude": "34.31", "longitude": "-2.16"}, {"country_code": "MA", "postal_code": "64572", "place_name": "El Aouinet", "latitude": "34.3469", "longitude": "-2.1509"}, {"country_code": "MA", "postal_code": "64573", "place_name": "Guefait", "latitude": "34.2398", "longitude": "-2.3961"}, {"country_code": "MA", "postal_code": "64850", "place_name": "Touissit", "latitude": "34.4786", "longitude": "-1.7685"}, {"country_code": "MA", "postal_code": "64872", "place_name": "Tiouli", "latitude": "34.3668", "longitude": "-1.8371"}, {"country_code": "MA", "postal_code": "64902", "place_name": "Zellidja Boubker", "latitude": "34.4737", "longitude": "-1.7295"}, {"country_code": "MA", "postal_code": "62022", "place_name": "Aazanen", "latitude": "35.2564", "longitude": "-3.1023"}, {"country_code": "MA", "postal_code": "62023", "place_name": "Bouarg", "latitude": "35.0797", "longitude": "-2.992"}, {"country_code": "MA", "postal_code": "62024", "place_name": "Farkhana", "latitude": "35.2878", "longitude": "-2.9853"}, {"country_code": "MA", "postal_code": "62025", "place_name": "Mechra Klila", "latitude": "34.9892", "longitude": "-2.9208"}, {"country_code": "MA", "postal_code": "62026", "place_name": "Taouima", "latitude": "35.1299", "longitude": "-2.9279"}, {"country_code": "MA", "postal_code": "62050", "place_name": "Bni Ansar", "latitude": "35.0797", "longitude": "-2.992"}, {"country_code": "MA", "postal_code": "62102", "place_name": "Ben Tib", "latitude": "34.9892", "longitude": "-2.9208"}, {"country_code": "MA", "postal_code": "62122", "place_name": "Tizirhine", "latitude": "35.1529", "longitude": "-3.5774"}, {"country_code": "MA", "postal_code": "62123", "place_name": "Talilit", "latitude": "35.1529", "longitude": "-3.5774"}, {"country_code": "MA", "postal_code": "62152", "place_name": "Boudinar", "latitude": "34.9892", "longitude": "-2.9208"}, {"country_code": "MA", "postal_code": "62172", "place_name": "Oulad Amghar", "latitude": "34.9892", "longitude": "-2.9208"}, {"country_code": "MA", "postal_code": "62202", "place_name": "Dar Kebdani", "latitude": "34.9892", "longitude": "-2.9208"}, {"country_code": "MA", "postal_code": "62252", "place_name": "Ain Zorah", "latitude": "34.9892", "longitude": "-2.9208"}, {"country_code": "MA", "postal_code": "62253", "place_name": "Driouch", "latitude": "34.9892", "longitude": "-2.9208"}, {"country_code": "MA", "postal_code": "62272", "place_name": "Oulad Boubker", "latitude": "34.9184", "longitude": "-3.4148"}, {"country_code": "MA", "postal_code": "62302", "place_name": "Had Bni Chiker", "latitude": "35.1071", "longitude": "-2.7469"}, {"country_code": "MA", "postal_code": "62352", "place_name": "Kariat Arkmane", "latitude": "35.1071", "longitude": "-2.7469"}, {"country_code": "MA", "postal_code": "62402", "place_name": "Khemis Temsamane", "latitude": "35.1181", "longitude": "-3.49"}, {"country_code": "MA", "postal_code": "62422", "place_name": "Ajermounas", "latitude": "35.1181", "longitude": "-3.49"}, {"country_code": "MA", "postal_code": "62452", "place_name": "Mhajer", "latitude": "34.9892", "longitude": "-2.9208"}, {"country_code": "MA", "postal_code": "62502", "place_name": "Midar", "latitude": "34.9892", "longitude": "-2.9208"}, {"country_code": "MA", "postal_code": "62522", "place_name": "Kaceta", "latitude": "34.9756", "longitude": "-3.2712"}, {"country_code": "MA", "postal_code": "62523", "place_name": "Tleta Tazlaft", "latitude": "34.9756", "longitude": "-3.2712"}, {"country_code": "MA", "postal_code": "62550", "place_name": "Al Aaroui", "latitude": "35.0109", "longitude": "-3.0094"}, {"country_code": "MA", "postal_code": "62602", "place_name": "Ras El Ma", "latitude": "35.1407", "longitude": "-2.4245"}, {"country_code": "MA", "postal_code": "62650", "place_name": "Zeghanghane", "latitude": "35.1556", "longitude": "-3.0024"}, {"country_code": "MA", "postal_code": "62672", "place_name": "Beni Bou Ifrour", "latitude": "35.1481", "longitude": "-2.7135"}, {"country_code": "MA", "postal_code": "62673", "place_name": "Ihaddadene", "latitude": "35.1481", "longitude": "-2.7135"}, {"country_code": "MA", "postal_code": "62702", "place_name": "Selouane", "latitude": "35.0731", "longitude": "-2.9423"}, {"country_code": "MA", "postal_code": "62752", "place_name": "Tafersite", "latitude": "35.0731", "longitude": "-2.9423"}, {"country_code": "MA", "postal_code": "62802", "place_name": "Tiztoutine", "latitude": "34.9716", "longitude": "-3.1527"}, {"country_code": "MA", "postal_code": "62822", "place_name": "Afsou", "latitude": "34.9716", "longitude": "-3.1527"}, {"country_code": "MA", "postal_code": "62852", "place_name": "Tleta Jbel", "latitude": "34.9716", "longitude": "-3.1527"}, {"country_code": "MA", "postal_code": "62872", "place_name": "Bni Sidel Louta", "latitude": "34.9716", "longitude": "-3.1527"}, {"country_code": "MA", "postal_code": "62900", "place_name": "Zaio", "latitude": "34.9428", "longitude": "-2.7329"}, {"country_code": "MA", "postal_code": "62902", "place_name": "Hassi Berkane", "latitude": "34.839", "longitude": "-2.867"}, {"country_code": "MA", "postal_code": "62922", "place_name": "Oulad Daoud Zkhanine", "latitude": "34.8909", "longitude": "-2.7999"}, {"country_code": "MA", "postal_code": "60005", "place_name": "Ain Es Sfa", "latitude": "34.6028", "longitude": "-2.2176"}, {"country_code": "MA", "postal_code": "60006", "place_name": "El Bessara", "latitude": "34.6028", "longitude": "-2.2176"}, {"country_code": "MA", "postal_code": "60023", "place_name": "Aereport Oujda Angad", "latitude": "34.6028", "longitude": "-2.2176"}, {"country_code": "MA", "postal_code": "60024", "place_name": "Zoudj Bghal", "latitude": "34.6028", "longitude": "-2.2176"}, {"country_code": "MA", "postal_code": "60025", "place_name": "Mesteferki", "latitude": "34.6028", "longitude": "-2.2176"}, {"country_code": "MA", "postal_code": "60032", "place_name": "Oujda Bni Oukil", "latitude": "34.6028", "longitude": "-2.2176"}, {"country_code": "MA", "postal_code": "60070", "place_name": "Naima", "latitude": "34.6028", "longitude": "-2.2176"}, {"country_code": "MA", "postal_code": "60350", "place_name": "Bni Drar", "latitude": "34.86", "longitude": "-1.9898"}, {"country_code": "MA", "postal_code": "65400", "place_name": "Debdou", "latitude": "33.9823", "longitude": "-3.0426"}, {"country_code": "MA", "postal_code": "65450", "place_name": "El Aioune", "latitude": "34.2718", "longitude": "-2.7949"}, {"country_code": "MA", "postal_code": "65472", "place_name": "Mechra Hoummadi", "latitude": "34.4166", "longitude": "-2.6711"}, {"country_code": "MA", "postal_code": "65473", "place_name": "Mestigmer", "latitude": "34.4827", "longitude": "-2.7061"}, {"country_code": "MA", "postal_code": "65474", "place_name": "Tancherfi", "latitude": "34.3504", "longitude": "-2.636"}, {"country_code": "MA", "postal_code": "65800", "place_name": "Taourirt", "latitude": "34.4073", "longitude": "-2.8973"}, {"country_code": "MA", "postal_code": "65822", "place_name": "Sidi Lahcen", "latitude": "34.5596", "longitude": "-3.0232"}, {"country_code": "MA", "postal_code": "65823", "place_name": "Melg El Ouidane", "latitude": "34.5596", "longitude": "-3.0232"}, {"country_code": "MA", "postal_code": "50022", "place_name": "Ain El Orma", "latitude": "33.8935", "longitude": "-5.7472"}, {"country_code": "MA", "postal_code": "50023", "place_name": "Ain Kerma", "latitude": "33.8634", "longitude": "-5.7141"}, {"country_code": "MA", "postal_code": "50024", "place_name": "Ait Aissa Addi", "latitude": "33.8334", "longitude": "-5.6809"}, {"country_code": "MA", "postal_code": "50025", "place_name": "Oued Rommane", "latitude": "33.8634", "longitude": "-5.7141"}, {"country_code": "MA", "postal_code": "50026", "place_name": "Ait Rahhou Mjatt", "latitude": "33.8634", "longitude": "-5.7141"}, {"country_code": "MA", "postal_code": "50044", "place_name": "Zoualet", "latitude": "33.9176", "longitude": "-5.7406"}, {"country_code": "MA", "postal_code": "50046", "place_name": "Bridia", "latitude": "33.9176", "longitude": "-5.7406"}, {"country_code": "MA", "postal_code": "50052", "place_name": "Ain Jemaa", "latitude": "34.0259", "longitude": "-5.7936"}, {"country_code": "MA", "postal_code": "50102", "place_name": "El Hadj Kaddour", "latitude": "33.8848", "longitude": "-5.5966"}, {"country_code": "MA", "postal_code": "50110", "place_name": "Toulal", "latitude": "33.8848", "longitude": "-5.5966"}, {"country_code": "MA", "postal_code": "50122", "place_name": "Sidi Slimane Mjatt", "latitude": "33.8848", "longitude": "-5.5966"}, {"country_code": "MA", "postal_code": "50152", "place_name": "Tnine Mhaya", "latitude": "33.8848", "longitude": "-5.5966"}, {"country_code": "MA", "postal_code": "50300", "place_name": "Boufakrane", "latitude": "34.0018", "longitude": "-5.5505"}, {"country_code": "MA", "postal_code": "50352", "place_name": "Nzalate Bni Ammar", "latitude": "34.0044", "longitude": "-5.2643"}, {"country_code": "MA", "postal_code": "50372", "place_name": "Beni Ammar", "latitude": "34.0946", "longitude": "-5.4331"}, {"country_code": "MA", "postal_code": "50373", "place_name": "Kermat Ben Salem", "latitude": "34.0551", "longitude": "-5.4474"}, {"country_code": "MA", "postal_code": "50374", "place_name": "Moussaoua", "latitude": "34.0157", "longitude": "-5.4617"}, {"country_code": "MA", "postal_code": "50375", "place_name": "Mrhassiyne", "latitude": "34.0551", "longitude": "-5.4474"}, {"country_code": "MA", "postal_code": "50376", "place_name": "Sidi Ali Benhamdouche", "latitude": "34.0551", "longitude": "-5.4474"}, {"country_code": "MA", "postal_code": "50382", "place_name": "Volubilis", "latitude": "34.0044", "longitude": "-5.2643"}, {"country_code": "MA", "postal_code": "50383", "place_name": "Hafrat Ben Taybi", "latitude": "34.0044", "longitude": "-5.2643"}, {"country_code": "MA", "postal_code": "51172", "place_name": "Oued Al Jadidah", "latitude": "33.9195", "longitude": "-5.291"}, {"country_code": "MA", "postal_code": "33000", "place_name": "Boulemane", "latitude": "33.3638", "longitude": "-4.729"}, {"country_code": "MA", "postal_code": "33002", "place_name": "Enjil", "latitude": "33.1855", "longitude": "-4.5514"}, {"country_code": "MA", "postal_code": "33022", "place_name": "Achlouj", "latitude": "33.1828", "longitude": "-4.7907"}, {"country_code": "MA", "postal_code": "33023", "place_name": "Enjil Ait Lahcen", "latitude": "33.1855", "longitude": "-4.5514"}, {"country_code": "MA", "postal_code": "33024", "place_name": "Ifkirne", "latitude": "33.1842", "longitude": "-4.671"}, {"country_code": "MA", "postal_code": "33025", "place_name": "Tafraoute Ait Ali Oulahcen", "latitude": "33.1842", "longitude": "-4.671"}, {"country_code": "MA", "postal_code": "33052", "place_name": "Ait Hamza", "latitude": "33.3468", "longitude": "-4.8911"}, {"country_code": "MA", "postal_code": "33053", "place_name": "Almis Guigou", "latitude": "33.3874", "longitude": "-4.8293"}, {"country_code": "MA", "postal_code": "33102", "place_name": "El Mers", "latitude": "33.452", "longitude": "-4.4634"}, {"country_code": "MA", "postal_code": "33122", "place_name": "Ait Abdallah Boukhamouj", "latitude": "33.4581", "longitude": "-4.2823"}, {"country_code": "MA", "postal_code": "33152", "place_name": "Imouzzer Marmoucha", "latitude": "33.4702", "longitude": "-4.2957"}, {"country_code": "MA", "postal_code": "33172", "place_name": "Ait Bazza", "latitude": "33.455", "longitude": "-4.185"}, {"country_code": "MA", "postal_code": "33173", "place_name": "Ait El Mane", "latitude": "33.455", "longitude": "-4.185"}, {"country_code": "MA", "postal_code": "33174", "place_name": "Almis Marmoucha", "latitude": "33.32", "longitude": "-4.18"}, {"country_code": "MA", "postal_code": "33175", "place_name": "Ouaoulzemt", "latitude": "33.455", "longitude": "-4.185"}, {"country_code": "MA", "postal_code": "33176", "place_name": "Talzemt", "latitude": "33.59", "longitude": "-4.19"}, {"country_code": "MA", "postal_code": "33202", "place_name": "Ksabi", "latitude": "32.8327", "longitude": "-4.3984"}, {"country_code": "MA", "postal_code": "33250", "place_name": "Missour", "latitude": "33.0489", "longitude": "-3.9895"}, {"country_code": "MA", "postal_code": "33272", "place_name": "Oulad Sghir", "latitude": "32.9408", "longitude": "-4.1939"}, {"country_code": "MA", "postal_code": "33273", "place_name": "Ouizeght", "latitude": "32.9408", "longitude": "-4.1939"}, {"country_code": "MA", "postal_code": "33300", "place_name": "Outat El Haj", "latitude": "33.345", "longitude": "-3.7039"}, {"country_code": "MA", "postal_code": "33302", "place_name": "Ouled Ali", "latitude": "33.345", "longitude": "-3.7039"}, {"country_code": "MA", "postal_code": "33303", "place_name": "Tindit", "latitude": "33.345", "longitude": "-3.7039"}, {"country_code": "MA", "postal_code": "33322", "place_name": "Fritissa", "latitude": "33.619", "longitude": "-3.5491"}, {"country_code": "MA", "postal_code": "33323", "place_name": "Tissaf", "latitude": "33.4011", "longitude": "-3.589"}, {"country_code": "MA", "postal_code": "33324", "place_name": "El Orjane", "latitude": "33.398", "longitude": "-3.7277"}, {"country_code": "MA", "postal_code": "33352", "place_name": "Skoura Seghrouchen", "latitude": "33.4408", "longitude": "-3.6424"}, {"country_code": "MA", "postal_code": "33372", "place_name": "Taghroute", "latitude": "33.4408", "longitude": "-3.6424"}, {"country_code": "MA", "postal_code": "51000", "place_name": "El Hajeb", "latitude": "33.6879", "longitude": "-5.371"}, {"country_code": "MA", "postal_code": "51025", "place_name": "Ait Yaazem", "latitude": "33.7315", "longitude": "-5.5791"}, {"country_code": "MA", "postal_code": "51026", "place_name": "Bouderbala", "latitude": "33.8167", "longitude": "-5.2758"}, {"country_code": "MA", "postal_code": "51032", "place_name": "Ras Jerri", "latitude": "33.7199", "longitude": "-5.454"}, {"country_code": "MA", "postal_code": "51050", "place_name": "Agourai", "latitude": "33.6437", "longitude": "-5.5901"}, {"country_code": "MA", "postal_code": "51052", "place_name": "Sebt Jehjouh", "latitude": "33.6437", "longitude": "-5.5901"}, {"country_code": "MA", "postal_code": "51100", "place_name": "Ain Taoujdate", "latitude": "33.9357", "longitude": "-5.2133"}, {"country_code": "MA", "postal_code": "51123", "place_name": "Bittit", "latitude": "33.9195", "longitude": "-5.291"}, {"country_code": "MA", "postal_code": "51124", "place_name": "Laqsir", "latitude": "33.9195", "longitude": "-5.291"}, {"country_code": "MA", "postal_code": "51150", "place_name": "Sabaa Aiyoun", "latitude": "33.9033", "longitude": "-5.3687"}, {"country_code": "MA", "postal_code": "30023", "place_name": "Oulad Ettayeb", "latitude": "34.0273", "longitude": "-4.8834"}, {"country_code": "MA", "postal_code": "30205", "place_name": "Sidi Harazem", "latitude": "34.0273", "longitude": "-4.8834"}, {"country_code": "MA", "postal_code": "53000", "place_name": "Ifrane", "latitude": "33.5267", "longitude": "-5.1102"}, {"country_code": "MA", "postal_code": "53022", "place_name": "Ait Hamad Ribaa", "latitude": "33.5897", "longitude": "-4.9775"}, {"country_code": "MA", "postal_code": "53023", "place_name": "Dayat Aoua", "latitude": "33.5897", "longitude": "-4.9775"}, {"country_code": "MA", "postal_code": "53024", "place_name": "Zaouia Ait Sidi Abdesslam", "latitude": "33.5897", "longitude": "-4.9775"}, {"country_code": "MA", "postal_code": "53052", "place_name": "Ain Leuh", "latitude": "33.2898", "longitude": "-5.3386"}, {"country_code": "MA", "postal_code": "53100", "place_name": "Azrou", "latitude": "33.4344", "longitude": "-5.2213"}, {"country_code": "MA", "postal_code": "53102", "place_name": "Sidi Addi", "latitude": "33.3957", "longitude": "-5.3334"}, {"country_code": "MA", "postal_code": "53103", "place_name": "Souk El Had Oued Ifrane", "latitude": "33.4151", "longitude": "-5.2773"}, {"country_code": "MA", "postal_code": "53104", "place_name": "Timahdite", "latitude": "33.4151", "longitude": "-5.2773"}, {"country_code": "MA", "postal_code": "53122", "place_name": "Ait Yahia Ou Alla", "latitude": "33.4183", "longitude": "-5.2581"}, {"country_code": "MA", "postal_code": "53123", "place_name": "Ben Smim", "latitude": "33.4183", "longitude": "-5.2581"}, {"country_code": "MA", "postal_code": "53124", "place_name": "Ougmas", "latitude": "33.4183", "longitude": "-5.2581"}, {"country_code": "MA", "postal_code": "31000", "place_name": "Sefrou", "latitude": "33.8319", "longitude": "-4.828"}, {"country_code": "MA", "postal_code": "31002", "place_name": "Azzaba", "latitude": "33.8326", "longitude": "-4.7078"}, {"country_code": "MA", "postal_code": "31003", "place_name": "El Aderj", "latitude": "33.62", "longitude": "-4.43"}, {"country_code": "MA", "postal_code": "31004", "place_name": "Tazouta", "latitude": "33.6699", "longitude": "-4.6339"}, {"country_code": "MA", "postal_code": "31022", "place_name": "Aioun Sename", "latitude": "33.7694", "longitude": "-4.7273"}, {"country_code": "MA", "postal_code": "31023", "place_name": "Arhbalou Akorare", "latitude": "33.7694", "longitude": "-4.7273"}, {"country_code": "MA", "postal_code": "31024", "place_name": "Sidi Youssef Ben Ahmed Senhaja", "latitude": "33.7694", "longitude": "-4.7273"}, {"country_code": "MA", "postal_code": "31025", "place_name": "Sidi Lahcen El Youssi", "latitude": "33.7694", "longitude": "-4.7273"}, {"country_code": "MA", "postal_code": "31026", "place_name": "Dar El Hamra", "latitude": "33.7694", "longitude": "-4.7273"}, {"country_code": "MA", "postal_code": "31032", "place_name": "Tafajight", "latitude": "33.7694", "longitude": "-4.7273"}, {"country_code": "MA", "postal_code": "31052", "place_name": "Ain Cheggag", "latitude": "33.8929", "longitude": "-5.037"}, {"country_code": "MA", "postal_code": "31100", "place_name": "Bhalil", "latitude": "33.8519", "longitude": "-4.8723"}, {"country_code": "MA", "postal_code": "31152", "place_name": "Bir Tamtam", "latitude": "33.9813", "longitude": "-4.6395"}, {"country_code": "MA", "postal_code": "31200", "place_name": "El Menzel", "latitude": "33.8376", "longitude": "-4.5447"}, {"country_code": "MA", "postal_code": "31202", "place_name": "Ouled M'Koudou", "latitude": "33.8376", "longitude": "-4.5447"}, {"country_code": "MA", "postal_code": "31222", "place_name": "Mtarnargha", "latitude": "33.8552", "longitude": "-4.4881"}, {"country_code": "MA", "postal_code": "31223", "place_name": "Zaouia Bougrine", "latitude": "33.8552", "longitude": "-4.4881"}, {"country_code": "MA", "postal_code": "31250", "place_name": "Imouzzer Kandar", "latitude": "33.7287", "longitude": "-5.0109"}, {"country_code": "MA", "postal_code": "31272", "place_name": "Ait Sebaa", "latitude": "33.7859", "longitude": "-4.624"}, {"country_code": "MA", "postal_code": "31273", "place_name": "Zaouiat El Kermate", "latitude": "33.7859", "longitude": "-4.624"}, {"country_code": "MA", "postal_code": "31350", "place_name": "Ribate El Kheir", "latitude": "33.808", "longitude": "-4.7106"}, {"country_code": "MA", "postal_code": "31372", "place_name": "Ighezren", "latitude": "33.808", "longitude": "-4.7106"}, {"country_code": "MA", "postal_code": "34000", "place_name": "Taounate", "latitude": "34.5366", "longitude": "-4.6401"}, {"country_code": "MA", "postal_code": "34002", "place_name": "Khlalfa", "latitude": "34.5218", "longitude": "-4.5968"}, {"country_code": "MA", "postal_code": "34003", "place_name": "Ain Mediouna", "latitude": "34.507", "longitude": "-4.5535"}, {"country_code": "MA", "postal_code": "34004", "place_name": "Bni Oulid", "latitude": "34.5218", "longitude": "-4.5968"}, {"country_code": "MA", "postal_code": "34005", "place_name": "Bni Korra", "latitude": "34.5218", "longitude": "-4.5968"}, {"country_code": "MA", "postal_code": "34006", "place_name": "Bouhouda", "latitude": "34.5218", "longitude": "-4.5968"}, {"country_code": "MA", "postal_code": "34012", "place_name": "Bouarous", "latitude": "34.3787", "longitude": "-4.8241"}, {"country_code": "MA", "postal_code": "34013", "place_name": "Tafrannt", "latitude": "34.6249", "longitude": "-5.1248"}, {"country_code": "MA", "postal_code": "34014", "place_name": "Tabouda", "latitude": "34.7192", "longitude": "-5.1403"}, {"country_code": "MA", "postal_code": "34022", "place_name": "Bab Ouandar", "latitude": "34.5514", "longitude": "-4.6863"}, {"country_code": "MA", "postal_code": "34023", "place_name": "El Haddada", "latitude": "34.6193", "longitude": "-4.5949"}, {"country_code": "MA", "postal_code": "34024", "place_name": "Galaz", "latitude": "34.5442", "longitude": "-4.8035"}, {"country_code": "MA", "postal_code": "34025", "place_name": "Mezraoua", "latitude": "34.5512", "longitude": "-4.7362"}, {"country_code": "MA", "postal_code": "34026", "place_name": "Rghioua", "latitude": "34.491", "longitude": "-4.6105"}, {"country_code": "MA", "postal_code": "34032", "place_name": "Quallaline", "latitude": "34.5286", "longitude": "-4.807"}, {"country_code": "MA", "postal_code": "34033", "place_name": "Moulay Bouchta", "latitude": "34.4892", "longitude": "-5.1302"}, {"country_code": "MA", "postal_code": "34034", "place_name": "Sgoura", "latitude": "34.5286", "longitude": "-4.807"}, {"country_code": "MA", "postal_code": "34035", "place_name": "Beni Selmane", "latitude": "34.493", "longitude": "-4.5014"}, {"country_code": "MA", "postal_code": "34036", "place_name": "Sidi El Mokhfi", "latitude": "34.6037", "longitude": "-4.7893"}, {"country_code": "MA", "postal_code": "34042", "place_name": "Timezgana", "latitude": "34.58", "longitude": "-4.73"}, {"country_code": "MA", "postal_code": "34043", "place_name": "Zrizer", "latitude": "34.5867", "longitude": "-4.6181"}, {"country_code": "MA", "postal_code": "34044", "place_name": "Ourtzarh", "latitude": "34.5348", "longitude": "-4.9688"}, {"country_code": "MA", "postal_code": "34050", "place_name": "Karia Ba Mohamed", "latitude": "34.3709", "longitude": "-5.2138"}, {"country_code": "MA", "postal_code": "34072", "place_name": "Bouchabel", "latitude": "34.3782", "longitude": "-5.0134"}, {"country_code": "MA", "postal_code": "34073", "place_name": "Jbabra", "latitude": "34.4314", "longitude": "-4.9646"}, {"country_code": "MA", "postal_code": "34074", "place_name": "Loulja", "latitude": "34.2899", "longitude": "-4.9417"}, {"country_code": "MA", "postal_code": "34075", "place_name": "Mkannssa", "latitude": "34.3942", "longitude": "-5.0555"}, {"country_code": "MA", "postal_code": "34076", "place_name": "Rhouazi", "latitude": "34.4774", "longitude": "-5.3024"}, {"country_code": "MA", "postal_code": "34082", "place_name": "Sidi El Abed", "latitude": "34.5104", "longitude": "-4.8601"}, {"country_code": "MA", "postal_code": "34083", "place_name": "Moulay Abdelkrim", "latitude": "34.5104", "longitude": "-4.8601"}, {"country_code": "MA", "postal_code": "34100", "place_name": "Ghafsai", "latitude": "34.628", "longitude": "-4.9127"}, {"country_code": "MA", "postal_code": "34102", "place_name": "Retba", "latitude": "34.6082", "longitude": "-4.6408"}, {"country_code": "MA", "postal_code": "34122", "place_name": "Ain Barda", "latitude": "34.5886", "longitude": "-4.946"}, {"country_code": "MA", "postal_code": "34123", "place_name": "Klaia", "latitude": "34.6677", "longitude": "-4.8868"}, {"country_code": "MA", "postal_code": "34124", "place_name": "Oulad Salah", "latitude": "34.3544", "longitude": "-5.0468"}, {"country_code": "MA", "postal_code": "34125", "place_name": "Tamesnite", "latitude": "34.7436", "longitude": "-4.9044"}, {"country_code": "MA", "postal_code": "34126", "place_name": "Lamkmmel", "latitude": "34.5886", "longitude": "-4.946"}, {"country_code": "MA", "postal_code": "34132", "place_name": "Tnine Zghariyine", "latitude": "34.6004", "longitude": "-4.8783"}, {"country_code": "MA", "postal_code": "34133", "place_name": "Sidi Haj Mhamed", "latitude": "34.6004", "longitude": "-4.8783"}, {"country_code": "MA", "postal_code": "34150", "place_name": "Thar Es-Souk", "latitude": "34.6004", "longitude": "-4.8783"}, {"country_code": "MA", "postal_code": "34172", "place_name": "Beni Ounjil Tafraoute", "latitude": "34.6004", "longitude": "-4.8783"}, {"country_code": "MA", "postal_code": "34173", "place_name": "Tamedit", "latitude": "34.6004", "longitude": "-4.8783"}, {"country_code": "MA", "postal_code": "34200", "place_name": "Tissa", "latitude": "34.2879", "longitude": "-4.6637"}, {"country_code": "MA", "postal_code": "34222", "place_name": "Ain Legdeh", "latitude": "34.2567", "longitude": "-4.4679"}, {"country_code": "MA", "postal_code": "34223", "place_name": "El Bessabssa", "latitude": "34.2567", "longitude": "-4.4679"}, {"country_code": "MA", "postal_code": "34224", "place_name": "Messassa", "latitude": "34.2532", "longitude": "-4.5213"}, {"country_code": "MA", "postal_code": "34225", "place_name": "Oued Jemaa", "latitude": "34.2567", "longitude": "-4.4679"}, {"country_code": "MA", "postal_code": "34226", "place_name": "Outa Bouabane", "latitude": "34.2602", "longitude": "-4.4146"}, {"country_code": "MA", "postal_code": "34232", "place_name": "Ras El Oued", "latitude": "34.3919", "longitude": "-4.503"}, {"country_code": "MA", "postal_code": "34233", "place_name": "Sidi Mhamed Ben Lahcen", "latitude": "34.3919", "longitude": "-4.503"}, {"country_code": "MA", "postal_code": "34252", "place_name": "Ain Aicha", "latitude": "34.461", "longitude": "-4.6903"}, {"country_code": "MA", "postal_code": "34272", "place_name": "Ain Maatouf", "latitude": "34.4331", "longitude": "-4.5645"}, {"country_code": "MA", "postal_code": "34273", "place_name": "Oulad Daoud", "latitude": "34.4044", "longitude": "-4.6934"}, {"country_code": "MA", "postal_code": "35224", "place_name": "Oulad Ayyad", "latitude": "34.3887", "longitude": "-5.0693"}, {"country_code": "MA", "postal_code": "35000", "place_name": "Taza", "latitude": "34.21", "longitude": "-4.01"}, {"country_code": "MA", "postal_code": "35002", "place_name": "Arbaa Beni Ftah", "latitude": "34.319", "longitude": "-4.0807"}, {"country_code": "MA", "postal_code": "35003", "place_name": "Bab El Mrouj", "latitude": "34.4147", "longitude": "-4.044"}, {"country_code": "MA", "postal_code": "35004", "place_name": "Bab Marzouka", "latitude": "34.319", "longitude": "-4.0807"}, {"country_code": "MA", "postal_code": "35005", "place_name": "Beni Lennt", "latitude": "34.3322", "longitude": "-4.1881"}, {"country_code": "MA", "postal_code": "35006", "place_name": "Meknassa Acharqia", "latitude": "34.319", "longitude": "-4.0807"}, {"country_code": "MA", "postal_code": "35012", "place_name": "Merhraoua", "latitude": "33.9326", "longitude": "-4.0468"}, {"country_code": "MA", "postal_code": "35013", "place_name": "Sebt Bni Frassen", "latitude": "34.2434", "longitude": "-4.0913"}, {"country_code": "MA", "postal_code": "35014", "place_name": "Taineste", "latitude": "34.5541", "longitude": "-4.1358"}, {"country_code": "MA", "postal_code": "35022", "place_name": "Bab Bouidir", "latitude": "34.284", "longitude": "-4.2346"}, {"country_code": "MA", "postal_code": "35023", "place_name": "Bechiyine", "latitude": "34.284", "longitude": "-4.2346"}, {"country_code": "MA", "postal_code": "35024", "place_name": "Beni Ali", "latitude": "34.284", "longitude": "-4.2346"}, {"country_code": "MA", "postal_code": "35025", "place_name": "Gueldamane", "latitude": "34.284", "longitude": "-4.2346"}, {"country_code": "MA", "postal_code": "35026", "place_name": "Msoun", "latitude": "34.284", "longitude": "-4.2346"}, {"country_code": "MA", "postal_code": "35036", "place_name": "Touahar", "latitude": "34.2", "longitude": "-4.2"}, {"country_code": "MA", "postal_code": "35042", "place_name": "Had Oulad Zbair", "latitude": "34.2894", "longitude": "-4.3195"}, {"country_code": "MA", "postal_code": "35043", "place_name": "Houara Oulad Rahho", "latitude": "34.2894", "longitude": "-4.3195"}, {"country_code": "MA", "postal_code": "35044", "place_name": "Kahf El Rhar", "latitude": "34.2894", "longitude": "-4.3195"}, {"country_code": "MA", "postal_code": "35045", "place_name": "Tnine Taifa", "latitude": "34.2894", "longitude": "-4.3195"}, {"country_code": "MA", "postal_code": "35046", "place_name": "Oulad Chrif", "latitude": "34.2894", "longitude": "-4.3195"}, {"country_code": "MA", "postal_code": "35050", "place_name": "Aknoul", "latitude": "34.6537", "longitude": "-3.8675"}, {"country_code": "MA", "postal_code": "35052", "place_name": "Ajdir", "latitude": "34.7435", "longitude": "-3.9758"}, {"country_code": "MA", "postal_code": "35053", "place_name": "Boured", "latitude": "34.7246", "longitude": "-4.0992"}, {"country_code": "MA", "postal_code": "35055", "place_name": "Oulad Bourima", "latitude": "34.7072", "longitude": "-3.9809"}, {"country_code": "MA", "postal_code": "35056", "place_name": "Tlata Traiba", "latitude": "34.7072", "longitude": "-3.9809"}, {"country_code": "MA", "postal_code": "35062", "place_name": "Tazarine Msara", "latitude": "34.4163", "longitude": "-4.1162"}, {"country_code": "MA", "postal_code": "35072", "place_name": "Jbarna", "latitude": "34.5002", "longitude": "-3.9135"}, {"country_code": "MA", "postal_code": "35073", "place_name": "Tighezratine", "latitude": "34.5363", "longitude": "-4.1946"}, {"country_code": "MA", "postal_code": "35074", "place_name": "Ain El Hamra", "latitude": "34.3028", "longitude": "-4.0886"}, {"country_code": "MA", "postal_code": "35075", "place_name": "Inahnahen", "latitude": "34.5363", "longitude": "-4.1946"}, {"country_code": "MA", "postal_code": "35100", "place_name": "Guercif", "latitude": "34.3028", "longitude": "-4.0886"}, {"country_code": "MA", "postal_code": "35102", "place_name": "Berkine", "latitude": "34.2257", "longitude": "-3.3536"}, {"country_code": "MA", "postal_code": "35103", "place_name": "Mahirija", "latitude": "34.2257", "longitude": "-3.3536"}, {"country_code": "MA", "postal_code": "35104", "place_name": "Mezguitem", "latitude": "34.2257", "longitude": "-3.3536"}, {"country_code": "MA", "postal_code": "35105", "place_name": "Saka", "latitude": "34.3028", "longitude": "-4.0886"}, {"country_code": "MA", "postal_code": "35122", "place_name": "Rchida", "latitude": "33.9665", "longitude": "-3.9104"}, {"country_code": "MA", "postal_code": "35123", "place_name": "Tighza", "latitude": "33.9665", "longitude": "-3.9104"}, {"country_code": "MA", "postal_code": "35124", "place_name": "Assebbab", "latitude": "33.9665", "longitude": "-3.9104"}, {"country_code": "MA", "postal_code": "35125", "place_name": "Ras Laksar", "latitude": "33.9665", "longitude": "-3.9104"}, {"country_code": "MA", "postal_code": "35152", "place_name": "Had Msila", "latitude": "34.2277", "longitude": "-3.8045"}, {"country_code": "MA", "postal_code": "35172", "place_name": "El Gouzat", "latitude": "34.4909", "longitude": "-4.1496"}, {"country_code": "MA", "postal_code": "35202", "place_name": "Bouzemlane", "latitude": "34.0991", "longitude": "-4.5522"}, {"country_code": "MA", "postal_code": "35203", "place_name": "Matmata", "latitude": "34.0991", "longitude": "-4.5522"}, {"country_code": "MA", "postal_code": "35222", "place_name": "Ain Boumassay", "latitude": "34.3887", "longitude": "-5.0693"}, {"country_code": "MA", "postal_code": "35223", "place_name": "Aoura", "latitude": "34.3887", "longitude": "-5.0693"}, {"country_code": "MA", "postal_code": "35225", "place_name": "Zaouia Sidi Abdejlil", "latitude": "34.3887", "longitude": "-5.0693"}, {"country_code": "MA", "postal_code": "35250", "place_name": "Oued Amlil", "latitude": "34.2", "longitude": "-4.28"}, {"country_code": "MA", "postal_code": "35272", "place_name": "Beni Mgara", "latitude": "34.1941", "longitude": "-4.1999"}, {"country_code": "MA", "postal_code": "35273", "place_name": "Bouchfaa", "latitude": "34.1015", "longitude": "-4.296"}, {"country_code": "MA", "postal_code": "35274", "place_name": "Bouhlou", "latitude": "34.1298", "longitude": "-4.4049"}, {"country_code": "MA", "postal_code": "35275", "place_name": "Kaouane", "latitude": "33.9635", "longitude": "-4.2451"}, {"country_code": "MA", "postal_code": "35300", "place_name": "Tahla", "latitude": "34.0496", "longitude": "-4.4216"}, {"country_code": "MA", "postal_code": "35322", "place_name": "Ain El Fendel", "latitude": "34.0306", "longitude": "-4.389"}, {"country_code": "MA", "postal_code": "35323", "place_name": "Ifrane Ait Assou", "latitude": "34.3028", "longitude": "-4.0886"}, {"country_code": "MA", "postal_code": "35324", "place_name": "Sidi Ali Bennacer", "latitude": "34.0306", "longitude": "-4.389"}, {"country_code": "MA", "postal_code": "35325", "place_name": "Smiaa", "latitude": "34.0306", "longitude": "-4.389"}, {"country_code": "MA", "postal_code": "35352", "place_name": "Tizi Ouzli", "latitude": "34.7621", "longitude": "-3.7958"}, {"country_code": "MA", "postal_code": "35372", "place_name": "Sidi Ali Bourakba", "latitude": "34.2808", "longitude": "-4.2021"}, {"country_code": "MA", "postal_code": "35402", "place_name": "Zerarda", "latitude": "33.97", "longitude": "-4.38"}, {"country_code": "MA", "postal_code": "35422", "place_name": "Kassarat", "latitude": "33.97", "longitude": "-4.38"}, {"country_code": "MA", "postal_code": "35423", "place_name": "Oued El Maleh", "latitude": "33.97", "longitude": "-4.38"}, {"country_code": "MA", "postal_code": "35424", "place_name": "Oued Lahmar", "latitude": "33.97", "longitude": "-4.38"}, {"country_code": "MA", "postal_code": "36104", "place_name": "Sebaa Rouadi", "latitude": "34.2861", "longitude": "-5.1941"}, {"country_code": "MA", "postal_code": "36122", "place_name": "Ain Chkef", "latitude": "34.1407", "longitude": "-5.0796"}, {"country_code": "MA", "postal_code": "36123", "place_name": "Hamria", "latitude": "34.0861", "longitude": "-5.2071"}, {"country_code": "MA", "postal_code": "36124", "place_name": "Laajajra", "latitude": "34.2071", "longitude": "-5.1263"}, {"country_code": "MA", "postal_code": "36125", "place_name": "Mikkes", "latitude": "34.0861", "longitude": "-5.2071"}, {"country_code": "MA", "postal_code": "36126", "place_name": "Souk Sebt Oulad Mimoun", "latitude": "34.0861", "longitude": "-5.2071"}, {"country_code": "MA", "postal_code": "36150", "place_name": "Moulay Yacoub", "latitude": "34.0879", "longitude": "-5.1817"}, {"country_code": "MA", "postal_code": "36152", "place_name": "Sidi Ahmed El Bernoussi", "latitude": "34.0879", "longitude": "-5.1817"}, {"country_code": "MA", "postal_code": "36172", "place_name": "Sidi Daoud", "latitude": "34.1407", "longitude": "-5.0796"}, {"country_code": "MA", "postal_code": "36222", "place_name": "Ain Kansara", "latitude": "34.1428", "longitude": "-4.8304"}, {"country_code": "MA", "postal_code": "14005", "place_name": "Souk Tleta El Gharb", "latitude": "34.6211", "longitude": "-6.1343"}, {"country_code": "MA", "postal_code": "14022", "place_name": "Ben Mansour", "latitude": "34.295", "longitude": "-6.5606"}, {"country_code": "MA", "postal_code": "14023", "place_name": "El Morhrane", "latitude": "34.403", "longitude": "-6.4395"}, {"country_code": "MA", "postal_code": "14025", "place_name": "Sidi Taibi", "latitude": "34.187", "longitude": "-6.6818"}, {"country_code": "MA", "postal_code": "14026", "place_name": "Ain Ariss", "latitude": "34.295", "longitude": "-6.5606"}, {"country_code": "MA", "postal_code": "14046", "place_name": "M'Saada", "latitude": "34.4334", "longitude": "-6.3944"}, {"country_code": "MA", "postal_code": "14052", "place_name": "Allal Tazi", "latitude": "34.5226", "longitude": "-6.322"}, {"country_code": "MA", "postal_code": "14053", "place_name": "Mnasra", "latitude": "34.5226", "longitude": "-6.322"}, {"country_code": "MA", "postal_code": "14102", "place_name": "Arbaoua", "latitude": "34.9024", "longitude": "-5.9487"}, {"country_code": "MA", "postal_code": "14110", "place_name": "Mehdya", "latitude": "34.256", "longitude": "-6.6734"}, {"country_code": "MA", "postal_code": "14122", "place_name": "Sidi Boubker El Haj", "latitude": "34.9272", "longitude": "-6.0572"}, {"country_code": "MA", "postal_code": "14123", "place_name": "Oued El Makhazine", "latitude": "34.9256", "longitude": "-5.8571"}, {"country_code": "MA", "postal_code": "14152", "place_name": "Lalla Mimouna", "latitude": "34.8461", "longitude": "-6.0665"}, {"country_code": "MA", "postal_code": "14200", "place_name": "Sidi Slimane", "latitude": "34.5859", "longitude": "-6.2612"}, {"country_code": "MA", "postal_code": "14222", "place_name": "Dar Bel Amri", "latitude": "34.5859", "longitude": "-6.2612"}, {"country_code": "MA", "postal_code": "14223", "place_name": "Sfafaa", "latitude": "34.16", "longitude": "-5.95"}, {"country_code": "MA", "postal_code": "14224", "place_name": "Azghar", "latitude": "34.16", "longitude": "-5.95"}, {"country_code": "MA", "postal_code": "14225", "place_name": "Ouled Ben Hammadi", "latitude": "34.16", "longitude": "-5.95"}, {"country_code": "MA", "postal_code": "14250", "place_name": "Sidi Yahya El Gharb", "latitude": "34.3049", "longitude": "-6.304"}, {"country_code": "MA", "postal_code": "14300", "place_name": "Souk El Arbaa Du Rharb", "latitude": "34.6866", "longitude": "-6.0027"}, {"country_code": "MA", "postal_code": "14302", "place_name": "Moulay Bouselham", "latitude": "34.6866", "longitude": "-6.0027"}, {"country_code": "MA", "postal_code": "14322", "place_name": "Karia Benaouda", "latitude": "34.7624", "longitude": "-6.045"}, {"country_code": "MA", "postal_code": "14323", "place_name": "Sidi Mohamed El Ahmar", "latitude": "34.7624", "longitude": "-6.045"}, {"country_code": "MA", "postal_code": "14325", "place_name": "Chouafaa", "latitude": "34.7624", "longitude": "-6.045"}, {"country_code": "MA", "postal_code": "15003", "place_name": "Khemis Ait Yaddine", "latitude": "33.7074", "longitude": "-6.1938"}, {"country_code": "MA", "postal_code": "15004", "place_name": "Sfassif", "latitude": "33.7074", "longitude": "-6.1938"}, {"country_code": "MA", "postal_code": "15005", "place_name": "Sidi Allal Lemsedder", "latitude": "33.7074", "longitude": "-6.1938"}, {"country_code": "MA", "postal_code": "15022", "place_name": "El Hammam Jbel Doum", "latitude": "33.7829", "longitude": "-6.128"}, {"country_code": "MA", "postal_code": "15023", "place_name": "Had Ait Mimoun", "latitude": "33.7829", "longitude": "-6.128"}, {"country_code": "MA", "postal_code": "15024", "place_name": "Had Ait Ouribel", "latitude": "33.7829", "longitude": "-6.128"}, {"country_code": "MA", "postal_code": "15025", "place_name": "Souk Sebt Oued Beht", "latitude": "33.7829", "longitude": "-6.128"}, {"country_code": "MA", "postal_code": "15026", "place_name": "El Kensara", "latitude": "33.7829", "longitude": "-6.128"}, {"country_code": "MA", "postal_code": "15032", "place_name": "Majmaa Tolba", "latitude": "33.7074", "longitude": "-6.1938"}, {"country_code": "MA", "postal_code": "15033", "place_name": "Sidi El Rhandour", "latitude": "33.7074", "longitude": "-6.1938"}, {"country_code": "MA", "postal_code": "15052", "place_name": "Sebt Ait Ikkou", "latitude": "33.6686", "longitude": "-6.1372"}, {"country_code": "MA", "postal_code": "15053", "place_name": "Maaziz", "latitude": "33.6707", "longitude": "-6.3161"}, {"country_code": "MA", "postal_code": "15072", "place_name": "Moulay Driss Arhbal", "latitude": "33.7074", "longitude": "-6.1938"}, {"country_code": "MA", "postal_code": "15073", "place_name": "Souk Jemaa Houderrane", "latitude": "33.7074", "longitude": "-6.1938"}, {"country_code": "MA", "postal_code": "15102", "place_name": "Oulmes", "latitude": "33.4259", "longitude": "-6.0014"}, {"country_code": "MA", "postal_code": "15122", "place_name": "Boukchmir", "latitude": "33.669", "longitude": "-6.2206"}, {"country_code": "MA", "postal_code": "15123", "place_name": "Tarmilet", "latitude": "33.3868", "longitude": "-6.1078"}, {"country_code": "MA", "postal_code": "15124", "place_name": "Ait Ichou", "latitude": "33.9511", "longitude": "-6.3334"}, {"country_code": "MA", "postal_code": "15150", "place_name": "Rommani", "latitude": "33.5284", "longitude": "-6.6035"}, {"country_code": "MA", "postal_code": "15152", "place_name": "Ain Sbit", "latitude": "33.6111", "longitude": "-6.6179"}, {"country_code": "MA", "postal_code": "15153", "place_name": "Had Brachoua", "latitude": "33.6937", "longitude": "-6.6323"}, {"country_code": "MA", "postal_code": "15154", "place_name": "Zhiliga", "latitude": "33.6111", "longitude": "-6.6179"}, {"country_code": "MA", "postal_code": "15172", "place_name": "Had Rhoualem", "latitude": "33.5972", "longitude": "-6.3357"}, {"country_code": "MA", "postal_code": "15173", "place_name": "Jemaa Moul Leblad", "latitude": "33.5972", "longitude": "-6.3357"}, {"country_code": "MA", "postal_code": "15174", "place_name": "Marchouch", "latitude": "33.5972", "longitude": "-6.3357"}, {"country_code": "MA", "postal_code": "15175", "place_name": "Khemis Nkheila", "latitude": "33.5972", "longitude": "-6.3357"}, {"country_code": "MA", "postal_code": "15202", "place_name": "Sidi Abderrazak", "latitude": "34.0017", "longitude": "-6.4088"}, {"country_code": "MA", "postal_code": "15252", "place_name": "Sidi Allal El Bahraoui", "latitude": "34.0017", "longitude": "-6.4088"}, {"country_code": "MA", "postal_code": "15272", "place_name": "Souk Tnine Moghane", "latitude": "34.0017", "longitude": "-6.4088"}, {"country_code": "MA", "postal_code": "15273", "place_name": "Sidi Boukhalkhal", "latitude": "34.0017", "longitude": "-6.4088"}, {"country_code": "MA", "postal_code": "15352", "place_name": "Tiddas", "latitude": "33.5695", "longitude": "-6.2659"}, {"country_code": "MA", "postal_code": "15400", "place_name": "Tiflet", "latitude": "33.8947", "longitude": "-6.3065"}, {"country_code": "MA", "postal_code": "15422", "place_name": "Ain Johra", "latitude": "34.1", "longitude": "-6.35"}, {"country_code": "MA", "postal_code": "15423", "place_name": "Khemis Sidi Yahia", "latitude": "33.7986", "longitude": "-6.2667"}, {"country_code": "MA", "postal_code": "15424", "place_name": "Mkam Tolba", "latitude": "33.9493", "longitude": "-6.3084"}, {"country_code": "MA", "postal_code": "15425", "place_name": "Ait Belkacem", "latitude": "33.9493", "longitude": "-6.3084"}, {"country_code": "MA", "postal_code": "11022", "place_name": "Arbaa Shoul", "latitude": "34.1185", "longitude": "-6.7389"}, {"country_code": "MA", "postal_code": "11023", "place_name": "El Arjate", "latitude": "34.1185", "longitude": "-6.7389"}, {"country_code": "MA", "postal_code": "11052", "place_name": "Bouknadel", "latitude": "34.1185", "longitude": "-6.7389"}, {"country_code": "MA", "postal_code": "16000", "place_name": "Sidi-Kacem", "latitude": "34.5628", "longitude": "-5.3621"}, {"country_code": "MA", "postal_code": "16004", "place_name": "Sidi Bousber", "latitude": "34.4715", "longitude": "-5.7435"}, {"country_code": "MA", "postal_code": "16010", "place_name": "Dar Gueddari", "latitude": "34.4212", "longitude": "-6.091"}, {"country_code": "MA", "postal_code": "16020", "place_name": "Jorf El Melha", "latitude": "34.4916", "longitude": "-5.5085"}, {"country_code": "MA", "postal_code": "16022", "place_name": "Bir Taleb", "latitude": "34.4916", "longitude": "-5.5085"}, {"country_code": "MA", "postal_code": "16023", "place_name": "Zagota", "latitude": "34.4916", "longitude": "-5.5085"}, {"country_code": "MA", "postal_code": "16024", "place_name": "Zirara", "latitude": "34.4916", "longitude": "-5.5085"}, {"country_code": "MA", "postal_code": "16026", "place_name": "Dar Laaslouji", "latitude": "34.4916", "longitude": "-5.5085"}, {"country_code": "MA", "postal_code": "16032", "place_name": "Sidi Ahmed Cherif", "latitude": "34.5417", "longitude": "-5.6577"}, {"country_code": "MA", "postal_code": "16033", "place_name": "Chbanate", "latitude": "34.5417", "longitude": "-5.6577"}, {"country_code": "MA", "postal_code": "16050", "place_name": "Had Kourt", "latitude": "34.6159", "longitude": "-5.7404"}, {"country_code": "MA", "postal_code": "16052", "place_name": "Ain Deffali", "latitude": "34.5896", "longitude": "-5.5261"}, {"country_code": "MA", "postal_code": "16072", "place_name": "Sidi Azzouz", "latitude": "34.5689", "longitude": "-5.7182"}, {"country_code": "MA", "postal_code": "16102", "place_name": "Khenichet", "latitude": "34.4404", "longitude": "-5.6788"}, {"country_code": "MA", "postal_code": "16150", "place_name": "Mechra Bel Ksiri", "latitude": "34.5737", "longitude": "-5.9558"}, {"country_code": "MA", "postal_code": "16172", "place_name": "Jemaa Haouafate", "latitude": "34.5071", "longitude": "-5.8173"}, {"country_code": "MA", "postal_code": "16173", "place_name": "Nouirate", "latitude": "34.5071", "longitude": "-5.8173"}, {"country_code": "MA", "postal_code": "16174", "place_name": "Sefsaf", "latitude": "34.5071", "longitude": "-5.8173"}, {"country_code": "MA", "postal_code": "16175", "place_name": "Sidi Al Kamel", "latitude": "34.5071", "longitude": "-5.8173"}, {"country_code": "MA", "postal_code": "16200", "place_name": "Ouezzane", "latitude": "34.6869", "longitude": "-5.4454"}, {"country_code": "MA", "postal_code": "16202", "place_name": "Sidi Redouane", "latitude": "34.4715", "longitude": "-5.7435"}, {"country_code": "MA", "postal_code": "16222", "place_name": "Ain Dorij", "latitude": "34.6807", "longitude": "-5.3593"}, {"country_code": "MA", "postal_code": "16223", "place_name": "Sebt Rmel", "latitude": "34.6807", "longitude": "-5.3593"}, {"country_code": "MA", "postal_code": "16224", "place_name": "Bni Quolla", "latitude": "34.6807", "longitude": "-5.3593"}, {"country_code": "MA", "postal_code": "16225", "place_name": "Ounnana", "latitude": "34.6807", "longitude": "-5.3593"}, {"country_code": "MA", "postal_code": "16252", "place_name": "Teroual", "latitude": "34.4715", "longitude": "-5.7435"}, {"country_code": "MA", "postal_code": "16324", "place_name": "Sidi Ammar El Hadi", "latitude": "34.5626", "longitude": "-5.63"}, {"country_code": "MA", "postal_code": "12013", "place_name": "Ain Attig", "latitude": "33.8527", "longitude": "-7.0317"}, {"country_code": "MA", "postal_code": "12025", "place_name": "Mers El Kheir", "latitude": "33.8527", "longitude": "-7.0317"}, {"country_code": "MA", "postal_code": "12050", "place_name": "Skhirate", "latitude": "33.8527", "longitude": "-7.0317"}, {"country_code": "MA", "postal_code": "12072", "place_name": "Sebbah", "latitude": "33.8527", "longitude": "-7.0317"}, {"country_code": "MA", "postal_code": "12100", "place_name": "Ain El Aouda", "latitude": "33.8033", "longitude": "-6.7946"}, {"country_code": "MA", "postal_code": "12122", "place_name": "Oumazza", "latitude": "34.2422", "longitude": "-6.6015"}, {"country_code": "MA", "postal_code": "12123", "place_name": "El Menzeh", "latitude": "33.7573", "longitude": "-6.8908"}, {"country_code": "MA", "postal_code": "12152", "place_name": "Sidi Yahia Zaers", "latitude": "34.0228", "longitude": "-6.6981"}, {"country_code": "MA", "postal_code": "12200", "place_name": "Tamesna", "latitude": "33.8181", "longitude": "-6.9166"}, {"country_code": "MA", "postal_code": "22000", "place_name": "Azilal", "latitude": "31.9616", "longitude": "-6.5711"}, {"country_code": "MA", "postal_code": "22002", "place_name": "Zaouia Ahensal", "latitude": "31.9616", "longitude": "-6.5711"}, {"country_code": "MA", "postal_code": "22022", "place_name": "Skatt", "latitude": "31.8126", "longitude": "-6.6818"}, {"country_code": "MA", "postal_code": "22052", "place_name": "Afourer", "latitude": "32.2072", "longitude": "-6.5382"}, {"country_code": "MA", "postal_code": "22072", "place_name": "Ait Ouarda", "latitude": "32.1114", "longitude": "-6.4915"}, {"country_code": "MA", "postal_code": "22102", "place_name": "Ait Attab", "latitude": "31.8883", "longitude": "-6.9422"}, {"country_code": "MA", "postal_code": "22122", "place_name": "Taounza", "latitude": "32.0937", "longitude": "-6.6061"}, {"country_code": "MA", "postal_code": "22152", "place_name": "Ait Mhamed", "latitude": "31.8883", "longitude": "-6.9422"}, {"country_code": "MA", "postal_code": "22172", "place_name": "Igmir", "latitude": "31.6829", "longitude": "-7.2784"}, {"country_code": "MA", "postal_code": "22202", "place_name": "Bine El Ouidane", "latitude": "32.1097", "longitude": "-6.4755"}, {"country_code": "MA", "postal_code": "22250", "place_name": "Bzou", "latitude": "32.0917", "longitude": "-7.0479"}, {"country_code": "MA", "postal_code": "22272", "place_name": "Aghbalou Zaouia", "latitude": "32.1007", "longitude": "-6.7617"}, {"country_code": "MA", "postal_code": "22273", "place_name": "Imadahen", "latitude": "32.1007", "longitude": "-6.7617"}, {"country_code": "MA", "postal_code": "22274", "place_name": "Rfala", "latitude": "32.1007", "longitude": "-6.7617"}, {"country_code": "MA", "postal_code": "22300", "place_name": "Demnate", "latitude": "31.7344", "longitude": "-7.0051"}, {"country_code": "MA", "postal_code": "22322", "place_name": "Ait Blal", "latitude": "31.9628", "longitude": "-6.8443"}, {"country_code": "MA", "postal_code": "22323", "place_name": "Ait Tamlil", "latitude": "31.4876", "longitude": "-6.9427"}, {"country_code": "MA", "postal_code": "22324", "place_name": "Anzou", "latitude": "31.6927", "longitude": "-6.9093"}, {"country_code": "MA", "postal_code": "22325", "place_name": "Tidili Fetouaka", "latitude": "31.6927", "longitude": "-6.9093"}, {"country_code": "MA", "postal_code": "22326", "place_name": "Tifni", "latitude": "31.6278", "longitude": "-6.9409"}, {"country_code": "MA", "postal_code": "22352", "place_name": "Tislit", "latitude": "31.9793", "longitude": "-6.8548"}, {"country_code": "MA", "postal_code": "22353", "place_name": "Foum Jemaa", "latitude": "31.9617", "longitude": "-6.9835"}, {"country_code": "MA", "postal_code": "22372", "place_name": "Bni Hassane", "latitude": "32.0301", "longitude": "-6.7999"}, {"country_code": "MA", "postal_code": "22373", "place_name": "Tabia", "latitude": "32.0301", "longitude": "-6.7999"}, {"country_code": "MA", "postal_code": "22402", "place_name": "Ouaouizarht", "latitude": "32.1586", "longitude": "-6.3534"}, {"country_code": "MA", "postal_code": "22452", "place_name": "Tabannt", "latitude": "31.6525", "longitude": "-6.4105"}, {"country_code": "MA", "postal_code": "22472", "place_name": "Abachkou", "latitude": "31.5927", "longitude": "-6.6171"}, {"country_code": "MA", "postal_code": "22502", "place_name": "Taguelft", "latitude": "32.2392", "longitude": "-6.1234"}, {"country_code": "MA", "postal_code": "22522", "place_name": "Ait Tamejoute", "latitude": "31.94", "longitude": "-6.7193"}, {"country_code": "MA", "postal_code": "22523", "place_name": "Arbaa Ouakabli", "latitude": "31.94", "longitude": "-6.7193"}, {"country_code": "MA", "postal_code": "22552", "place_name": "Tanannt", "latitude": "31.863", "longitude": "-6.9418"}, {"country_code": "MA", "postal_code": "22572", "place_name": "Ait Taguella", "latitude": "31.9206", "longitude": "-6.7232"}, {"country_code": "MA", "postal_code": "22573", "place_name": "Arbaa Ou Aoula", "latitude": "31.8844", "longitude": "-6.8127"}, {"country_code": "MA", "postal_code": "22574", "place_name": "Bouantar", "latitude": "31.744", "longitude": "-6.7828"}, {"country_code": "MA", "postal_code": "22575", "place_name": "Khemis Majden", "latitude": "31.8429", "longitude": "-6.9646"}, {"country_code": "MA", "postal_code": "22576", "place_name": "Ouzoud", "latitude": "32.03", "longitude": "-6.78"}, {"country_code": "MA", "postal_code": "22602", "place_name": "Tilougguite", "latitude": "32.03", "longitude": "-6.2031"}, {"country_code": "MA", "postal_code": "22622", "place_name": "Anergui", "latitude": "32.0691", "longitude": "-5.9396"}, {"country_code": "MA", "postal_code": "22652", "place_name": "Bni Ayat", "latitude": "32.0496", "longitude": "-6.0714"}, {"country_code": "MA", "postal_code": "22702", "place_name": "Tnine Timoulilt", "latitude": "32.2037", "longitude": "-6.4666"}, {"country_code": "MA", "postal_code": "23005", "place_name": "Bni Oukil", "latitude": "32.463", "longitude": "-6.0345"}, {"country_code": "MA", "postal_code": "23006", "place_name": "Foum Oudi", "latitude": "32.5765", "longitude": "-6.8374"}, {"country_code": "MA", "postal_code": "23022", "place_name": "Laayayta", "latitude": "32.5086", "longitude": "-6.0843"}, {"country_code": "MA", "postal_code": "23023", "place_name": "M'Ghila", "latitude": "32.5086", "longitude": "-6.0843"}, {"country_code": "MA", "postal_code": "23052", "place_name": "Arhbala", "latitude": "32.4808", "longitude": "-5.643"}, {"country_code": "MA", "postal_code": "23072", "place_name": "Boutfarda", "latitude": "32.4685", "longitude": "-5.7724"}, {"country_code": "MA", "postal_code": "23073", "place_name": "Tizi Nisly", "latitude": "32.4685", "longitude": "-5.7724"}, {"country_code": "MA", "postal_code": "23102", "place_name": "Dar Ould Zidouh", "latitude": "32.463", "longitude": "-6.0345"}, {"country_code": "MA", "postal_code": "23122", "place_name": "Had Oulad Boumoussa", "latitude": "32.4389", "longitude": "-6.4687"}, {"country_code": "MA", "postal_code": "23150", "place_name": "El Ksiba", "latitude": "32.5654", "longitude": "-6.0324"}, {"country_code": "MA", "postal_code": "23200", "place_name": "Fquih Ben Salah", "latitude": "32.4409", "longitude": "-6.3977"}, {"country_code": "MA", "postal_code": "23222", "place_name": "El Krifate", "latitude": "32.5087", "longitude": "-6.5357"}, {"country_code": "MA", "postal_code": "23223", "place_name": "Hal El Marbaa", "latitude": "32.5087", "longitude": "-6.5357"}, {"country_code": "MA", "postal_code": "23224", "place_name": "Khemis Bni Chagdal", "latitude": "32.5087", "longitude": "-6.5357"}, {"country_code": "MA", "postal_code": "23225", "place_name": "Oulad Hassoun", "latitude": "32.463", "longitude": "-6.0345"}, {"country_code": "MA", "postal_code": "23226", "place_name": "Ouled Abdellah", "latitude": "32.5087", "longitude": "-6.5357"}, {"country_code": "MA", "postal_code": "23252", "place_name": "Foum El Anser", "latitude": "32.3731", "longitude": "-6.2597"}, {"country_code": "MA", "postal_code": "23272", "place_name": "Fechtala", "latitude": "32.4409", "longitude": "-6.3977"}, {"country_code": "MA", "postal_code": "23302", "place_name": "Had Bradia", "latitude": "32.463", "longitude": "-6.0345"}, {"country_code": "MA", "postal_code": "23322", "place_name": "Lahlalma", "latitude": "32.5559", "longitude": "-6.3294"}, {"country_code": "MA", "postal_code": "23323", "place_name": "Oulad Ali Loued", "latitude": "32.5559", "longitude": "-6.3294"}, {"country_code": "MA", "postal_code": "23324", "place_name": "Oulad Driss Bradia", "latitude": "32.5559", "longitude": "-6.3294"}, {"country_code": "MA", "postal_code": "23350", "place_name": "Kasba Tadla", "latitude": "32.5977", "longitude": "-6.2684"}, {"country_code": "MA", "postal_code": "23372", "place_name": "Guettaya", "latitude": "32.5048", "longitude": "-6.2485"}, {"country_code": "MA", "postal_code": "23373", "place_name": "Oulad Said El Oued", "latitude": "32.5883", "longitude": "-6.2562"}, {"country_code": "MA", "postal_code": "23374", "place_name": "Ouled Youssef", "latitude": "32.5883", "longitude": "-6.2562"}, {"country_code": "MA", "postal_code": "23375", "place_name": "Semguet", "latitude": "32.5883", "longitude": "-6.2562"}, {"country_code": "MA", "postal_code": "23376", "place_name": "Douar Ait Ali", "latitude": "32.6717", "longitude": "-6.2639"}, {"country_code": "MA", "postal_code": "23400", "place_name": "Oulad Ayad", "latitude": "32.463", "longitude": "-6.0345"}, {"country_code": "MA", "postal_code": "23452", "place_name": "Ouled Mbarek", "latitude": "32.463", "longitude": "-6.0345"}, {"country_code": "MA", "postal_code": "23502", "place_name": "Ouled Yaiche", "latitude": "32.435", "longitude": "-6.3245"}, {"country_code": "MA", "postal_code": "23522", "place_name": "El Bazzaza", "latitude": "32.453", "longitude": "-6.2922"}, {"country_code": "MA", "postal_code": "23523", "place_name": "Zouair", "latitude": "32.453", "longitude": "-6.2922"}, {"country_code": "MA", "postal_code": "23550", "place_name": "Sebt Oulad Nemma", "latitude": "32.6554", "longitude": "-6.4236"}, {"country_code": "MA", "postal_code": "23572", "place_name": "El Krazza", "latitude": "33.0784", "longitude": "-6.6541"}, {"country_code": "MA", "postal_code": "23573", "place_name": "Oulad Bourahmoune", "latitude": "33.0784", "longitude": "-6.6541"}, {"country_code": "MA", "postal_code": "23574", "place_name": "Sidi Aissa", "latitude": "32.463", "longitude": "-6.0345"}, {"country_code": "MA", "postal_code": "23575", "place_name": "Ouled Zmam", "latitude": "33.0784", "longitude": "-6.6541"}, {"country_code": "MA", "postal_code": "23602", "place_name": "Sidi Jaber", "latitude": "32.3895", "longitude": "-6.4209"}, {"country_code": "MA", "postal_code": "23652", "place_name": "Taghzirt", "latitude": "32.4357", "longitude": "-6.1896"}, {"country_code": "MA", "postal_code": "23672", "place_name": "Feryata", "latitude": "32.4991", "longitude": "-6.1467"}, {"country_code": "MA", "postal_code": "23673", "place_name": "Rhorm El Alem", "latitude": "32.5265", "longitude": "-6.1565"}, {"country_code": "MA", "postal_code": "23674", "place_name": "Tanorha", "latitude": "32.4718", "longitude": "-6.137"}, {"country_code": "MA", "postal_code": "23700", "place_name": "Zaouiat Cheikh", "latitude": "32.5018", "longitude": "-6.3518"}, {"country_code": "MA", "postal_code": "54002", "place_name": "Kaf Nsour", "latitude": "33.1614", "longitude": "-5.8463"}, {"country_code": "MA", "postal_code": "54003", "place_name": "Tighessaline", "latitude": "33.1614", "longitude": "-5.8463"}, {"country_code": "MA", "postal_code": "54022", "place_name": "El Hri", "latitude": "33.1614", "longitude": "-5.8463"}, {"country_code": "MA", "postal_code": "54023", "place_name": "Sidi Bouabbed", "latitude": "33.1614", "longitude": "-5.8463"}, {"country_code": "MA", "postal_code": "54052", "place_name": "Aguelmouss", "latitude": "33.1614", "longitude": "-5.8463"}, {"country_code": "MA", "postal_code": "54102", "place_name": "Ouaoumana", "latitude": "32.7103", "longitude": "-5.8063"}, {"country_code": "MA", "postal_code": "54103", "place_name": "Ait Ishak", "latitude": "32.7618", "longitude": "-5.7253"}, {"country_code": "MA", "postal_code": "54152", "place_name": "Aghbalou Nserdane", "latitude": "32.7236", "longitude": "-5.1025"}, {"country_code": "MA", "postal_code": "54153", "place_name": "Ain Aicha Ait Saadelli", "latitude": "32.7236", "longitude": "-5.1025"}, {"country_code": "MA", "postal_code": "54154", "place_name": "Boumia", "latitude": "33.0045", "longitude": "-5.7647"}, {"country_code": "MA", "postal_code": "54202", "place_name": "Sidi Yahya Ou Saad", "latitude": "32.6801", "longitude": "-5.5774"}, {"country_code": "MA", "postal_code": "54203", "place_name": "El Kebab", "latitude": "32.7412", "longitude": "-5.5199"}, {"country_code": "MA", "postal_code": "54222", "place_name": "Ait Hnini", "latitude": "32.7665", "longitude": "-5.3829"}, {"country_code": "MA", "postal_code": "54252", "place_name": "Itzer", "latitude": "33.0045", "longitude": "-5.7647"}, {"country_code": "MA", "postal_code": "54272", "place_name": "Ait Oufella", "latitude": "32.7665", "longitude": "-5.3829"}, {"country_code": "MA", "postal_code": "54273", "place_name": "Tamayouste", "latitude": "32.7665", "longitude": "-5.3829"}, {"country_code": "MA", "postal_code": "54302", "place_name": "Kerrouchen", "latitude": "32.7964", "longitude": "-5.3188"}, {"country_code": "MA", "postal_code": "54350", "place_name": "Midelt", "latitude": "33.0045", "longitude": "-5.7647"}, {"country_code": "MA", "postal_code": "54352", "place_name": "Bouayache", "latitude": "32.6852", "longitude": "-4.7451"}, {"country_code": "MA", "postal_code": "54372", "place_name": "Ait Oumghar", "latitude": "33.0045", "longitude": "-5.7647"}, {"country_code": "MA", "postal_code": "54373", "place_name": "Mibladen", "latitude": "32.0886", "longitude": "-6.2385"}, {"country_code": "MA", "postal_code": "54374", "place_name": "Taakit", "latitude": "32.0886", "longitude": "-6.2385"}, {"country_code": "MA", "postal_code": "54375", "place_name": "Zaida", "latitude": "32.0886", "longitude": "-6.2385"}, {"country_code": "MA", "postal_code": "54376", "place_name": "Taghzoute Chorafa", "latitude": "32.0886", "longitude": "-6.2385"}, {"country_code": "MA", "postal_code": "54402", "place_name": "Souk Had Bouhsoussen", "latitude": "32.6146", "longitude": "-6.2635"}, {"country_code": "MA", "postal_code": "54403", "place_name": "Moulay Bouazza", "latitude": "33.0045", "longitude": "-5.7647"}, {"country_code": "MA", "postal_code": "54423", "place_name": "Souk Sebt Ait Rahou", "latitude": "32.8946", "longitude": "-5.8669"}, {"country_code": "MA", "postal_code": "54424", "place_name": "Souk Tnine Ait Boukhayyou", "latitude": "32.8946", "longitude": "-5.8669"}, {"country_code": "MA", "postal_code": "54425", "place_name": "Sidi Mhamed Ben Mbarek", "latitude": "32.8946", "longitude": "-5.8669"}, {"country_code": "MA", "postal_code": "54450", "place_name": "M'Rirt", "latitude": "33.1745", "longitude": "-5.4702"}, {"country_code": "MA", "postal_code": "54452", "place_name": "El Hammam", "latitude": "33.1745", "longitude": "-5.4702"}, {"country_code": "MA", "postal_code": "54472", "place_name": "Jbel Aouama", "latitude": "32.8946", "longitude": "-5.8669"}, {"country_code": "MA", "postal_code": "54473", "place_name": "Oum Rabia", "latitude": "32.8946", "longitude": "-5.8669"}, {"country_code": "MA", "postal_code": "54502", "place_name": "Tounfite", "latitude": "32.7513", "longitude": "-5.5555"}, {"country_code": "MA", "postal_code": "54522", "place_name": "Agoudim", "latitude": "32.7513", "longitude": "-5.5555"}, {"country_code": "MA", "postal_code": "54523", "place_name": "Sidi Yahia O Youssef", "latitude": "32.7513", "longitude": "-5.5555"}, {"country_code": "MA", "postal_code": "54524", "place_name": "Anemzi", "latitude": "32.7513", "longitude": "-5.5555"}, {"country_code": "MA", "postal_code": "25003", "place_name": "Sebt Beni Yakhlef", "latitude": "32.6923", "longitude": "-6.9538"}, {"country_code": "MA", "postal_code": "25022", "place_name": "El Fokra", "latitude": "32.6923", "longitude": "-6.9538"}, {"country_code": "MA", "postal_code": "25023", "place_name": "Ouled Abdoun", "latitude": "32.6923", "longitude": "-6.9538"}, {"country_code": "MA", "postal_code": "25060", "place_name": "Bejaad", "latitude": "32.6923", "longitude": "-6.9538"}, {"country_code": "MA", "postal_code": "25072", "place_name": "Boukhrisse", "latitude": "32.6923", "longitude": "-6.9538"}, {"country_code": "MA", "postal_code": "25073", "place_name": "Oulad Gouaouch", "latitude": "32.6923", "longitude": "-6.9538"}, {"country_code": "MA", "postal_code": "25100", "place_name": "Boujniba", "latitude": "32.9005", "longitude": "-6.7746"}, {"country_code": "MA", "postal_code": "25152", "place_name": "Boulanouar", "latitude": "32.9005", "longitude": "-6.7746"}, {"country_code": "MA", "postal_code": "25202", "place_name": "El Gueffaf", "latitude": "32.8828", "longitude": "-6.6538"}, {"country_code": "MA", "postal_code": "25252", "place_name": "Had Bni Batao", "latitude": "32.8828", "longitude": "-6.6538"}, {"country_code": "MA", "postal_code": "25272", "place_name": "Tleta Beni Zrantil", "latitude": "32.8828", "longitude": "-6.6538"}, {"country_code": "MA", "postal_code": "25300", "place_name": "Hattane", "latitude": "32.8627", "longitude": "-6.5736"}, {"country_code": "MA", "postal_code": "25322", "place_name": "Mfassis", "latitude": "32.8627", "longitude": "-6.5736"}, {"country_code": "MA", "postal_code": "25323", "place_name": "Oulad Azzouz", "latitude": "32.8627", "longitude": "-6.5736"}, {"country_code": "MA", "postal_code": "25350", "place_name": "Oued Zem", "latitude": "32.8627", "longitude": "-6.5736"}, {"country_code": "MA", "postal_code": "25372", "place_name": "Arbaa Maadna", "latitude": "32.8627", "longitude": "-6.5736"}, {"country_code": "MA", "postal_code": "25373", "place_name": "Bir Mezoui", "latitude": "32.8627", "longitude": "-6.5736"}, {"country_code": "MA", "postal_code": "25374", "place_name": "Bni Smir", "latitude": "32.8627", "longitude": "-6.5736"}, {"country_code": "MA", "postal_code": "25375", "place_name": "Jemaa Oulad Aissa", "latitude": "32.8627", "longitude": "-6.5736"}, {"country_code": "MA", "postal_code": "25376", "place_name": "Kasbat Troch", "latitude": "32.8627", "longitude": "-6.5736"}, {"country_code": "MA", "postal_code": "25382", "place_name": "Oulad Fennane", "latitude": "32.8627", "longitude": "-6.5736"}, {"country_code": "MA", "postal_code": "25383", "place_name": "Sebt Dechra Braksa", "latitude": "32.8627", "longitude": "-6.5736"}, {"country_code": "MA", "postal_code": "25402", "place_name": "Ouled Boughadi", "latitude": "33.0623", "longitude": "-6.6557"}, {"country_code": "MA", "postal_code": "25422", "place_name": "Ait Ammar", "latitude": "33.0623", "longitude": "-6.6557"}, {"country_code": "MA", "postal_code": "25423", "place_name": "Oulad Ftata", "latitude": "33.0623", "longitude": "-6.6557"}, {"country_code": "MA", "postal_code": "25424", "place_name": "Tleta Gnadiz", "latitude": "33.0623", "longitude": "-6.6557"}, {"country_code": "MA", "postal_code": "25452", "place_name": "Tachreft", "latitude": "33.0623", "longitude": "-6.6557"}, {"country_code": "MA", "postal_code": "25472", "place_name": "Ain Kicher", "latitude": "33.0623", "longitude": "-6.6557"}, {"country_code": "MA", "postal_code": "25502", "place_name": "Tleta Chougrane", "latitude": "32.8963", "longitude": "-6.3111"}, {"country_code": "MA", "postal_code": "25522", "place_name": "Rouached", "latitude": "32.8963", "longitude": "-6.3111"}, {"country_code": "MA", "postal_code": "13000", "place_name": "Benslimane", "latitude": "33.616", "longitude": "-7.1215"}, {"country_code": "MA", "postal_code": "13003", "place_name": "Fedalate", "latitude": "33.5675", "longitude": "-7.3099"}, {"country_code": "MA", "postal_code": "13022", "place_name": "Bennabet", "latitude": "33.4957", "longitude": "-7.0992"}, {"country_code": "MA", "postal_code": "13024", "place_name": "El Krassi", "latitude": "33.4957", "longitude": "-7.0992"}, {"country_code": "MA", "postal_code": "13025", "place_name": "Tnine Oulad Ali", "latitude": "33.4957", "longitude": "-7.0992"}, {"country_code": "MA", "postal_code": "13026", "place_name": "Ziaida", "latitude": "33.4957", "longitude": "-7.0992"}, {"country_code": "MA", "postal_code": "13032", "place_name": "Soualem Et Tirs", "latitude": "33.6064", "longitude": "-7.2082"}, {"country_code": "MA", "postal_code": "13033", "place_name": "Moulaine El Oued", "latitude": "33.6064", "longitude": "-7.2082"}, {"country_code": "MA", "postal_code": "13072", "place_name": "El Mansouria", "latitude": "33.7464", "longitude": "-7.3019"}, {"country_code": "MA", "postal_code": "13100", "place_name": "Bouznika", "latitude": "33.7894", "longitude": "-7.1597"}, {"country_code": "MA", "postal_code": "13162", "place_name": "Sidi Bettache", "latitude": "33.5662", "longitude": "-6.8958"}, {"country_code": "MA", "postal_code": "13202", "place_name": "Mellila", "latitude": "33.38", "longitude": "-7.14"}, {"country_code": "MA", "postal_code": "13322", "place_name": "Ahlaf", "latitude": "33.288", "longitude": "-7.2051"}, {"country_code": "MA", "postal_code": "24003", "place_name": "Moulay Abdellah", "latitude": "33.0409", "longitude": "-8.3891"}, {"country_code": "MA", "postal_code": "24004", "place_name": "Ouled Amrane", "latitude": "33.2315", "longitude": "-8.5506"}, {"country_code": "MA", "postal_code": "24005", "place_name": "Sidi Bouzid", "latitude": "33.2315", "longitude": "-8.5506"}, {"country_code": "MA", "postal_code": "24022", "place_name": "Oulad Aissa", "latitude": "32.8628", "longitude": "-8.3226"}, {"country_code": "MA", "postal_code": "24023", "place_name": "Oulad Hassine", "latitude": "32.8628", "longitude": "-8.3226"}, {"country_code": "MA", "postal_code": "24024", "place_name": "Sidi Moussa Plage", "latitude": "32.8628", "longitude": "-8.3226"}, {"country_code": "MA", "postal_code": "24025", "place_name": "Jorf Lasfar", "latitude": "32.8628", "longitude": "-8.3226"}, {"country_code": "MA", "postal_code": "24026", "place_name": "Kridid", "latitude": "32.8628", "longitude": "-8.3226"}, {"country_code": "MA", "postal_code": "24032", "place_name": "Sidi Abed", "latitude": "32.8628", "longitude": "-8.3226"}, {"country_code": "MA", "postal_code": "24052", "place_name": "Arbaa Aounate", "latitude": "33.0409", "longitude": "-8.3891"}, {"country_code": "MA", "postal_code": "24072", "place_name": "Khemis Ksiba", "latitude": "32.6134", "longitude": "-8.222"}, {"country_code": "MA", "postal_code": "24073", "place_name": "Matrann", "latitude": "33.0409", "longitude": "-8.3891"}, {"country_code": "MA", "postal_code": "24074", "place_name": "Tleta Boulaouane", "latitude": "32.6134", "longitude": "-8.222"}, {"country_code": "MA", "postal_code": "24100", "place_name": "Azemmour", "latitude": "33.2895", "longitude": "-8.3425"}, {"country_code": "MA", "postal_code": "24122", "place_name": "Boucedra", "latitude": "33.2001", "longitude": "-8.1626"}, {"country_code": "MA", "postal_code": "24123", "place_name": "Haouzia", "latitude": "33.2206", "longitude": "-8.476"}, {"country_code": "MA", "postal_code": "24124", "place_name": "Mhaioula", "latitude": "33.2103", "longitude": "-8.3193"}, {"country_code": "MA", "postal_code": "24150", "place_name": "Lbir Jdid", "latitude": "33.2563", "longitude": "-8.2854"}, {"country_code": "MA", "postal_code": "24172", "place_name": "Arbaa Chtouka", "latitude": "33.3149", "longitude": "-8.1604"}, {"country_code": "MA", "postal_code": "24173", "place_name": "Oulja Des Chiadma", "latitude": "33.3149", "longitude": "-8.1604"}, {"country_code": "MA", "postal_code": "24175", "place_name": "Tnine Chtouka", "latitude": "33.3149", "longitude": "-8.1604"}, {"country_code": "MA", "postal_code": "24200", "place_name": "Khemis Des Zemamra", "latitude": "33.0409", "longitude": "-8.3891"}, {"country_code": "MA", "postal_code": "24222", "place_name": "Laaouissate", "latitude": "32.6371", "longitude": "-8.732"}, {"country_code": "MA", "postal_code": "24223", "place_name": "El Hagagcha", "latitude": "32.6371", "longitude": "-8.732"}, {"country_code": "MA", "postal_code": "24224", "place_name": "Lamnakra El Haddada", "latitude": "32.6371", "longitude": "-8.732"}, {"country_code": "MA", "postal_code": "24225", "place_name": "Oulad Ben Chaoui", "latitude": "33.0409", "longitude": "-8.3891"}, {"country_code": "MA", "postal_code": "24226", "place_name": "Saniat Benrkik", "latitude": "32.6371", "longitude": "-8.732"}, {"country_code": "MA", "postal_code": "24232", "place_name": "Zaouiat Ben Hamdoune", "latitude": "32.7164", "longitude": "-8.8011"}, {"country_code": "MA", "postal_code": "24252", "place_name": "Oualidia", "latitude": "33.0409", "longitude": "-8.3891"}, {"country_code": "MA", "postal_code": "24272", "place_name": "Oulad Rhanem", "latitude": "32.8718", "longitude": "-8.7395"}, {"country_code": "MA", "postal_code": "24302", "place_name": "Ouled Frej", "latitude": "32.9596", "longitude": "-8.2274"}, {"country_code": "MA", "postal_code": "24322", "place_name": "Khemis Mtouh", "latitude": "32.8791", "longitude": "-8.1767"}, {"country_code": "MA", "postal_code": "24323", "place_name": "Oulad Hamdane", "latitude": "32.8791", "longitude": "-8.1767"}, {"country_code": "MA", "postal_code": "24324", "place_name": "Oulad Sidi Ali Ben Youssef", "latitude": "32.8791", "longitude": "-8.1767"}, {"country_code": "MA", "postal_code": "24350", "place_name": "Sidi Bennour", "latitude": "33.0409", "longitude": "-8.3891"}, {"country_code": "MA", "postal_code": "24352", "place_name": "Sebt Beni Hlal", "latitude": "32.6524", "longitude": "-8.4277"}, {"country_code": "MA", "postal_code": "24372", "place_name": "Mtal", "latitude": "33.0409", "longitude": "-8.3891"}, {"country_code": "MA", "postal_code": "24373", "place_name": "El Mechrek", "latitude": "32.4755", "longitude": "-8.3684"}, {"country_code": "MA", "postal_code": "24402", "place_name": "Sidi Smail", "latitude": "32.8246", "longitude": "-8.5112"}, {"country_code": "MA", "postal_code": "24422", "place_name": "Sebt Saiss", "latitude": "32.7783", "longitude": "-8.643"}, {"country_code": "MA", "postal_code": "24452", "place_name": "Tnine Gharbia", "latitude": "33.0409", "longitude": "-8.3891"}, {"country_code": "MA", "postal_code": "29002", "place_name": "Casa Aeroport Mohamed V", "latitude": "33.5048", "longitude": "-7.5032"}, {"country_code": "MA", "postal_code": "29003", "place_name": "Casablanca Aeroport Mohamed V Terminal 2", "latitude": "33.5048", "longitude": "-7.5032"}, {"country_code": "MA", "postal_code": "29004", "place_name": "Casa Lahraouyine", "latitude": "33.5048", "longitude": "-7.5032"}, {"country_code": "MA", "postal_code": "29490", "place_name": "Mediouna", "latitude": "33.4516", "longitude": "-7.5199"}, {"country_code": "MA", "postal_code": "29640", "place_name": "Tit Mellil", "latitude": "33.5581", "longitude": "-7.4865"}, {"country_code": "MA", "postal_code": "29672", "place_name": "Oued Hassar", "latitude": "33.5581", "longitude": "-7.4865"}, {"country_code": "MA", "postal_code": "28630", "place_name": "Ain Harrouda", "latitude": "33.6374", "longitude": "-7.4497"}, {"country_code": "MA", "postal_code": "28814", "place_name": "Sidi Moussa Ben Ali", "latitude": "33.56", "longitude": "-7.37"}, {"country_code": "MA", "postal_code": "28815", "place_name": "Beni Yakhlef", "latitude": "33.6841", "longitude": "-7.3392"}, {"country_code": "MA", "postal_code": "27123", "place_name": "Souk Jemaa Sidi El Ayachi", "latitude": "33.4498", "longitude": "-7.6524"}, {"country_code": "MA", "postal_code": "27182", "place_name": "Bouskoura", "latitude": "33.4498", "longitude": "-7.6524"}, {"country_code": "MA", "postal_code": "27222", "place_name": "Ben Abid", "latitude": "33.5154", "longitude": "-7.8168"}, {"country_code": "MA", "postal_code": "27223", "place_name": "Dar Bouazza", "latitude": "33.5154", "longitude": "-7.8168"}, {"country_code": "MA", "postal_code": "26000", "place_name": "Settat", "latitude": "33.001", "longitude": "-7.6166"}, {"country_code": "MA", "postal_code": "26006", "place_name": "Settat Bir Baouch", "latitude": "33.001", "longitude": "-7.6166"}, {"country_code": "MA", "postal_code": "26022", "place_name": "Ain Nzarh", "latitude": "32.9783", "longitude": "-7.7464"}, {"country_code": "MA", "postal_code": "26023", "place_name": "Had Mzoura", "latitude": "32.8325", "longitude": "-7.8687"}, {"country_code": "MA", "postal_code": "26024", "place_name": "Sebt Oulad Friha", "latitude": "32.9783", "longitude": "-7.7464"}, {"country_code": "MA", "postal_code": "26026", "place_name": "Sidi El Aidi", "latitude": "33.124", "longitude": "-7.6241"}, {"country_code": "MA", "postal_code": "26050", "place_name": "Ben Ahmed", "latitude": "33.0663", "longitude": "-7.2416"}, {"country_code": "MA", "postal_code": "26072", "place_name": "Mgarto", "latitude": "33.1755", "longitude": "-7.1543"}, {"country_code": "MA", "postal_code": "26073", "place_name": "Oulad Mhamed", "latitude": "33.1167", "longitude": "-7.1678"}, {"country_code": "MA", "postal_code": "26074", "place_name": "Sidi Dahbi", "latitude": "33.0579", "longitude": "-7.1813"}, {"country_code": "MA", "postal_code": "26100", "place_name": "Berrechid", "latitude": "32.8156", "longitude": "-7.4109"}, {"country_code": "MA", "postal_code": "26122", "place_name": "Riah", "latitude": "32.8156", "longitude": "-7.4109"}, {"country_code": "MA", "postal_code": "26152", "place_name": "Bni Khloug", "latitude": "32.6432", "longitude": "-7.3815"}, {"country_code": "MA", "postal_code": "26172", "place_name": "Dar Chaffai", "latitude": "32.5477", "longitude": "-7.5005"}, {"country_code": "MA", "postal_code": "26173", "place_name": "Oulad N'Jima", "latitude": "32.5337", "longitude": "-7.4408"}, {"country_code": "MA", "postal_code": "26174", "place_name": "Sidi Ahmed El Khadir", "latitude": "32.5198", "longitude": "-7.3812"}, {"country_code": "MA", "postal_code": "26175", "place_name": "Sidi Rahhal Plage", "latitude": "32.5337", "longitude": "-7.4408"}, {"country_code": "MA", "postal_code": "26202", "place_name": "Deroua Oulad Ziane", "latitude": "32.601", "longitude": "-7.3133"}, {"country_code": "MA", "postal_code": "26232", "place_name": "Tleta Oulad Sghir", "latitude": "32.8607", "longitude": "-7.5558"}, {"country_code": "MA", "postal_code": "26250", "place_name": "El Borouj", "latitude": "32.5047", "longitude": "-7.1924"}, {"country_code": "MA", "postal_code": "26272", "place_name": "Arba Oulad Bou Ali", "latitude": "32.5194", "longitude": "-7.2525"}, {"country_code": "MA", "postal_code": "26273", "place_name": "Krakra", "latitude": "32.5194", "longitude": "-7.2525"}, {"country_code": "MA", "postal_code": "26274", "place_name": "Oulad Belkacem", "latitude": "32.5194", "longitude": "-7.2525"}, {"country_code": "MA", "postal_code": "26275", "place_name": "Oulad Driss", "latitude": "32.4423", "longitude": "-7.2115"}, {"country_code": "MA", "postal_code": "26276", "place_name": "Oulad Hammou", "latitude": "32.5965", "longitude": "-7.2935"}, {"country_code": "MA", "postal_code": "26300", "place_name": "El Gara", "latitude": "32.8156", "longitude": "-7.4109"}, {"country_code": "MA", "postal_code": "26352", "place_name": "Guisser", "latitude": "32.7665", "longitude": "-7.4982"}, {"country_code": "MA", "postal_code": "26372", "place_name": "Rima", "latitude": "32.787", "longitude": "-7.3549"}, {"country_code": "MA", "postal_code": "26402", "place_name": "Had Soualem", "latitude": "33.0404", "longitude": "-7.8979"}, {"country_code": "MA", "postal_code": "26422", "place_name": "Oulad Ziane", "latitude": "33.0404", "longitude": "-7.8979"}, {"country_code": "MA", "postal_code": "26450", "place_name": "Oulad Abbou", "latitude": "32.9925", "longitude": "-7.5595"}, {"country_code": "MA", "postal_code": "26472", "place_name": "Oued Bers", "latitude": "32.9819", "longitude": "-8.015"}, {"country_code": "MA", "postal_code": "26473", "place_name": "Rhnimiyne", "latitude": "33.0643", "longitude": "-8.0672"}, {"country_code": "MA", "postal_code": "26474", "place_name": "Sidi Said Maachou", "latitude": "32.8156", "longitude": "-7.4109"}, {"country_code": "MA", "postal_code": "26502", "place_name": "Oulad Said", "latitude": "32.9679", "longitude": "-7.8128"}, {"country_code": "MA", "postal_code": "26522", "place_name": "Khemis Gdana", "latitude": "32.9941", "longitude": "-7.5727"}, {"country_code": "MA", "postal_code": "26552", "place_name": "Ras El Ain", "latitude": "32.9941", "longitude": "-7.5727"}, {"country_code": "MA", "postal_code": "26572", "place_name": "Oued Naanaa", "latitude": "33.0204", "longitude": "-7.3326"}, {"country_code": "MA", "postal_code": "26573", "place_name": "Douar Ouled Naceur", "latitude": "33.0204", "longitude": "-7.3326"}, {"country_code": "MA", "postal_code": "26600", "place_name": "Sidi Hajjaj", "latitude": "32.9131", "longitude": "-7.2661"}, {"country_code": "MA", "postal_code": "26622", "place_name": "Mrizig", "latitude": "32.8465", "longitude": "-7.0983"}, {"country_code": "MA", "postal_code": "26623", "place_name": "Tleta Oulad Fares", "latitude": "32.7897", "longitude": "-7.2109"}, {"country_code": "MA", "postal_code": "26652", "place_name": "Sidi Rahhal Chaouia", "latitude": "32.8113", "longitude": "-7.4345"}, {"country_code": "MA", "postal_code": "26672", "place_name": "Imfout", "latitude": "32.7297", "longitude": "-7.931"}, {"country_code": "MA", "postal_code": "26673", "place_name": "Mechra Ben Abbou", "latitude": "32.7536", "longitude": "-7.7987"}, {"country_code": "MA", "postal_code": "26674", "place_name": "Tleta Ain Blal", "latitude": "32.7536", "longitude": "-7.7987"}, {"country_code": "MA", "postal_code": "26675", "place_name": "Tnine Toualet", "latitude": "32.7775", "longitude": "-7.6664"}, {"country_code": "MA", "postal_code": "26676", "place_name": "Zemamra Chaouia", "latitude": "32.7536", "longitude": "-7.7987"}, {"country_code": "MA", "postal_code": "26700", "place_name": "Tleta Loulad", "latitude": "32.9947", "longitude": "-7.1198"}, {"country_code": "MA", "postal_code": "26722", "place_name": "Nkhila", "latitude": "32.9947", "longitude": "-7.1198"}, {"country_code": "MA", "postal_code": "40273", "place_name": "Oukaimeden", "latitude": "31.206", "longitude": "-7.8609"}, {"country_code": "MA", "postal_code": "42050", "place_name": "Ait Ourir", "latitude": "31.4711", "longitude": "-7.5885"}, {"country_code": "MA", "postal_code": "42051", "place_name": "Had Abadallah Rhiate", "latitude": "31.4711", "longitude": "-7.5885"}, {"country_code": "MA", "postal_code": "42072", "place_name": "Abadou", "latitude": "31.4878", "longitude": "-7.4773"}, {"country_code": "MA", "postal_code": "42073", "place_name": "Ait Aadel", "latitude": "31.6101", "longitude": "-7.4682"}, {"country_code": "MA", "postal_code": "42074", "place_name": "Arbaa Tirhedouine", "latitude": "31.4752", "longitude": "-7.4322"}, {"country_code": "MA", "postal_code": "42075", "place_name": "Had Zerkten", "latitude": "31.4447", "longitude": "-7.3922"}, {"country_code": "MA", "postal_code": "42076", "place_name": "Taddart", "latitude": "31.3582", "longitude": "-7.391"}, {"country_code": "MA", "postal_code": "42082", "place_name": "Ait Faska", "latitude": "31.4666", "longitude": "-7.6118"}, {"country_code": "MA", "postal_code": "42083", "place_name": "Ait Sidi Daoud", "latitude": "31.6347", "longitude": "-7.6444"}, {"country_code": "MA", "postal_code": "42084", "place_name": "Tazzarte", "latitude": "31.6593", "longitude": "-7.4099"}, {"country_code": "MA", "postal_code": "42085", "place_name": "Tidili Mesfioua", "latitude": "31.4659", "longitude": "-7.612"}, {"country_code": "MA", "postal_code": "42086", "place_name": "Touama", "latitude": "31.535", "longitude": "-7.4929"}, {"country_code": "MA", "postal_code": "42102", "place_name": "Tizguine", "latitude": "31.2284", "longitude": "-8.3161"}, {"country_code": "MA", "postal_code": "42103", "place_name": "Amizmiz", "latitude": "31.2167", "longitude": "-8.2318"}, {"country_code": "MA", "postal_code": "42122", "place_name": "Azgour", "latitude": "31.1375", "longitude": "-8.3149"}, {"country_code": "MA", "postal_code": "42124", "place_name": "Anougal", "latitude": "31.1375", "longitude": "-8.3149"}, {"country_code": "MA", "postal_code": "42152", "place_name": "Asni", "latitude": "31.2465", "longitude": "-7.9789"}, {"country_code": "MA", "postal_code": "42172", "place_name": "Imgdal", "latitude": "31.2328", "longitude": "-8.0208"}, {"country_code": "MA", "postal_code": "42173", "place_name": "Ouirgane", "latitude": "31.1777", "longitude": "-8.0733"}, {"country_code": "MA", "postal_code": "42174", "place_name": "Moulay Brahim", "latitude": "31.2879", "longitude": "-7.9683"}, {"country_code": "MA", "postal_code": "42202", "place_name": "Lalla Takarkouste", "latitude": "31.4038", "longitude": "-8.0921"}, {"country_code": "MA", "postal_code": "42252", "place_name": "Rhmate", "latitude": "31.4209", "longitude": "-7.8028"}, {"country_code": "MA", "postal_code": "42272", "place_name": "Tamazouzte", "latitude": "31.2963", "longitude": "-7.8752"}, {"country_code": "MA", "postal_code": "42302", "place_name": "Tahanaoute", "latitude": "31.3524", "longitude": "-7.9501"}, {"country_code": "MA", "postal_code": "42312", "place_name": "Tameslouhte", "latitude": "31.3524", "longitude": "-7.9501"}, {"country_code": "MA", "postal_code": "42353", "place_name": "Tleta Nyacoub", "latitude": "31.3524", "longitude": "-7.9501"}, {"country_code": "MA", "postal_code": "42402", "place_name": "Igoudar", "latitude": "31.2902", "longitude": "-8.218"}, {"country_code": "MA", "postal_code": "42452", "place_name": "Tnine Ourika", "latitude": "31.3114", "longitude": "-7.7456"}, {"country_code": "MA", "postal_code": "42472", "place_name": "Aghbalou", "latitude": "31.363", "longitude": "-8.0161"}, {"country_code": "MA", "postal_code": "41000", "place_name": "Chichaoua", "latitude": "31.5435", "longitude": "-8.7627"}, {"country_code": "MA", "postal_code": "41022", "place_name": "Mzoudia", "latitude": "31.5797", "longitude": "-8.491"}, {"country_code": "MA", "postal_code": "41023", "place_name": "Saidate", "latitude": "31.344", "longitude": "-8.7052"}, {"country_code": "MA", "postal_code": "41024", "place_name": "Zaouia Nouaceur", "latitude": "31.4856", "longitude": "-8.7709"}, {"country_code": "MA", "postal_code": "41025", "place_name": "Ahdil", "latitude": "31.5613", "longitude": "-8.8939"}, {"country_code": "MA", "postal_code": "41050", "place_name": "Imintanoute", "latitude": "31.4316", "longitude": "-8.7915"}, {"country_code": "MA", "postal_code": "41072", "place_name": "Asserratou", "latitude": "31.2534", "longitude": "-8.9583"}, {"country_code": "MA", "postal_code": "41073", "place_name": "Bouaboute", "latitude": "31.2655", "longitude": "-9.1787"}, {"country_code": "MA", "postal_code": "41074", "place_name": "Lalla Aziza", "latitude": "31.2413", "longitude": "-8.738"}, {"country_code": "MA", "postal_code": "41075", "place_name": "Taouloukout", "latitude": "31.2534", "longitude": "-8.9583"}, {"country_code": "MA", "postal_code": "41076", "place_name": "Timezguadiouine", "latitude": "31.2534", "longitude": "-8.9583"}, {"country_code": "MA", "postal_code": "41082", "place_name": "Ouad Lbour", "latitude": "31.4316", "longitude": "-8.7915"}, {"country_code": "MA", "postal_code": "41083", "place_name": "Ichamraren", "latitude": "31.4316", "longitude": "-8.7915"}, {"country_code": "MA", "postal_code": "41084", "place_name": "Afalla Issen", "latitude": "31.4316", "longitude": "-8.7915"}, {"country_code": "MA", "postal_code": "41102", "place_name": "Ait Hadi", "latitude": "31.3982", "longitude": "-8.7741"}, {"country_code": "MA", "postal_code": "41152", "place_name": "Sidi Mokhtar", "latitude": "31.5774", "longitude": "-9.0158"}, {"country_code": "MA", "postal_code": "41202", "place_name": "Arbaa Douirane", "latitude": "31.3317", "longitude": "-8.4949"}, {"country_code": "MA", "postal_code": "41222", "place_name": "Boulaouane", "latitude": "31.3317", "longitude": "-8.4949"}, {"country_code": "MA", "postal_code": "41223", "place_name": "Guemassa", "latitude": "31.4077", "longitude": "-8.4021"}, {"country_code": "MA", "postal_code": "41224", "place_name": "Had Mjatt", "latitude": "31.35", "longitude": "-8.5"}, {"country_code": "MA", "postal_code": "41225", "place_name": "Sebt Mzouda", "latitude": "31.2375", "longitude": "-8.5826"}, {"country_code": "MA", "postal_code": "41226", "place_name": "Zaouiat Annahlia", "latitude": "31.3317", "longitude": "-8.4949"}, {"country_code": "MA", "postal_code": "42123", "place_name": "Assif El Mal", "latitude": "31.1375", "longitude": "-8.3149"}, {"country_code": "MA", "postal_code": "43000", "place_name": "El Kelaa Des Sraghna", "latitude": "32.1884", "longitude": "-7.2842"}, {"country_code": "MA", "postal_code": "43022", "place_name": "El Hydana", "latitude": "32.1572", "longitude": "-7.3198"}, {"country_code": "MA", "postal_code": "43023", "place_name": "Mayate", "latitude": "32.27", "longitude": "-7.5249"}, {"country_code": "MA", "postal_code": "43024", "place_name": "Oulad Yacoub", "latitude": "32.2769", "longitude": "-7.1994"}, {"country_code": "MA", "postal_code": "43025", "place_name": "Sebt Ounasdass", "latitude": "32.1572", "longitude": "-7.3198"}, {"country_code": "MA", "postal_code": "43026", "place_name": "Oulad Zarrad", "latitude": "31.9247", "longitude": "-7.2349"}, {"country_code": "MA", "postal_code": "43052", "place_name": "El Aamria", "latitude": "32.1884", "longitude": "-7.2842"}, {"country_code": "MA", "postal_code": "43072", "place_name": "Ain Igli", "latitude": "32.1959", "longitude": "-7.2279"}, {"country_code": "MA", "postal_code": "43073", "place_name": "Chtaiba", "latitude": "32.1952", "longitude": "-7.3021"}, {"country_code": "MA", "postal_code": "43074", "place_name": "Dechra", "latitude": "32.1966", "longitude": "-7.1536"}, {"country_code": "MA", "postal_code": "43075", "place_name": "Pont Tassaoute", "latitude": "32.1959", "longitude": "-7.2279"}, {"country_code": "MA", "postal_code": "43076", "place_name": "Oulad Aamer", "latitude": "32.1959", "longitude": "-7.2279"}, {"country_code": "MA", "postal_code": "43082", "place_name": "Sidi El Hattab", "latitude": "32.2672", "longitude": "-7.2902"}, {"country_code": "MA", "postal_code": "43083", "place_name": "Oulad Msabbel", "latitude": "32.2672", "longitude": "-7.2902"}, {"country_code": "MA", "postal_code": "43100", "place_name": "Laattaouia", "latitude": "32.145", "longitude": "-7.8393"}, {"country_code": "MA", "postal_code": "43122", "place_name": "Bouya Omar", "latitude": "31.9013", "longitude": "-7.2015"}, {"country_code": "MA", "postal_code": "43123", "place_name": "Dzouz", "latitude": "31.8701", "longitude": "-7.1437"}, {"country_code": "MA", "postal_code": "43124", "place_name": "Had Fraita", "latitude": "31.9326", "longitude": "-7.2593"}, {"country_code": "MA", "postal_code": "43125", "place_name": "Laatmna Srarhna", "latitude": "31.9013", "longitude": "-7.2015"}, {"country_code": "MA", "postal_code": "43150", "place_name": "Ben Guerir", "latitude": "32.0633", "longitude": "-7.3848"}, {"country_code": "MA", "postal_code": "43153", "place_name": "Benguerir Base Militaire", "latitude": "32.264", "longitude": "-8.135"}, {"country_code": "MA", "postal_code": "43154", "place_name": "Tnine Bouchane", "latitude": "32.0633", "longitude": "-7.3848"}, {"country_code": "MA", "postal_code": "43172", "place_name": "Jemaa El Ma Bared", "latitude": "32.2696", "longitude": "-8.1815"}, {"country_code": "MA", "postal_code": "43173", "place_name": "Sebt Brikyine", "latitude": "32.0633", "longitude": "-7.3848"}, {"country_code": "MA", "postal_code": "43174", "place_name": "Oulad Aamer Tizmarine", "latitude": "32.2696", "longitude": "-8.1815"}, {"country_code": "MA", "postal_code": "43175", "place_name": "Ait Hammou", "latitude": "32.0633", "longitude": "-7.3848"}, {"country_code": "MA", "postal_code": "43176", "place_name": "Oulad Hassoune Hamri", "latitude": "32.2696", "longitude": "-8.1815"}, {"country_code": "MA", "postal_code": "43202", "place_name": "Had Ras El Ain", "latitude": "32.0633", "longitude": "-7.3848"}, {"country_code": "MA", "postal_code": "43222", "place_name": "Akerma", "latitude": "31.7084", "longitude": "-7.6337"}, {"country_code": "MA", "postal_code": "43223", "place_name": "Jaidate", "latitude": "32.0633", "longitude": "-7.3848"}, {"country_code": "MA", "postal_code": "43252", "place_name": "Sahrij", "latitude": "31.8049", "longitude": "-7.1464"}, {"country_code": "MA", "postal_code": "43272", "place_name": "Louad Lakhdar", "latitude": "31.7537", "longitude": "-7.4684"}, {"country_code": "MA", "postal_code": "43273", "place_name": "Ouargui", "latitude": "31.7537", "longitude": "-7.4684"}, {"country_code": "MA", "postal_code": "43274", "place_name": "Sidi Aissa Ben Slimane", "latitude": "31.7537", "longitude": "-7.4684"}, {"country_code": "MA", "postal_code": "43275", "place_name": "Sidi Driss", "latitude": "31.7537", "longitude": "-7.4684"}, {"country_code": "MA", "postal_code": "43276", "place_name": "Tleta Mzem", "latitude": "31.7537", "longitude": "-7.4684"}, {"country_code": "MA", "postal_code": "43302", "place_name": "Nzalate Laadim", "latitude": "31.9023", "longitude": "-7.9417"}, {"country_code": "MA", "postal_code": "43303", "place_name": "Sidi Bou Othmane", "latitude": "32.0633", "longitude": "-7.3848"}, {"country_code": "MA", "postal_code": "43322", "place_name": "Sidi Boubker", "latitude": "31.826", "longitude": "-7.058"}, {"country_code": "MA", "postal_code": "43323", "place_name": "Tnine Mhara", "latitude": "31.826", "longitude": "-7.058"}, {"country_code": "MA", "postal_code": "43324", "place_name": "Lamharra", "latitude": "32.0633", "longitude": "-7.3848"}, {"country_code": "MA", "postal_code": "43350", "place_name": "Sidi Rahhal", "latitude": "31.6503", "longitude": "-7.4729"}, {"country_code": "MA", "postal_code": "43372", "place_name": "Zemrane", "latitude": "32.0633", "longitude": "-7.3848"}, {"country_code": "MA", "postal_code": "43402", "place_name": "Skhour Rehamna", "latitude": "32.0633", "longitude": "-7.3848"}, {"country_code": "MA", "postal_code": "43422", "place_name": "Had Jaafra", "latitude": "32.0633", "longitude": "-7.3848"}, {"country_code": "MA", "postal_code": "43423", "place_name": "Sidi Abdallah", "latitude": "32.0633", "longitude": "-7.3848"}, {"country_code": "MA", "postal_code": "43424", "place_name": "Sidi Ghanem", "latitude": "32.4554", "longitude": "-7.78"}, {"country_code": "MA", "postal_code": "43450", "place_name": "Tamallalt", "latitude": "31.819", "longitude": "-7.5145"}, {"country_code": "MA", "postal_code": "43472", "place_name": "Ejjouala", "latitude": "32.3031", "longitude": "-7.7474"}, {"country_code": "MA", "postal_code": "43473", "place_name": "Jbiel", "latitude": "32.3031", "longitude": "-7.7474"}, {"country_code": "MA", "postal_code": "43474", "place_name": "Zemrane Cherqia", "latitude": "32.3031", "longitude": "-7.7474"}, {"country_code": "MA", "postal_code": "44000", "place_name": "Essaouira", "latitude": "31.5125", "longitude": "-9.77"}, {"country_code": "MA", "postal_code": "44003", "place_name": "Had Draa", "latitude": "31.5785", "longitude": "-9.5376"}, {"country_code": "MA", "postal_code": "44004", "place_name": "Zaouia Ben Hmida", "latitude": "31.7548", "longitude": "-9.371"}, {"country_code": "MA", "postal_code": "44005", "place_name": "Arbaa Ida Ougourd", "latitude": "31.6153", "longitude": "-9.5596"}, {"country_code": "MA", "postal_code": "44053", "place_name": "Smimou", "latitude": "31.2101", "longitude": "-9.7086"}, {"country_code": "MA", "postal_code": "44060", "place_name": "Ait Daoud", "latitude": "31.3804", "longitude": "-9.5699"}, {"country_code": "MA", "postal_code": "44072", "place_name": "Ida Ouazza", "latitude": "31.2614", "longitude": "-9.6314"}, {"country_code": "MA", "postal_code": "44073", "place_name": "Sebt Meknafa", "latitude": "31.2614", "longitude": "-9.6314"}, {"country_code": "MA", "postal_code": "44074", "place_name": "Tafedna", "latitude": "31.2614", "longitude": "-9.6314"}, {"country_code": "MA", "postal_code": "44075", "place_name": "Tidzi", "latitude": "31.3065", "longitude": "-9.717"}, {"country_code": "MA", "postal_code": "44076", "place_name": "Tnine Imi Ntlit", "latitude": "31.2163", "longitude": "-9.5458"}, {"country_code": "MA", "postal_code": "44082", "place_name": "Sidi Ahmed Essayeh", "latitude": "31.2491", "longitude": "-9.7671"}, {"country_code": "MA", "postal_code": "44083", "place_name": "Assais", "latitude": "31.3675", "longitude": "-9.4505"}, {"country_code": "MA", "postal_code": "44102", "place_name": "Taftecht", "latitude": "31.5834", "longitude": "-9.2561"}, {"country_code": "MA", "postal_code": "44122", "place_name": "Had Mramer", "latitude": "31.64", "longitude": "-9.15"}, {"country_code": "MA", "postal_code": "44123", "place_name": "Lamzilate", "latitude": "31.5777", "longitude": "-9.4555"}, {"country_code": "MA", "postal_code": "44124", "place_name": "Mejji", "latitude": "31.5507", "longitude": "-9.3421"}, {"country_code": "MA", "postal_code": "44125", "place_name": "Sidi Kaouki", "latitude": "31.3557", "longitude": "-9.7965"}, {"country_code": "MA", "postal_code": "44126", "place_name": "Akermoud", "latitude": "31.7642", "longitude": "-9.5335"}, {"country_code": "MA", "postal_code": "44132", "place_name": "Khemis Takate", "latitude": "31.6507", "longitude": "-9.4691"}, {"country_code": "MA", "postal_code": "44133", "place_name": "Ounagha", "latitude": "31.532", "longitude": "-9.5494"}, {"country_code": "MA", "postal_code": "44134", "place_name": "Sidi Ishaq", "latitude": "31.5914", "longitude": "-9.5093"}, {"country_code": "MA", "postal_code": "44150", "place_name": "Talmest", "latitude": "31.8122", "longitude": "-9.3379"}, {"country_code": "MA", "postal_code": "44200", "place_name": "Tamanar", "latitude": "31.0009", "longitude": "-9.678"}, {"country_code": "MA", "postal_code": "44222", "place_name": "Arbaa Ida Ou Trouma", "latitude": "30.9844", "longitude": "-9.7911"}, {"country_code": "MA", "postal_code": "44223", "place_name": "Ida Ou Guelloul", "latitude": "30.9844", "longitude": "-9.7911"}, {"country_code": "MA", "postal_code": "44224", "place_name": "Sebt Imghade", "latitude": "30.9844", "longitude": "-9.7911"}, {"country_code": "MA", "postal_code": "44225", "place_name": "Timzguida Ouftas", "latitude": "30.9844", "longitude": "-9.7911"}, {"country_code": "MA", "postal_code": "44226", "place_name": "Ida Ou Kazzou", "latitude": "30.9844", "longitude": "-9.7911"}, {"country_code": "MA", "postal_code": "44250", "place_name": "Tlata Hanchane", "latitude": "31.5221", "longitude": "-9.4359"}, {"country_code": "MA", "postal_code": "44252", "place_name": "Bizdad", "latitude": "31.5221", "longitude": "-9.4359"}, {"country_code": "MA", "postal_code": "44272", "place_name": "Sebt Korimate", "latitude": "31.4605", "longitude": "-9.3164"}, {"country_code": "MA", "postal_code": "44273", "place_name": "Ain Zelten", "latitude": "31.3103", "longitude": "-9.4012"}, {"country_code": "MA", "postal_code": "44274", "place_name": "Khemis Meskala", "latitude": "31.3881", "longitude": "-9.4133"}, {"country_code": "MA", "postal_code": "44275", "place_name": "Tnine Ida Ou Zemzem", "latitude": "31.2836", "longitude": "-9.3335"}, {"country_code": "MA", "postal_code": "44276", "place_name": "Mouarid", "latitude": "31.3606", "longitude": "-9.3661"}, {"country_code": "MA", "postal_code": "40023", "place_name": "Chouiter", "latitude": "31.5753", "longitude": "-7.8106"}, {"country_code": "MA", "postal_code": "40026", "place_name": "Mrabtine", "latitude": "31.6472", "longitude": "-8.154"}, {"country_code": "MA", "postal_code": "40062", "place_name": "Oued Lahjar", "latitude": "31.9518", "longitude": "-8.2591"}, {"country_code": "MA", "postal_code": "40063", "place_name": "Oulad Belaaguid", "latitude": "31.9518", "longitude": "-8.2591"}, {"country_code": "MA", "postal_code": "40064", "place_name": "Oulad Dlim", "latitude": "31.9518", "longitude": "-8.2591"}, {"country_code": "MA", "postal_code": "40065", "place_name": "Tassoultante", "latitude": "31.9518", "longitude": "-8.2591"}, {"country_code": "MA", "postal_code": "40152", "place_name": "Kettara", "latitude": "31.6055", "longitude": "-8.1399"}, {"country_code": "MA", "postal_code": "40172", "place_name": "Nzalat El Harmel", "latitude": "31.6055", "longitude": "-8.1399"}, {"country_code": "MA", "postal_code": "40173", "place_name": "Had Mnabha", "latitude": "31.6055", "longitude": "-8.1399"}, {"country_code": "MA", "postal_code": "40202", "place_name": "Sidi Zouine", "latitude": "31.6691", "longitude": "-8.3454"}, {"country_code": "MA", "postal_code": "40253", "place_name": "Tnine Oudaya", "latitude": "31.6341", "longitude": "-8.251"}, {"country_code": "MA", "postal_code": "40272", "place_name": "Sebt Ait Imour", "latitude": "31.555", "longitude": "-8.2982"}, {"country_code": "MA", "postal_code": "40300", "place_name": "Tamensourt", "latitude": "31.6055", "longitude": "-8.1399"}, {"country_code": "MA", "postal_code": "46006", "place_name": "Had Harara", "latitude": "32.1237", "longitude": "-8.8964"}, {"country_code": "MA", "postal_code": "46022", "place_name": "Arbaa Khattazakarne", "latitude": "32.2883", "longitude": "-8.9459"}, {"country_code": "MA", "postal_code": "46023", "place_name": "Beddouza", "latitude": "32.2883", "longitude": "-8.9459"}, {"country_code": "MA", "postal_code": "46024", "place_name": "Sidi Tiji", "latitude": "32.1633", "longitude": "-8.8733"}, {"country_code": "MA", "postal_code": "46025", "place_name": "Souira Kedima", "latitude": "32.2883", "longitude": "-8.9459"}, {"country_code": "MA", "postal_code": "46026", "place_name": "Dar Si Aissa", "latitude": "32.4133", "longitude": "-9.0186"}, {"country_code": "MA", "postal_code": "46034", "place_name": "Souk Eyr", "latitude": "32.7056", "longitude": "-9.0605"}, {"country_code": "MA", "postal_code": "46035", "place_name": "Ouled Selmane", "latitude": "32.7056", "longitude": "-9.0605"}, {"country_code": "MA", "postal_code": "46052", "place_name": "Tleta Irhoud", "latitude": "32.2505", "longitude": "-9.0223"}, {"country_code": "MA", "postal_code": "46053", "place_name": "Chemmaia", "latitude": "31.8601", "longitude": "-8.8821"}, {"country_code": "MA", "postal_code": "46072", "place_name": "Atiamim", "latitude": "31.9389", "longitude": "-8.8466"}, {"country_code": "MA", "postal_code": "46073", "place_name": "Jdour", "latitude": "32.2505", "longitude": "-9.0223"}, {"country_code": "MA", "postal_code": "46074", "place_name": "Lakhoualqa", "latitude": "31.9479", "longitude": "-9.0673"}, {"country_code": "MA", "postal_code": "46075", "place_name": "Ras El Ain Ahmar", "latitude": "31.9389", "longitude": "-8.8466"}, {"country_code": "MA", "postal_code": "46076", "place_name": "Sidi Chiker", "latitude": "32.2505", "longitude": "-9.0223"}, {"country_code": "MA", "postal_code": "46082", "place_name": "Jnane Bouih", "latitude": "32.2505", "longitude": "-9.0223"}, {"country_code": "MA", "postal_code": "46100", "place_name": "Jamaat Shaim", "latitude": "32.3469", "longitude": "-8.8425"}, {"country_code": "MA", "postal_code": "46122", "place_name": "Labkhati", "latitude": "32.4352", "longitude": "-8.6495"}, {"country_code": "MA", "postal_code": "46123", "place_name": "Moul Bergui", "latitude": "32.5265", "longitude": "-9.0018"}, {"country_code": "MA", "postal_code": "46124", "place_name": "Tleta Sidi Aissa", "latitude": "32.4211", "longitude": "-8.7955"}, {"country_code": "MA", "postal_code": "46125", "place_name": "Lamsabih", "latitude": "32.3015", "longitude": "-8.7353"}, {"country_code": "MA", "postal_code": "46150", "place_name": "Sebt Gzoula", "latitude": "32.1078", "longitude": "-9.0837"}, {"country_code": "MA", "postal_code": "46172", "place_name": "Atouabet", "latitude": "32.0373", "longitude": "-9.0428"}, {"country_code": "MA", "postal_code": "46173", "place_name": "Khemis Nga", "latitude": "32.0373", "longitude": "-9.0428"}, {"country_code": "MA", "postal_code": "46174", "place_name": "Tnine Rhiate", "latitude": "32.0366", "longitude": "-9.164"}, {"country_code": "MA", "postal_code": "46175", "place_name": "Lamrasla", "latitude": "32.038", "longitude": "-8.9216"}, {"country_code": "MA", "postal_code": "46202", "place_name": "Sidi Ahmed", "latitude": "32.2551", "longitude": "-8.9807"}, {"country_code": "MA", "postal_code": "46252", "place_name": "Tleta Sidi Bouguedra", "latitude": "32.2551", "longitude": "-8.9807"}, {"country_code": "MA", "postal_code": "46300", "place_name": "Youssoufia", "latitude": "32.2505", "longitude": "-9.0223"}, {"country_code": "MA", "postal_code": "46322", "place_name": "Esbiaat", "latitude": "32.2505", "longitude": "-9.0223"}, {"country_code": "MA", "postal_code": "52000", "place_name": "Errachidia", "latitude": "31.9314", "longitude": "-4.4266"}, {"country_code": "MA", "postal_code": "52002", "place_name": "Asrir Oued Ferkla", "latitude": "31.9314", "longitude": "-4.4266"}, {"country_code": "MA", "postal_code": "52022", "place_name": "Ait Othman", "latitude": "31.8589", "longitude": "-4.2806"}, {"country_code": "MA", "postal_code": "52023", "place_name": "Chorfa Mdarhra", "latitude": "31.8589", "longitude": "-4.2806"}, {"country_code": "MA", "postal_code": "52024", "place_name": "Kheng", "latitude": "31.8589", "longitude": "-4.2806"}, {"country_code": "MA", "postal_code": "52025", "place_name": "Meski", "latitude": "31.8589", "longitude": "-4.2806"}, {"country_code": "MA", "postal_code": "52052", "place_name": "Zrigate", "latitude": "31.6884", "longitude": "-4.1783"}, {"country_code": "MA", "postal_code": "52053", "place_name": "Aoufous", "latitude": "31.6884", "longitude": "-4.1783"}, {"country_code": "MA", "postal_code": "52072", "place_name": "Douira", "latitude": "31.6021", "longitude": "-4.2093"}, {"country_code": "MA", "postal_code": "52073", "place_name": "Oulad Chaker", "latitude": "31.7694", "longitude": "-4.2147"}, {"country_code": "MA", "postal_code": "52102", "place_name": "Assoul", "latitude": "31.3447", "longitude": "-4.3393"}, {"country_code": "MA", "postal_code": "52122", "place_name": "Ait Hani", "latitude": "31.3447", "longitude": "-4.3393"}, {"country_code": "MA", "postal_code": "52150", "place_name": "Boudnib", "latitude": "31.8998", "longitude": "-4.6987"}, {"country_code": "MA", "postal_code": "52172", "place_name": "Ksar Sahli", "latitude": "31.9538", "longitude": "-3.4399"}, {"country_code": "MA", "postal_code": "52173", "place_name": "Tazougarte", "latitude": "31.9538", "longitude": "-3.4399"}, {"country_code": "MA", "postal_code": "52200", "place_name": "Arfoud", "latitude": "31.4353", "longitude": "-4.2326"}, {"country_code": "MA", "postal_code": "52202", "place_name": "Merzouga", "latitude": "31.33", "longitude": "-4.28"}, {"country_code": "MA", "postal_code": "52222", "place_name": "Mfiss", "latitude": "31.1617", "longitude": "-4.162"}, {"country_code": "MA", "postal_code": "52223", "place_name": "Sifa Arab Sebbah Ziz", "latitude": "31.1617", "longitude": "-4.162"}, {"country_code": "MA", "postal_code": "52224", "place_name": "Taouz", "latitude": "30.9073", "longitude": "-3.9959"}, {"country_code": "MA", "postal_code": "52225", "place_name": "Hannabou", "latitude": "31.4161", "longitude": "-4.3281"}, {"country_code": "MA", "postal_code": "52250", "place_name": "Goulmima", "latitude": "31.6923", "longitude": "-4.9526"}, {"country_code": "MA", "postal_code": "52252", "place_name": "Tilouine", "latitude": "31.6923", "longitude": "-4.9526"}, {"country_code": "MA", "postal_code": "52272", "place_name": "Amelago", "latitude": "31.3562", "longitude": "-4.3578"}, {"country_code": "MA", "postal_code": "52273", "place_name": "Tamhrach Rheriss", "latitude": "31.3562", "longitude": "-4.3578"}, {"country_code": "MA", "postal_code": "52302", "place_name": "Gourrama", "latitude": "31.3447", "longitude": "-4.3393"}, {"country_code": "MA", "postal_code": "52350", "place_name": "Jorf", "latitude": "31.4944", "longitude": "-4.406"}, {"country_code": "MA", "postal_code": "52372", "place_name": "Fazna", "latitude": "31.9173", "longitude": "-4.2397"}, {"country_code": "MA", "postal_code": "52400", "place_name": "Er-Rich", "latitude": "32.1531", "longitude": "-5.6245"}, {"country_code": "MA", "postal_code": "52402", "place_name": "Guers Tiallaline", "latitude": "32.1531", "longitude": "-5.6245"}, {"country_code": "MA", "postal_code": "52403", "place_name": "Imilchil", "latitude": "31.3447", "longitude": "-4.3393"}, {"country_code": "MA", "postal_code": "52422", "place_name": "Amouguer", "latitude": "31.3447", "longitude": "-4.3393"}, {"country_code": "MA", "postal_code": "52423", "place_name": "Mzizil Tillechte", "latitude": "31.3447", "longitude": "-4.3393"}, {"country_code": "MA", "postal_code": "52424", "place_name": "Nzala Ait Izdeg", "latitude": "32.3153", "longitude": "-4.7923"}, {"country_code": "MA", "postal_code": "52425", "place_name": "Zaouia Sidi Hamza", "latitude": "31.3447", "longitude": "-4.3393"}, {"country_code": "MA", "postal_code": "52426", "place_name": "Agdal Imilchil", "latitude": "32.3153", "longitude": "-4.7923"}, {"country_code": "MA", "postal_code": "52432", "place_name": "Outerbat", "latitude": "31.3447", "longitude": "-4.3393"}, {"country_code": "MA", "postal_code": "52433", "place_name": "Bou Azmou", "latitude": "32.1406", "longitude": "-5.3549"}, {"country_code": "MA", "postal_code": "52434", "place_name": "Sidi Aayad", "latitude": "32.1406", "longitude": "-5.3549"}, {"country_code": "MA", "postal_code": "52450", "place_name": "Rissani", "latitude": "31.2832", "longitude": "-4.2656"}, {"country_code": "MA", "postal_code": "52452", "place_name": "Alnif", "latitude": "31.3447", "longitude": "-4.3393"}, {"country_code": "MA", "postal_code": "52453", "place_name": "Seffalate", "latitude": "31.1986", "longitude": "-4.7186"}, {"country_code": "MA", "postal_code": "52472", "place_name": "Bni Mhammed", "latitude": "31.9695", "longitude": "-4.8953"}, {"country_code": "MA", "postal_code": "52473", "place_name": "Hssyia", "latitude": "31.9695", "longitude": "-4.8953"}, {"country_code": "MA", "postal_code": "52474", "place_name": "Mssici", "latitude": "31.9695", "longitude": "-4.8953"}, {"country_code": "MA", "postal_code": "52475", "place_name": "Sidi Ali Tafraout", "latitude": "31.9695", "longitude": "-4.8953"}, {"country_code": "MA", "postal_code": "52476", "place_name": "Jbiyel", "latitude": "31.9695", "longitude": "-4.8953"}, {"country_code": "MA", "postal_code": "52482", "place_name": "Achbarou", "latitude": "32.119", "longitude": "-4.3689"}, {"country_code": "MA", "postal_code": "52502", "place_name": "Tadirhoust", "latitude": "31.8156", "longitude": "-4.9592"}, {"country_code": "MA", "postal_code": "52522", "place_name": "Timezguite", "latitude": "31.8156", "longitude": "-4.9592"}, {"country_code": "MA", "postal_code": "52600", "place_name": "Tinejdad", "latitude": "31.5076", "longitude": "-5.0329"}, {"country_code": "MA", "postal_code": "52602", "place_name": "Mellab", "latitude": "31.5481", "longitude": "-4.8499"}, {"country_code": "MA", "postal_code": "52622", "place_name": "Arhbalou Nkerdouss", "latitude": "31.5618", "longitude": "-4.7131"}, {"country_code": "MA", "postal_code": "52623", "place_name": "Touroug", "latitude": "31.5618", "longitude": "-4.7131"}, {"country_code": "MA", "postal_code": "45000", "place_name": "Ouarzazate", "latitude": "30.9189", "longitude": "-6.8934"}, {"country_code": "MA", "postal_code": "45006", "place_name": "Ouarzazate Tarmigt", "latitude": "30.9189", "longitude": "-6.8934"}, {"country_code": "MA", "postal_code": "45022", "place_name": "Ghessate", "latitude": "30.9522", "longitude": "-7.1588"}, {"country_code": "MA", "postal_code": "45023", "place_name": "Tabourahte", "latitude": "30.9724", "longitude": "-7.1035"}, {"country_code": "MA", "postal_code": "45024", "place_name": "Tiouine", "latitude": "30.9321", "longitude": "-7.2141"}, {"country_code": "MA", "postal_code": "45025", "place_name": "Guernane", "latitude": "30.9522", "longitude": "-7.1588"}, {"country_code": "MA", "postal_code": "45102", "place_name": "Amerzgane", "latitude": "31.0437", "longitude": "-7.2104"}, {"country_code": "MA", "postal_code": "45122", "place_name": "Ait Ben Haddou", "latitude": "31.0469", "longitude": "-7.1291"}, {"country_code": "MA", "postal_code": "45123", "place_name": "Imini", "latitude": "31.1", "longitude": "-7.28"}, {"country_code": "MA", "postal_code": "45124", "place_name": "Tamdakhte", "latitude": "31.0735", "longitude": "-7.2046"}, {"country_code": "MA", "postal_code": "45150", "place_name": "Boumalne Dades", "latitude": "30.9138", "longitude": "-7.0693"}, {"country_code": "MA", "postal_code": "45172", "place_name": "Ait Sedrate Jbel", "latitude": "31.419", "longitude": "-6.0077"}, {"country_code": "MA", "postal_code": "45173", "place_name": "Ait Youl", "latitude": "30.9138", "longitude": "-7.0693"}, {"country_code": "MA", "postal_code": "45174", "place_name": "Ait Sedrate Jbel El Oulia", "latitude": "31.419", "longitude": "-6.0077"}, {"country_code": "MA", "postal_code": "45200", "place_name": "Kalaat M'Gouna", "latitude": "30.9138", "longitude": "-7.0693"}, {"country_code": "MA", "postal_code": "45222", "place_name": "Ait Ridi", "latitude": "30.9138", "longitude": "-7.0693"}, {"country_code": "MA", "postal_code": "45223", "place_name": "Ait Sedrate Sahl Charkia", "latitude": "31.1916", "longitude": "-6.1921"}, {"country_code": "MA", "postal_code": "45224", "place_name": "Taberkhachte", "latitude": "31.1916", "longitude": "-6.1921"}, {"country_code": "MA", "postal_code": "45252", "place_name": "Talouet", "latitude": "31.2316", "longitude": "-7.4257"}, {"country_code": "MA", "postal_code": "45253", "place_name": "Ighrem Nougdal", "latitude": "31.2316", "longitude": "-7.4257"}, {"country_code": "MA", "postal_code": "45272", "place_name": "Douar Sour", "latitude": "31.1105", "longitude": "-7.5981"}, {"country_code": "MA", "postal_code": "45273", "place_name": "Anmiter Ounilla", "latitude": "31.1105", "longitude": "-7.5981"}, {"country_code": "MA", "postal_code": "45302", "place_name": "Ikniouen", "latitude": "31.1666", "longitude": "-6.5562"}, {"country_code": "MA", "postal_code": "45352", "place_name": "Khemis Dades", "latitude": "31.1666", "longitude": "-6.5562"}, {"country_code": "MA", "postal_code": "45372", "place_name": "Zaouit El Bir", "latitude": "31.1666", "longitude": "-6.5562"}, {"country_code": "MA", "postal_code": "45452", "place_name": "Msemrir", "latitude": "30.9138", "longitude": "-7.0693"}, {"country_code": "MA", "postal_code": "45472", "place_name": "Oussikis Ait Azza", "latitude": "31.8179", "longitude": "-5.7681"}, {"country_code": "MA", "postal_code": "45473", "place_name": "Tilmi", "latitude": "30.9138", "longitude": "-7.0693"}, {"country_code": "MA", "postal_code": "45502", "place_name": "Skoura Ahl Al Oust", "latitude": "31.0626", "longitude": "-6.5525"}, {"country_code": "MA", "postal_code": "45522", "place_name": "Idelsane", "latitude": "31.1285", "longitude": "-6.3464"}, {"country_code": "MA", "postal_code": "45523", "place_name": "Imassine", "latitude": "31.1285", "longitude": "-6.3464"}, {"country_code": "MA", "postal_code": "45652", "place_name": "Tarhzoute Nait Atta", "latitude": "31.3522", "longitude": "-5.302"}, {"country_code": "MA", "postal_code": "45672", "place_name": "Ait El Farsi", "latitude": "30.9138", "longitude": "-7.0693"}, {"country_code": "MA", "postal_code": "45750", "place_name": "Taznakht", "latitude": "30.5784", "longitude": "-7.2034"}, {"country_code": "MA", "postal_code": "45772", "place_name": "Anzal", "latitude": "30.7562", "longitude": "-7.2989"}, {"country_code": "MA", "postal_code": "45773", "place_name": "Asdif", "latitude": "30.4092", "longitude": "-7.4344"}, {"country_code": "MA", "postal_code": "45774", "place_name": "Bouazzer", "latitude": "30.5827", "longitude": "-7.3666"}, {"country_code": "MA", "postal_code": "45775", "place_name": "Khouzama", "latitude": "30.5827", "longitude": "-7.3666"}, {"country_code": "MA", "postal_code": "45800", "place_name": "Tinghir", "latitude": "30.9138", "longitude": "-7.0693"}, {"country_code": "MA", "postal_code": "45822", "place_name": "Imider", "latitude": "30.9138", "longitude": "-7.0693"}, {"country_code": "MA", "postal_code": "45823", "place_name": "Ouaklim", "latitude": "30.9138", "longitude": "-7.0693"}, {"country_code": "MA", "postal_code": "45824", "place_name": "Toudgha El Oulia", "latitude": "31.4093", "longitude": "-5.6717"}, {"country_code": "MA", "postal_code": "45825", "place_name": "Toudgha El Soufla", "latitude": "31.4093", "longitude": "-5.6717"}, {"country_code": "MA", "postal_code": "45852", "place_name": "Toundoute", "latitude": "31.2649", "longitude": "-6.5906"}, {"country_code": "MA", "postal_code": "45872", "place_name": "Imi Noulaouen", "latitude": "31.3996", "longitude": "-5.8667"}, {"country_code": "MA", "postal_code": "47050", "place_name": "Agdz", "latitude": "30.6936", "longitude": "-6.4463"}, {"country_code": "MA", "postal_code": "47072", "place_name": "Ait Saoun", "latitude": "30.7339", "longitude": "-6.6314"}, {"country_code": "MA", "postal_code": "47073", "place_name": "Tamezmoute", "latitude": "30.7339", "longitude": "-6.6314"}, {"country_code": "MA", "postal_code": "47074", "place_name": "Tanssifte", "latitude": "30.7339", "longitude": "-6.6314"}, {"country_code": "MA", "postal_code": "47075", "place_name": "Zaouia Kadiria", "latitude": "30.7339", "longitude": "-6.6314"}, {"country_code": "MA", "postal_code": "47076", "place_name": "Afra", "latitude": "30.7339", "longitude": "-6.6314"}, {"country_code": "MA", "postal_code": "47402", "place_name": "Mhamid", "latitude": "29.82", "longitude": "-5.72"}, {"country_code": "MA", "postal_code": "47422", "place_name": "Oulad Driss El Ghouzlane", "latitude": "29.82", "longitude": "-5.72"}, {"country_code": "MA", "postal_code": "47552", "place_name": "Tagounite", "latitude": "29.97", "longitude": "-5.58"}, {"country_code": "MA", "postal_code": "47572", "place_name": "El Blida", "latitude": "29.98", "longitude": "-5.51"}, {"country_code": "MA", "postal_code": "47573", "place_name": "Nesrate", "latitude": "29.98", "longitude": "-5.51"}, {"country_code": "MA", "postal_code": "47574", "place_name": "Zaouit Sidi Salah", "latitude": "29.98", "longitude": "-5.51"}, {"country_code": "MA", "postal_code": "47602", "place_name": "Tamegroute", "latitude": "30.397", "longitude": "-5.9662"}, {"country_code": "MA", "postal_code": "47622", "place_name": "Fezouata", "latitude": "30.397", "longitude": "-5.9662"}, {"country_code": "MA", "postal_code": "47702", "place_name": "Nkob", "latitude": "30.8", "longitude": "-5.85"}, {"country_code": "MA", "postal_code": "47703", "place_name": "Tazzarine", "latitude": "30.7779", "longitude": "-5.56"}, {"country_code": "MA", "postal_code": "47722", "place_name": "Tarhbalte", "latitude": "30.7889", "longitude": "-5.705"}, {"country_code": "MA", "postal_code": "47723", "place_name": "Ait Ouallal", "latitude": "30.7889", "longitude": "-5.705"}, {"country_code": "MA", "postal_code": "47724", "place_name": "Taftechna", "latitude": "30.7889", "longitude": "-5.705"}, {"country_code": "MA", "postal_code": "47725", "place_name": "Douar Site", "latitude": "30.7889", "longitude": "-5.705"}, {"country_code": "MA", "postal_code": "47900", "place_name": "Zagora", "latitude": "30.3324", "longitude": "-5.8384"}, {"country_code": "MA", "postal_code": "47922", "place_name": "Bni Zoli", "latitude": "30.431", "longitude": "-6.2629"}, {"country_code": "MA", "postal_code": "47923", "place_name": "Ternata", "latitude": "30.431", "longitude": "-6.2629"}, {"country_code": "MA", "postal_code": "47924", "place_name": "Tinzouline", "latitude": "30.5082", "longitude": "-6.1016"}, {"country_code": "MA", "postal_code": "47925", "place_name": "Bouzeroual", "latitude": "30.431", "longitude": "-6.2629"}, {"country_code": "MA", "postal_code": "47926", "place_name": "Bleida", "latitude": "30.3537", "longitude": "-6.4241"}, {"country_code": "MA", "postal_code": "80022", "place_name": "Taghazoute", "latitude": "30.414", "longitude": "-9.4261"}, {"country_code": "MA", "postal_code": "80023", "place_name": "Tamraght", "latitude": "30.414", "longitude": "-9.4261"}, {"country_code": "MA", "postal_code": "80302", "place_name": "Amskroud", "latitude": "30.1605", "longitude": "-9.1071"}, {"country_code": "MA", "postal_code": "80303", "place_name": "Imouzzer Ida Ou Tanane", "latitude": "30.1605", "longitude": "-9.1071"}, {"country_code": "MA", "postal_code": "80322", "place_name": "Aksri", "latitude": "30.6133", "longitude": "-9.5101"}, {"country_code": "MA", "postal_code": "80323", "place_name": "Idmine", "latitude": "30.6445", "longitude": "-9.5373"}, {"country_code": "MA", "postal_code": "80324", "place_name": "Tiqqi", "latitude": "30.6445", "longitude": "-9.5373"}, {"country_code": "MA", "postal_code": "80325", "place_name": "Aziar", "latitude": "30.1605", "longitude": "-9.1071"}, {"country_code": "MA", "postal_code": "80326", "place_name": "Tadrart", "latitude": "30.1605", "longitude": "-9.1071"}, {"country_code": "MA", "postal_code": "80502", "place_name": "Tamri", "latitude": "30.696", "longitude": "-9.8297"}, {"country_code": "MA", "postal_code": "80522", "place_name": "Sebt Assaka", "latitude": "30.8143", "longitude": "-9.7702"}, {"country_code": "MA", "postal_code": "80750", "place_name": "Aourir", "latitude": "30.4924", "longitude": "-9.6355"}, {"country_code": "MA", "postal_code": "87052", "place_name": "Ait Amira", "latitude": "30.2622", "longitude": "-9.5038"}, {"country_code": "MA", "postal_code": "87100", "place_name": "Ait Baha", "latitude": "30.0791", "longitude": "-9.3863"}, {"country_code": "MA", "postal_code": "87112", "place_name": "Sidi Bouaz", "latitude": "30.0791", "longitude": "-9.3863"}, {"country_code": "MA", "postal_code": "87113", "place_name": "Timezguida Ouasrir", "latitude": "30.0791", "longitude": "-9.3863"}, {"country_code": "MA", "postal_code": "87122", "place_name": "Had Targa Ntouchka", "latitude": "30.0791", "longitude": "-9.3863"}, {"country_code": "MA", "postal_code": "87123", "place_name": "Hallate", "latitude": "30.0791", "longitude": "-9.3863"}, {"country_code": "MA", "postal_code": "87124", "place_name": "Imi El Had Tasguedelft", "latitude": "30.0791", "longitude": "-9.3863"}, {"country_code": "MA", "postal_code": "87125", "place_name": "Jemaa Takouchte", "latitude": "30.0791", "longitude": "-9.3863"}, {"country_code": "MA", "postal_code": "87126", "place_name": "Sidi Abdellah El Bouchouari", "latitude": "30.0791", "longitude": "-9.3863"}, {"country_code": "MA", "postal_code": "87132", "place_name": "Ait Ouadrim", "latitude": "30.0791", "longitude": "-9.3863"}, {"country_code": "MA", "postal_code": "87133", "place_name": "Khemis Ait Moussa", "latitude": "30.0791", "longitude": "-9.3863"}, {"country_code": "MA", "postal_code": "87200", "place_name": "Biougra", "latitude": "30.0355", "longitude": "-9.0684"}, {"country_code": "MA", "postal_code": "87222", "place_name": "Imi Mqourn", "latitude": "30.1367", "longitude": "-9.2986"}, {"country_code": "MA", "postal_code": "87223", "place_name": "Oued Essafa", "latitude": "30.1367", "longitude": "-9.2986"}, {"country_code": "MA", "postal_code": "87252", "place_name": "Had Ait Belfaa", "latitude": "30.1367", "longitude": "-9.2986"}, {"country_code": "MA", "postal_code": "87272", "place_name": "Inchaden", "latitude": "30.2378", "longitude": "-9.5288"}, {"country_code": "MA", "postal_code": "87273", "place_name": "Sebt Ait Milk", "latitude": "30.2378", "longitude": "-9.5288"}, {"country_code": "MA", "postal_code": "87274", "place_name": "Sidi Bibi", "latitude": "30.2378", "longitude": "-9.5288"}, {"country_code": "MA", "postal_code": "87402", "place_name": "Khmis Ida Ou Gnidif", "latitude": "30.0845", "longitude": "-9.6626"}, {"country_code": "MA", "postal_code": "87422", "place_name": "Aguerd Ntezke", "latitude": "30.0845", "longitude": "-9.6626"}, {"country_code": "MA", "postal_code": "87423", "place_name": "Imhilen", "latitude": "30.0845", "longitude": "-9.6626"}, {"country_code": "MA", "postal_code": "87452", "place_name": "Massa", "latitude": "30.0845", "longitude": "-9.6626"}, {"country_code": "MA", "postal_code": "87472", "place_name": "Sidi Rbat", "latitude": "30.0845", "longitude": "-9.6626"}, {"country_code": "MA", "postal_code": "87473", "place_name": "Massa Tassila", "latitude": "30.0845", "longitude": "-9.6626"}, {"country_code": "MA", "postal_code": "87552", "place_name": "Tanalt", "latitude": "29.7755", "longitude": "-9.168"}, {"country_code": "MA", "postal_code": "87572", "place_name": "Tlata Ou Guenz", "latitude": "29.7755", "longitude": "-9.168"}, {"country_code": "MA", "postal_code": "87702", "place_name": "Tnine Hilala", "latitude": "30.0791", "longitude": "-9.3863"}, {"country_code": "MA", "postal_code": "86150", "place_name": "Ait Melloul", "latitude": "30.3416", "longitude": "-9.5036"}, {"country_code": "MA", "postal_code": "86356", "place_name": "Lqliaa", "latitude": "30.3416", "longitude": "-9.5036"}, {"country_code": "MA", "postal_code": "86602", "place_name": "Temsia", "latitude": "30.3416", "longitude": "-9.5036"}, {"country_code": "MA", "postal_code": "86603", "place_name": "Agadir Aereport", "latitude": "30.3416", "longitude": "-9.5036"}, {"country_code": "MA", "postal_code": "86622", "place_name": "Souk El Had Oulad Dahou", "latitude": "30.3416", "longitude": "-9.5036"}, {"country_code": "MA", "postal_code": "83000", "place_name": "Taroudannt", "latitude": "30.4703", "longitude": "-8.877"}, {"country_code": "MA", "postal_code": "83022", "place_name": "Ahmar", "latitude": "30.4557", "longitude": "-8.4237"}, {"country_code": "MA", "postal_code": "83023", "place_name": "Had Imoulass", "latitude": "30.172", "longitude": "-9.4812"}, {"country_code": "MA", "postal_code": "83024", "place_name": "Mechraa El Ain", "latitude": "30.172", "longitude": "-9.4812"}, {"country_code": "MA", "postal_code": "83025", "place_name": "Sebt Tafraoute", "latitude": "30.172", "longitude": "-9.4812"}, {"country_code": "MA", "postal_code": "83026", "place_name": "Sidi Borja", "latitude": "30.172", "longitude": "-9.4812"}, {"country_code": "MA", "postal_code": "83032", "place_name": "Had Menizla", "latitude": "30.6114", "longitude": "-9.0781"}, {"country_code": "MA", "postal_code": "83034", "place_name": "Ida Ou Moumen", "latitude": "30.6114", "longitude": "-9.0781"}, {"country_code": "MA", "postal_code": "83035", "place_name": "Tazzemmourte", "latitude": "30.6114", "longitude": "-9.0781"}, {"country_code": "MA", "postal_code": "83036", "place_name": "Tlata Ait Taleb", "latitude": "30.6114", "longitude": "-9.0781"}, {"country_code": "MA", "postal_code": "83042", "place_name": "Zaouiat Sidi Tahar", "latitude": "30.5083", "longitude": "-8.7657"}, {"country_code": "MA", "postal_code": "83052", "place_name": "Aoulouz", "latitude": "30.6731", "longitude": "-8.1809"}, {"country_code": "MA", "postal_code": "83072", "place_name": "El Faid", "latitude": "30.6146", "longitude": "-8.2116"}, {"country_code": "MA", "postal_code": "83073", "place_name": "Iouzioua Ou Neine", "latitude": "30.6146", "longitude": "-8.2116"}, {"country_code": "MA", "postal_code": "83074", "place_name": "Tisrasse", "latitude": "30.6146", "longitude": "-8.2116"}, {"country_code": "MA", "postal_code": "83102", "place_name": "Argana", "latitude": "30.7825", "longitude": "-9.1197"}, {"country_code": "MA", "postal_code": "83122", "place_name": "Khemis Bigoudine", "latitude": "30.8306", "longitude": "-8.3052"}, {"country_code": "MA", "postal_code": "83123", "place_name": "Imilmaiss", "latitude": "30.8306", "longitude": "-8.3052"}, {"country_code": "MA", "postal_code": "83152", "place_name": "Askaoun", "latitude": "30.8712", "longitude": "-7.8931"}, {"country_code": "MA", "postal_code": "83172", "place_name": "Ahl Tifnoute", "latitude": "30.8383", "longitude": "-7.9029"}, {"country_code": "MA", "postal_code": "83173", "place_name": "Iguidi", "latitude": "30.8383", "longitude": "-7.9029"}, {"country_code": "MA", "postal_code": "83174", "place_name": "Taouyalte", "latitude": "30.8383", "longitude": "-7.9029"}, {"country_code": "MA", "postal_code": "83175", "place_name": "Toubkal", "latitude": "30.8383", "longitude": "-7.9029"}, {"country_code": "MA", "postal_code": "83200", "place_name": "Ait Iaaza", "latitude": "30.1549", "longitude": "-8.4838"}, {"country_code": "MA", "postal_code": "83222", "place_name": "Ait Igas", "latitude": "30.2797", "longitude": "-8.3448"}, {"country_code": "MA", "postal_code": "83223", "place_name": "Nouara", "latitude": "30.2797", "longitude": "-8.3448"}, {"country_code": "MA", "postal_code": "83224", "place_name": "Tioute", "latitude": "30.3887", "longitude": "-8.6957"}, {"country_code": "MA", "postal_code": "83225", "place_name": "Azrar", "latitude": "30.1708", "longitude": "-7.9938"}, {"country_code": "MA", "postal_code": "83250", "place_name": "Irherm", "latitude": "29.8135", "longitude": "-8.7682"}, {"country_code": "MA", "postal_code": "83252", "place_name": "Ait Abdallah", "latitude": "29.8135", "longitude": "-8.7682"}, {"country_code": "MA", "postal_code": "83253", "place_name": "Sebt Tataoute", "latitude": "29.8135", "longitude": "-8.7682"}, {"country_code": "MA", "postal_code": "83272", "place_name": "Had Imaouen", "latitude": "30.2468", "longitude": "-8.4775"}, {"country_code": "MA", "postal_code": "83273", "place_name": "Oulkadi", "latitude": "30.2468", "longitude": "-8.4775"}, {"country_code": "MA", "postal_code": "83274", "place_name": "Tantamt", "latitude": "30.2468", "longitude": "-8.4775"}, {"country_code": "MA", "postal_code": "83275", "place_name": "Tleta Nihit", "latitude": "30.2468", "longitude": "-8.4775"}, {"country_code": "MA", "postal_code": "83276", "place_name": "Tnine Addar", "latitude": "30.2468", "longitude": "-8.4775"}, {"country_code": "MA", "postal_code": "83282", "place_name": "Tnine Touflaazt", "latitude": "30.1549", "longitude": "-8.4838"}, {"country_code": "MA", "postal_code": "83283", "place_name": "Ouzoune", "latitude": "30.1549", "longitude": "-8.4838"}, {"country_code": "MA", "postal_code": "83284", "place_name": "Tindine", "latitude": "30.1549", "longitude": "-8.4838"}, {"country_code": "MA", "postal_code": "83300", "place_name": "Oulad Berhil", "latitude": "30.513", "longitude": "-8.9356"}, {"country_code": "MA", "postal_code": "83322", "place_name": "Dar Bahbaz", "latitude": "30.5565", "longitude": "-8.6147"}, {"country_code": "MA", "postal_code": "83323", "place_name": "Had Igli", "latitude": "30.5565", "longitude": "-8.6147"}, {"country_code": "MA", "postal_code": "83324", "place_name": "Khemis Arazane", "latitude": "30.5565", "longitude": "-8.6147"}, {"country_code": "MA", "postal_code": "83325", "place_name": "Khemis Talagjount", "latitude": "30.5565", "longitude": "-8.6147"}, {"country_code": "MA", "postal_code": "83326", "place_name": "Tnine Ida Ou Gailal", "latitude": "30.5565", "longitude": "-8.6147"}, {"country_code": "MA", "postal_code": "83332", "place_name": "Tnine Tigouga", "latitude": "30.513", "longitude": "-8.9356"}, {"country_code": "MA", "postal_code": "83333", "place_name": "Toughmart", "latitude": "30.513", "longitude": "-8.9356"}, {"country_code": "MA", "postal_code": "83334", "place_name": "Sidi Ouaaziz", "latitude": "30.513", "longitude": "-8.9356"}, {"country_code": "MA", "postal_code": "83350", "place_name": "Oulad Teima", "latitude": "30.3947", "longitude": "-9.209"}, {"country_code": "MA", "postal_code": "83372", "place_name": "El Koudia", "latitude": "30.48", "longitude": "-9.26"}, {"country_code": "MA", "postal_code": "83374", "place_name": "Issen", "latitude": "30.48", "longitude": "-9.26"}, {"country_code": "MA", "postal_code": "83375", "place_name": "Ksiba Ahl Rmel", "latitude": "30.48", "longitude": "-9.26"}, {"country_code": "MA", "postal_code": "83376", "place_name": "Sebt Kfifate", "latitude": "30.48", "longitude": "-9.26"}, {"country_code": "MA", "postal_code": "83382", "place_name": "Sidi Ahmed Ou Amar", "latitude": "30.6207", "longitude": "-8.6587"}, {"country_code": "MA", "postal_code": "83383", "place_name": "Sidi Boumoussa", "latitude": "30.6207", "longitude": "-8.6587"}, {"country_code": "MA", "postal_code": "83384", "place_name": "Sidi Moussa", "latitude": "30.6207", "longitude": "-8.6587"}, {"country_code": "MA", "postal_code": "83400", "place_name": "Sebt El Guerdane", "latitude": "30.5914", "longitude": "-8.7107"}, {"country_code": "MA", "postal_code": "83422", "place_name": "Arbaa Assads", "latitude": "30.4163", "longitude": "-9.037"}, {"country_code": "MA", "postal_code": "83423", "place_name": "Lakhnafif", "latitude": "30.4163", "longitude": "-9.037"}, {"country_code": "MA", "postal_code": "83424", "place_name": "Lamhadi", "latitude": "30.4163", "longitude": "-9.037"}, {"country_code": "MA", "postal_code": "83425", "place_name": "Tidsi Nissendalene", "latitude": "30.4163", "longitude": "-9.037"}, {"country_code": "MA", "postal_code": "83452", "place_name": "Tafingoult", "latitude": "30.7664", "longitude": "-8.3843"}, {"country_code": "MA", "postal_code": "83472", "place_name": "Ouneine", "latitude": "30.5914", "longitude": "-8.7107"}, {"country_code": "MA", "postal_code": "83500", "place_name": "Taliouine", "latitude": "30.5292", "longitude": "-7.9126"}, {"country_code": "MA", "postal_code": "83522", "place_name": "Arbaa Assais", "latitude": "30.377", "longitude": "-7.8543"}, {"country_code": "MA", "postal_code": "83523", "place_name": "Assaki", "latitude": "30.377", "longitude": "-7.8543"}, {"country_code": "MA", "postal_code": "83524", "place_name": "Irhil Nourhou", "latitude": "30.377", "longitude": "-7.8543"}, {"country_code": "MA", "postal_code": "83525", "place_name": "Sidi Hsaine", "latitude": "30.377", "longitude": "-7.8543"}, {"country_code": "MA", "postal_code": "83526", "place_name": "Tassousfi", "latitude": "30.377", "longitude": "-7.8543"}, {"country_code": "MA", "postal_code": "83532", "place_name": "Agadir Melloul", "latitude": "30.2249", "longitude": "-7.796"}, {"country_code": "MA", "postal_code": "83533", "place_name": "Tizgzaouine", "latitude": "30.2249", "longitude": "-7.796"}, {"country_code": "MA", "postal_code": "84000", "place_name": "Tata", "latitude": "29.7441", "longitude": "-7.973"}, {"country_code": "MA", "postal_code": "84022", "place_name": "Akka Ighane", "latitude": "29.65", "longitude": "-7.95"}, {"country_code": "MA", "postal_code": "84023", "place_name": "Khemis Addis", "latitude": "29.65", "longitude": "-7.95"}, {"country_code": "MA", "postal_code": "84024", "place_name": "Oum El Guerdane", "latitude": "29.65", "longitude": "-7.95"}, {"country_code": "MA", "postal_code": "84025", "place_name": "Tlata Tagmoute", "latitude": "29.65", "longitude": "-7.95"}, {"country_code": "MA", "postal_code": "84026", "place_name": "Ibn Yacoub", "latitude": "29.65", "longitude": "-7.95"}, {"country_code": "MA", "postal_code": "84050", "place_name": "Akka", "latitude": "29.3891", "longitude": "-8.2549"}, {"country_code": "MA", "postal_code": "84052", "place_name": "Khemis Issafen", "latitude": "29.6437", "longitude": "-7.7855"}, {"country_code": "MA", "postal_code": "84053", "place_name": "Tissint", "latitude": "29.8983", "longitude": "-7.3162"}, {"country_code": "MA", "postal_code": "84072", "place_name": "Ait Ouabelli", "latitude": "30.21", "longitude": "-7.56"}, {"country_code": "MA", "postal_code": "84073", "place_name": "Kasbat Sidi Abdellah Ben Mbarek", "latitude": "30.21", "longitude": "-7.56"}, {"country_code": "MA", "postal_code": "84074", "place_name": "Tizouinine", "latitude": "30.21", "longitude": "-7.56"}, {"country_code": "MA", "postal_code": "84075", "place_name": "Tizaghte", "latitude": "30.21", "longitude": "-7.56"}, {"country_code": "MA", "postal_code": "84076", "place_name": "Aguinane", "latitude": "30.21", "longitude": "-7.56"}, {"country_code": "MA", "postal_code": "84100", "place_name": "Fam El Hisn", "latitude": "30.1966", "longitude": "-6.8868"}, {"country_code": "MA", "postal_code": "84122", "place_name": "Aguerd Tamanart", "latitude": "30.1966", "longitude": "-6.8868"}, {"country_code": "MA", "postal_code": "84150", "place_name": "Foum Zguid", "latitude": "30.0879", "longitude": "-6.8712"}, {"country_code": "MA", "postal_code": "84172", "place_name": "Allougoum", "latitude": "30.251", "longitude": "-6.8946"}, {"country_code": "MA", "postal_code": "84173", "place_name": "Lakhriouia", "latitude": "30.2589", "longitude": "-6.7388"}, {"country_code": "MA", "postal_code": "84174", "place_name": "Tlite", "latitude": "30.2431", "longitude": "-7.0505"}, {"country_code": "MA", "postal_code": "85000", "place_name": "Tiznit", "latitude": "29.6974", "longitude": "-9.7316"}, {"country_code": "MA", "postal_code": "85002", "place_name": "Arbaa Sahel", "latitude": "29.6049", "longitude": "-9.9173"}, {"country_code": "MA", "postal_code": "85003", "place_name": "Sebt Ouijjane", "latitude": "29.6278", "longitude": "-9.5396"}, {"country_code": "MA", "postal_code": "85004", "place_name": "Tnine Aglou", "latitude": "29.7649", "longitude": "-9.8074"}, {"country_code": "MA", "postal_code": "85022", "place_name": "El Maader El Kebir", "latitude": "29.7567", "longitude": "-9.6554"}, {"country_code": "MA", "postal_code": "85023", "place_name": "Had Raggada", "latitude": "29.6592", "longitude": "-9.74"}, {"country_code": "MA", "postal_code": "85024", "place_name": "Ighir Melloulen", "latitude": "29.6592", "longitude": "-9.74"}, {"country_code": "MA", "postal_code": "85025", "place_name": "Oulad Jerrar", "latitude": "29.5735", "longitude": "-9.7514"}, {"country_code": "MA", "postal_code": "85026", "place_name": "Laouina", "latitude": "29.6474", "longitude": "-9.8131"}, {"country_code": "MA", "postal_code": "85032", "place_name": "Aglou Plage", "latitude": "29.6876", "longitude": "-9.5072"}, {"country_code": "MA", "postal_code": "85033", "place_name": "Toubouzar", "latitude": "29.6876", "longitude": "-9.5072"}, {"country_code": "MA", "postal_code": "85034", "place_name": "El Kreima", "latitude": "29.6876", "longitude": "-9.5072"}, {"country_code": "MA", "postal_code": "85035", "place_name": "Assaka", "latitude": "29.6876", "longitude": "-9.5072"}, {"country_code": "MA", "postal_code": "85042", "place_name": "Ighrem Oulad Jerrar", "latitude": "29.67", "longitude": "-9.7154"}, {"country_code": "MA", "postal_code": "85043", "place_name": "Ouled Noummeur", "latitude": "29.67", "longitude": "-9.7154"}, {"country_code": "MA", "postal_code": "85044", "place_name": "Bouzerz", "latitude": "29.67", "longitude": "-9.7154"}, {"country_code": "MA", "postal_code": "85052", "place_name": "Ait Erkha", "latitude": "29.67", "longitude": "-9.7154"}, {"country_code": "MA", "postal_code": "85072", "place_name": "Sidi Abdellah Ou Belaid", "latitude": "29.67", "longitude": "-9.7154"}, {"country_code": "MA", "postal_code": "85102", "place_name": "Tirhmi", "latitude": "29.5829", "longitude": "-9.4244"}, {"country_code": "MA", "postal_code": "85103", "place_name": "Anezi", "latitude": "29.63", "longitude": "-9.38"}, {"country_code": "MA", "postal_code": "85122", "place_name": "Aday Almezouarte", "latitude": "29.5727", "longitude": "-9.4198"}, {"country_code": "MA", "postal_code": "85123", "place_name": "Arba Ait Ahmed", "latitude": "29.5727", "longitude": "-9.4198"}, {"country_code": "MA", "postal_code": "85124", "place_name": "Tafraout El Mouloud", "latitude": "29.5727", "longitude": "-9.4198"}, {"country_code": "MA", "postal_code": "85125", "place_name": "Tifermite", "latitude": "29.5727", "longitude": "-9.4198"}, {"country_code": "MA", "postal_code": "85126", "place_name": "Tlata Ida Gougmar", "latitude": "29.5727", "longitude": "-9.4198"}, {"country_code": "MA", "postal_code": "85132", "place_name": "Zaouia Sidi Ahmed Ou Moussa", "latitude": "29.5053", "longitude": "-9.4551"}, {"country_code": "MA", "postal_code": "85133", "place_name": "Ait Issafen", "latitude": "29.5053", "longitude": "-9.4551"}, {"country_code": "MA", "postal_code": "85134", "place_name": "Jemaa Ida Oussemlal", "latitude": "29.5053", "longitude": "-9.4551"}, {"country_code": "MA", "postal_code": "85152", "place_name": "Arbaa Ras Mouka", "latitude": "29.5727", "longitude": "-9.4198"}, {"country_code": "MA", "postal_code": "85172", "place_name": "Ait Brahim Ou Youssef", "latitude": "29.5727", "longitude": "-9.4198"}, {"country_code": "MA", "postal_code": "85200", "place_name": "Sidi Ifni", "latitude": "29.6268", "longitude": "-9.3424"}, {"country_code": "MA", "postal_code": "85203", "place_name": "Sbouya", "latitude": "29.81", "longitude": "-9.55"}, {"country_code": "MA", "postal_code": "85252", "place_name": "Jemaa Ntighirt", "latitude": "29.5949", "longitude": "-9.8615"}, {"country_code": "MA", "postal_code": "85272", "place_name": "Anfeg", "latitude": "29.5949", "longitude": "-9.8615"}, {"country_code": "MA", "postal_code": "85273", "place_name": "Sebt Ennabour", "latitude": "29.5949", "longitude": "-9.8615"}, {"country_code": "MA", "postal_code": "85274", "place_name": "Ibdar", "latitude": "29.5949", "longitude": "-9.8615"}, {"country_code": "MA", "postal_code": "85275", "place_name": "Boutrouch", "latitude": "29.5949", "longitude": "-9.8615"}, {"country_code": "MA", "postal_code": "85302", "place_name": "Mesti", "latitude": "29.6128", "longitude": "-9.5283"}, {"country_code": "MA", "postal_code": "85352", "place_name": "Mirleft", "latitude": "29.6128", "longitude": "-9.5283"}, {"country_code": "MA", "postal_code": "85402", "place_name": "Sebt Bounaamane", "latitude": "29.5313", "longitude": "-9.8135"}, {"country_code": "MA", "postal_code": "85422", "place_name": "Sidi Bouabdelli", "latitude": "29.5413", "longitude": "-9.2269"}, {"country_code": "MA", "postal_code": "85423", "place_name": "Tafraoute Nait Daoud", "latitude": "29.5413", "longitude": "-9.2269"}, {"country_code": "MA", "postal_code": "85450", "place_name": "Tafraout", "latitude": "29.5209", "longitude": "-9.0992"}, {"country_code": "MA", "postal_code": "85452", "place_name": "Had Tahala", "latitude": "29.6404", "longitude": "-9.093"}, {"country_code": "MA", "postal_code": "85472", "place_name": "Anameur", "latitude": "29.5433", "longitude": "-9.1231"}, {"country_code": "MA", "postal_code": "85473", "place_name": "Had Affela Irhir", "latitude": "29.507", "longitude": "-9.0643"}, {"country_code": "MA", "postal_code": "85474", "place_name": "Izerbi", "latitude": "29.4707", "longitude": "-9.0055"}, {"country_code": "MA", "postal_code": "85475", "place_name": "Ou Mesnate", "latitude": "29.507", "longitude": "-9.0643"}, {"country_code": "MA", "postal_code": "85476", "place_name": "Tanfit Ait Oumzil", "latitude": "29.507", "longitude": "-9.0643"}, {"country_code": "MA", "postal_code": "85482", "place_name": "Tleta Tidli", "latitude": "29.5413", "longitude": "-9.2269"}, {"country_code": "MA", "postal_code": "85483", "place_name": "Tizoughane", "latitude": "29.5413", "longitude": "-9.2269"}, {"country_code": "MA", "postal_code": "85484", "place_name": "Khemis Ait Oufka", "latitude": "29.5413", "longitude": "-9.2269"}, {"country_code": "MA", "postal_code": "85485", "place_name": "Tnine Tarsouat", "latitude": "29.5413", "longitude": "-9.2269"}, {"country_code": "MA", "postal_code": "85486", "place_name": "Tleta Tassrirt", "latitude": "29.5413", "longitude": "-9.2269"}, {"country_code": "MA", "postal_code": "85502", "place_name": "Tiourhza", "latitude": "29.6677", "longitude": "-9.1983"}, {"country_code": "MA", "postal_code": "85522", "place_name": "Arbaa Ait Abdellah", "latitude": "29.6677", "longitude": "-9.1983"}, {"country_code": "MA", "postal_code": "85550", "place_name": "Tleta El Akhsass", "latitude": "29.6677", "longitude": "-9.1983"}, {"country_code": "MA", "postal_code": "85572", "place_name": "Sidi Hsaine Ou Ali", "latitude": "29.6677", "longitude": "-9.1983"}, {"country_code": "MA", "postal_code": "85602", "place_name": "Tnine Amellou", "latitude": "29.6128", "longitude": "-9.5283"}, {"country_code": "MA", "postal_code": "85622", "place_name": "Tangarfa", "latitude": "29.6128", "longitude": "-9.5283"}, {"country_code": "MA", "postal_code": "81006", "place_name": "Zag", "latitude": "28.0221", "longitude": "-9.294"}, {"country_code": "MA", "postal_code": "81010", "place_name": "Assa", "latitude": "28.6099", "longitude": "-9.4299"}, {"country_code": "MA", "postal_code": "81022", "place_name": "Aouinate Ait Oussa", "latitude": "28.6525", "longitude": "-9.6535"}, {"country_code": "MA", "postal_code": "81023", "place_name": "Aouinate Tourkoz", "latitude": "28.6525", "longitude": "-9.6535"}, {"country_code": "MA", "postal_code": "81035", "place_name": "Labouirat", "latitude": "28.6525", "longitude": "-9.6535"}, {"country_code": "MA", "postal_code": "81036", "place_name": "Al Mahbass", "latitude": "28.6525", "longitude": "-9.6535"}, {"country_code": "MA", "postal_code": "81000", "place_name": "Guelmim", "latitude": "28.987", "longitude": "-10.0574"}, {"country_code": "MA", "postal_code": "81003", "place_name": "Fask", "latitude": "28.9912", "longitude": "-9.8327"}, {"country_code": "MA", "postal_code": "81005", "place_name": "Ksabi Ait Lahcen", "latitude": "28.6668", "longitude": "-9.728"}, {"country_code": "MA", "postal_code": "81024", "place_name": "Abainou", "latitude": "28.6525", "longitude": "-9.6535"}, {"country_code": "MA", "postal_code": "81025", "place_name": "Afereket Ait Yassine", "latitude": "28.6525", "longitude": "-9.6535"}, {"country_code": "MA", "postal_code": "81026", "place_name": "Asrir Azouafit", "latitude": "28.6525", "longitude": "-9.6535"}, {"country_code": "MA", "postal_code": "81032", "place_name": "Targa Wassay", "latitude": "28.6525", "longitude": "-9.6535"}, {"country_code": "MA", "postal_code": "81033", "place_name": "Imi Nfast", "latitude": "28.6525", "longitude": "-9.6535"}, {"country_code": "MA", "postal_code": "81034", "place_name": "Rass Oumlil", "latitude": "28.6525", "longitude": "-9.6535"}, {"country_code": "MA", "postal_code": "81042", "place_name": "Labiar", "latitude": "28.6525", "longitude": "-9.6535"}, {"country_code": "MA", "postal_code": "81043", "place_name": "Tilouine Assaka", "latitude": "28.6525", "longitude": "-9.6535"}, {"country_code": "MA", "postal_code": "81044", "place_name": "Tighmert Azouafit", "latitude": "28.6525", "longitude": "-9.6535"}, {"country_code": "MA", "postal_code": "81050", "place_name": "Bouizakarne", "latitude": "28.6525", "longitude": "-9.6535"}, {"country_code": "MA", "postal_code": "81052", "place_name": "Tagante", "latitude": "28.6525", "longitude": "-9.6535"}, {"country_code": "MA", "postal_code": "81053", "place_name": "Timoulay", "latitude": "28.6525", "longitude": "-9.6535"}, {"country_code": "MA", "postal_code": "81072", "place_name": "Ait Boufoulne", "latitude": "28.6525", "longitude": "-9.6535"}, {"country_code": "MA", "postal_code": "81102", "place_name": "Ifrane Atlas Seghir", "latitude": "29.1014", "longitude": "-9.3642"}, {"country_code": "MA", "postal_code": "81122", "place_name": "Amsra", "latitude": "29.1014", "longitude": "-9.3642"}, {"country_code": "MA", "postal_code": "81123", "place_name": "Tankert", "latitude": "29.1014", "longitude": "-9.3642"}, {"country_code": "MA", "postal_code": "81152", "place_name": "Tarhjijt", "latitude": "29.0583", "longitude": "-9.4288"}, {"country_code": "MA", "postal_code": "81172", "place_name": "Tnine Adai", "latitude": "29.1445", "longitude": "-9.2997"}, {"country_code": "MA", "postal_code": "82000", "place_name": "Tan Tan", "latitude": "28.0151", "longitude": "-10.814"}, {"country_code": "MA", "postal_code": "82010", "place_name": "El Ouatia", "latitude": "28.0151", "longitude": "-10.814"}, {"country_code": "MA", "postal_code": "82022", "place_name": "Abteh", "latitude": "28.0151", "longitude": "-10.814"}, {"country_code": "MA", "postal_code": "82023", "place_name": "M'Sied", "latitude": "28.0151", "longitude": "-10.814"}, {"country_code": "MA", "postal_code": "71000", "place_name": "Boujdour", "latitude": "26.1307", "longitude": "-14.4851"}, {"country_code": "MA", "postal_code": "72000", "place_name": "Es-Semara", "latitude": "26.7384", "longitude": "-11.6719"}, {"country_code": "MA", "postal_code": "70022", "place_name": "Foum El Oued", "latitude": "28.0169", "longitude": "-12.4888"}, {"country_code": "MA", "postal_code": "70023", "place_name": "Dcheira Tafoudart", "latitude": "28.0169", "longitude": "-12.4888"}, {"country_code": "MA", "postal_code": "70050", "place_name": "Tarfaya", "latitude": "27.9392", "longitude": "-12.926"}, {"country_code": "MA", "postal_code": "70072", "place_name": "Daoura", "latitude": "28.0946", "longitude": "-12.0516"}, {"country_code": "MA", "postal_code": "70073", "place_name": "Akhfennir", "latitude": "28.0946", "longitude": "-12.0516"}, {"country_code": "MA", "postal_code": "74002", "place_name": "Aousserd", "latitude": "22.554", "longitude": "-14.33"}, {"country_code": "MA", "postal_code": "73000", "place_name": "Dakhla", "latitude": "23.6848", "longitude": "-15.958"}]