[{"country_code": "LI", "postal_code": "9490", "place_name": "Vaduz", "latitude": "47.1431", "longitude": "9.5256"}, {"country_code": "LI", "postal_code": "9495", "place_name": "Triesen", "latitude": "47.0805", "longitude": "9.5515"}, {"country_code": "LI", "postal_code": "9496", "place_name": "Balzers", "latitude": "47.067", "longitude": "9.5078"}, {"country_code": "LI", "postal_code": "9497", "place_name": "Triesenberg", "latitude": "47.115", "longitude": "9.5831"}, {"country_code": "LI", "postal_code": "9494", "place_name": "Schaan", "latitude": "47.1746", "longitude": "9.5247"}, {"country_code": "LI", "postal_code": "9498", "place_name": "Planken", "latitude": "47.1821", "longitude": "9.5574"}, {"country_code": "LI", "postal_code": "9485", "place_name": "Nendeln", "latitude": "47.1984", "longitude": "9.5501"}, {"country_code": "LI", "postal_code": "9492", "place_name": "Eschen", "latitude": "47.209", "longitude": "9.5223"}, {"country_code": "LI", "postal_code": "9486", "place_name": "Schaanwald", "latitude": "47.2151", "longitude": "9.562"}, {"country_code": "LI", "postal_code": "9493", "place_name": "Mauren FL", "latitude": "47.2191", "longitude": "9.5464"}, {"country_code": "LI", "postal_code": "9487", "place_name": "Gamprin-Bendern", "latitude": "47.2249", "longitude": "9.5135"}, {"country_code": "LI", "postal_code": "9491", "place_name": "Ruggell", "latitude": "47.2484", "longitude": "9.5345"}, {"country_code": "LI", "postal_code": "9488", "place_name": "Schellenberg", "latitude": "47.2318", "longitude": "9.5478"}]