[{"country_code": "SI", "postal_code": "1000", "place_name": "Ljubljana - dostava", "latitude": "46.0511", "longitude": "14.5051"}, {"country_code": "SI", "postal_code": "1001", "place_name": "Ljubljana - po\u0161tni predali", "latitude": "46.0511", "longitude": "14.5051"}, {"country_code": "SI", "postal_code": "1210", "place_name": "Ljubljana \u0160entvid", "latitude": "46.0964", "longitude": "14.4697"}, {"country_code": "SI", "postal_code": "1211", "place_name": "Ljubljana-\u0160martno", "latitude": "46.168", "longitude": "14.5217"}, {"country_code": "SI", "postal_code": "1215", "place_name": "Medvode", "latitude": "46.1333", "longitude": "14.4333"}, {"country_code": "SI", "postal_code": "1216", "place_name": "Smlednik", "latitude": "46.1642", "longitude": "14.4325"}, {"country_code": "SI", "postal_code": "1217", "place_name": "Vodice", "latitude": "46.1899", "longitude": "14.4949"}, {"country_code": "SI", "postal_code": "1218", "place_name": "Komenda", "latitude": "46.2048", "longitude": "14.5384"}, {"country_code": "SI", "postal_code": "1219", "place_name": "Laze v Tuhinju", "latitude": "46.2194", "longitude": "14.7611"}, {"country_code": "SI", "postal_code": "1221", "place_name": "Motnik", "latitude": "46.2153", "longitude": "14.8911"}, {"country_code": "SI", "postal_code": "1222", "place_name": "Trojane", "latitude": "46.1883", "longitude": "14.8831"}, {"country_code": "SI", "postal_code": "1223", "place_name": "Blagovica", "latitude": "46.1769", "longitude": "14.8072"}, {"country_code": "SI", "postal_code": "1225", "place_name": "Lukovica", "latitude": "46.1667", "longitude": "14.7"}, {"country_code": "SI", "postal_code": "1230", "place_name": "Dom\u017eale", "latitude": "46.1377", "longitude": "14.5937"}, {"country_code": "SI", "postal_code": "1231", "place_name": "Ljubljana \u010crnu\u010de", "latitude": "46.1527", "longitude": "14.5952"}, {"country_code": "SI", "postal_code": "1233", "place_name": "Dob", "latitude": "46.1519", "longitude": "14.6286"}, {"country_code": "SI", "postal_code": "1234", "place_name": "Menge\u0161", "latitude": "46.1669", "longitude": "14.575"}, {"country_code": "SI", "postal_code": "1235", "place_name": "Radomlje", "latitude": "46.1736", "longitude": "14.6122"}, {"country_code": "SI", "postal_code": "1236", "place_name": "Trzin", "latitude": "46.1333", "longitude": "14.5667"}, {"country_code": "SI", "postal_code": "1241", "place_name": "Kamnik", "latitude": "46.2259", "longitude": "14.6121"}, {"country_code": "SI", "postal_code": "1242", "place_name": "Stahovica", "latitude": "46.2619", "longitude": "14.6022"}, {"country_code": "SI", "postal_code": "1251", "place_name": "Morav\u010de", "latitude": "46.1369", "longitude": "14.745"}, {"country_code": "SI", "postal_code": "1252", "place_name": "Va\u010de", "latitude": "46.12", "longitude": "14.8392"}, {"country_code": "SI", "postal_code": "1260", "place_name": "Ljubljana Polje", "latitude": "46.0667", "longitude": "14.5833"}, {"country_code": "SI", "postal_code": "1261", "place_name": "Ljubljana-Dobrunje", "latitude": "46.0333", "longitude": "14.5833"}, {"country_code": "SI", "postal_code": "1262", "place_name": "Dol pri Ljubljani", "latitude": "46.0886", "longitude": "14.6008"}, {"country_code": "SI", "postal_code": "1270", "place_name": "Litija", "latitude": "46.0586", "longitude": "14.8225"}, {"country_code": "SI", "postal_code": "1272", "place_name": "Pol\u0161nik", "latitude": "46.0667", "longitude": "14.95"}, {"country_code": "SI", "postal_code": "1273", "place_name": "Dole pri Litiji", "latitude": "46.0353", "longitude": "15.0189"}, {"country_code": "SI", "postal_code": "1274", "place_name": "Gabrovka", "latitude": "46.0167", "longitude": "15"}, {"country_code": "SI", "postal_code": "1275", "place_name": "\u0160martno pri Litiji", "latitude": "46.0444", "longitude": "14.8442"}, {"country_code": "SI", "postal_code": "1276", "place_name": "Primskovo", "latitude": "45.9717", "longitude": "14.9104"}, {"country_code": "SI", "postal_code": "1281", "place_name": "Kresnice", "latitude": "46.102", "longitude": "14.7858"}, {"country_code": "SI", "postal_code": "1282", "place_name": "Sava", "latitude": "46.0898", "longitude": "14.8904"}, {"country_code": "SI", "postal_code": "1290", "place_name": "Grosuplje", "latitude": "45.9556", "longitude": "14.6589"}, {"country_code": "SI", "postal_code": "1291", "place_name": "\u0160kofljica", "latitude": "45.9833", "longitude": "14.5767"}, {"country_code": "SI", "postal_code": "1292", "place_name": "Ig", "latitude": "45.9603", "longitude": "14.5289"}, {"country_code": "SI", "postal_code": "1293", "place_name": "\u0160marje-Sap", "latitude": "45.9762", "longitude": "14.6118"}, {"country_code": "SI", "postal_code": "1294", "place_name": "Vi\u0161nja Gora", "latitude": "45.9539", "longitude": "14.7453"}, {"country_code": "SI", "postal_code": "1295", "place_name": "Ivan\u010dna Gorica", "latitude": "45.9383", "longitude": "14.8044"}, {"country_code": "SI", "postal_code": "1296", "place_name": "\u0160entvid pri Sti\u010dni", "latitude": "45.95", "longitude": "14.8434"}, {"country_code": "SI", "postal_code": "1301", "place_name": "Krka", "latitude": "45.8813", "longitude": "14.7781"}, {"country_code": "SI", "postal_code": "1303", "place_name": "Zagradec", "latitude": "45.8614", "longitude": "14.8342"}, {"country_code": "SI", "postal_code": "1310", "place_name": "Ribnica", "latitude": "45.7386", "longitude": "14.7275"}, {"country_code": "SI", "postal_code": "1311", "place_name": "Turjak", "latitude": "45.8789", "longitude": "14.6153"}, {"country_code": "SI", "postal_code": "1312", "place_name": "Videm-Dobrepolje", "latitude": "45.85", "longitude": "14.6942"}, {"country_code": "SI", "postal_code": "1313", "place_name": "Struge", "latitude": "45.7817", "longitude": "14.7747"}, {"country_code": "SI", "postal_code": "1314", "place_name": "Rob", "latitude": "45.8486", "longitude": "14.5722"}, {"country_code": "SI", "postal_code": "1315", "place_name": "Velike La\u0161\u010de", "latitude": "45.8322", "longitude": "14.6364"}, {"country_code": "SI", "postal_code": "1316", "place_name": "Ortnek", "latitude": "45.782", "longitude": "14.6753"}, {"country_code": "SI", "postal_code": "1317", "place_name": "Sodra\u017eica", "latitude": "45.7611", "longitude": "14.6356"}, {"country_code": "SI", "postal_code": "1318", "place_name": "Lo\u0161ki Potok", "latitude": "45.8236", "longitude": "14.6531"}, {"country_code": "SI", "postal_code": "1319", "place_name": "Draga", "latitude": "45.9395", "longitude": "14.547"}, {"country_code": "SI", "postal_code": "1330", "place_name": "Ko\u010devje", "latitude": "45.6433", "longitude": "14.8633"}, {"country_code": "SI", "postal_code": "1331", "place_name": "Dolenja vas", "latitude": "45.7061", "longitude": "14.7544"}, {"country_code": "SI", "postal_code": "1332", "place_name": "Stara Cerkev", "latitude": "45.6722", "longitude": "14.8397"}, {"country_code": "SI", "postal_code": "1336", "place_name": "Vas", "latitude": "45.4747", "longitude": "14.8692"}, {"country_code": "SI", "postal_code": "1337", "place_name": "Osilnica", "latitude": "45.5278", "longitude": "14.6944"}, {"country_code": "SI", "postal_code": "1338", "place_name": "Ko\u010devska Reka", "latitude": "45.5764", "longitude": "14.7969"}, {"country_code": "SI", "postal_code": "1351", "place_name": "Brezovica pri Ljubljani", "latitude": "46.0333", "longitude": "14.4"}, {"country_code": "SI", "postal_code": "1352", "place_name": "Preserje", "latitude": "45.9569", "longitude": "14.4189"}, {"country_code": "SI", "postal_code": "1353", "place_name": "Borovnica", "latitude": "45.9158", "longitude": "14.3631"}, {"country_code": "SI", "postal_code": "1354", "place_name": "Horjul", "latitude": "46.0236", "longitude": "14.2992"}, {"country_code": "SI", "postal_code": "1355", "place_name": "Polhov Gradec", "latitude": "46.0669", "longitude": "14.3161"}, {"country_code": "SI", "postal_code": "1356", "place_name": "Dobrova", "latitude": "46.055", "longitude": "14.4172"}, {"country_code": "SI", "postal_code": "1357", "place_name": "Notranje Gorice", "latitude": "45.9875", "longitude": "14.3989"}, {"country_code": "SI", "postal_code": "1358", "place_name": "Log pri Brezovici", "latitude": "46.0167", "longitude": "14.3667"}, {"country_code": "SI", "postal_code": "1360", "place_name": "Vrhnika", "latitude": "45.6922", "longitude": "14.5028"}, {"country_code": "SI", "postal_code": "1370", "place_name": "Logatec", "latitude": "45.9144", "longitude": "14.2258"}, {"country_code": "SI", "postal_code": "1371", "place_name": "Logatec", "latitude": "45.9144", "longitude": "14.2258"}, {"country_code": "SI", "postal_code": "1372", "place_name": "Hotedr\u0161ica", "latitude": "45.9303", "longitude": "14.1422"}, {"country_code": "SI", "postal_code": "1373", "place_name": "Rovte", "latitude": "45.9853", "longitude": "14.1775"}, {"country_code": "SI", "postal_code": "1380", "place_name": "Cerknica", "latitude": "45.7931", "longitude": "14.3625"}, {"country_code": "SI", "postal_code": "1381", "place_name": "Rakek", "latitude": "45.8133", "longitude": "14.3111"}, {"country_code": "SI", "postal_code": "1382", "place_name": "Begunje pri Cerknici", "latitude": "45.8181", "longitude": "14.3822"}, {"country_code": "SI", "postal_code": "1384", "place_name": "Grahovo", "latitude": "45.7692", "longitude": "14.4222"}, {"country_code": "SI", "postal_code": "1385", "place_name": "Nova vas", "latitude": "45.7717", "longitude": "14.5058"}, {"country_code": "SI", "postal_code": "1386", "place_name": "Stari trg pri Lo\u017eu", "latitude": "45.7148", "longitude": "14.471"}, {"country_code": "SI", "postal_code": "1410", "place_name": "Zagorje ob Savi", "latitude": "46.1318", "longitude": "14.9969"}, {"country_code": "SI", "postal_code": "1411", "place_name": "Izlake", "latitude": "46.15", "longitude": "14.95"}, {"country_code": "SI", "postal_code": "1412", "place_name": "Kisovec", "latitude": "46.1391", "longitude": "14.9629"}, {"country_code": "SI", "postal_code": "1413", "place_name": "\u010cem\u0161enik", "latitude": "46.1792", "longitude": "14.9444"}, {"country_code": "SI", "postal_code": "1414", "place_name": "Podkum", "latitude": "46.0714", "longitude": "15.0286"}, {"country_code": "SI", "postal_code": "1420", "place_name": "Trbovlje", "latitude": "46.155", "longitude": "15.0533"}, {"country_code": "SI", "postal_code": "1423", "place_name": "Dobovec", "latitude": "46.1131", "longitude": "15.0572"}, {"country_code": "SI", "postal_code": "1430", "place_name": "Hrastnik", "latitude": "46.1461", "longitude": "15.0814"}, {"country_code": "SI", "postal_code": "1431", "place_name": "Dol pri Hrastniku", "latitude": "46.1419", "longitude": "15.1128"}, {"country_code": "SI", "postal_code": "1432", "place_name": "Zidani Most", "latitude": "46.0882", "longitude": "15.1728"}, {"country_code": "SI", "postal_code": "1433", "place_name": "Rade\u010de", "latitude": "46.0681", "longitude": "15.1839"}, {"country_code": "SI", "postal_code": "1434", "place_name": "Loka pri Zidanem Mostu", "latitude": "46.0575", "longitude": "15.2072"}, {"country_code": "SI", "postal_code": "1500", "place_name": "Ljubljana", "latitude": "46.0511", "longitude": "14.5051"}, {"country_code": "SI", "postal_code": "1501", "place_name": "Ljubljana", "latitude": "46.0511", "longitude": "14.5051"}, {"country_code": "SI", "postal_code": "1502", "place_name": "Ljubljana", "latitude": "46.0511", "longitude": "14.5051"}, {"country_code": "SI", "postal_code": "1503", "place_name": "Ljubljana", "latitude": "46.0511", "longitude": "14.5051"}, {"country_code": "SI", "postal_code": "1504", "place_name": "Ljubljana", "latitude": "46.0511", "longitude": "14.5051"}, {"country_code": "SI", "postal_code": "1505", "place_name": "Ljubljana", "latitude": "46.0511", "longitude": "14.5051"}, {"country_code": "SI", "postal_code": "1506", "place_name": "Ljubljana", "latitude": "46.0511", "longitude": "14.5051"}, {"country_code": "SI", "postal_code": "1507", "place_name": "Ljubljana", "latitude": "46.0511", "longitude": "14.5051"}, {"country_code": "SI", "postal_code": "1508", "place_name": "Ljubljana", "latitude": "46.0511", "longitude": "14.5051"}, {"country_code": "SI", "postal_code": "1509", "place_name": "Ljubljana", "latitude": "46.0511", "longitude": "14.5051"}, {"country_code": "SI", "postal_code": "1510", "place_name": "Ljubljana", "latitude": "46.0511", "longitude": "14.5051"}, {"country_code": "SI", "postal_code": "1511", "place_name": "Ljubljana", "latitude": "46.0511", "longitude": "14.5051"}, {"country_code": "SI", "postal_code": "1512", "place_name": "Ljubljana", "latitude": "46.0511", "longitude": "14.5051"}, {"country_code": "SI", "postal_code": "1513", "place_name": "Ljubljana", "latitude": "46.0511", "longitude": "14.5051"}, {"country_code": "SI", "postal_code": "1514", "place_name": "Ljubljana", "latitude": "46.0511", "longitude": "14.5051"}, {"country_code": "SI", "postal_code": "1516", "place_name": "Ljubljana", "latitude": "46.0511", "longitude": "14.5051"}, {"country_code": "SI", "postal_code": "1517", "place_name": "Ljubljana", "latitude": "46.0511", "longitude": "14.5051"}, {"country_code": "SI", "postal_code": "1518", "place_name": "Ljubljana", "latitude": "46.0511", "longitude": "14.5051"}, {"country_code": "SI", "postal_code": "1519", "place_name": "Ljubljana", "latitude": "46.0511", "longitude": "14.5051"}, {"country_code": "SI", "postal_code": "1520", "place_name": "Ljubljana", "latitude": "46.0511", "longitude": "14.5051"}, {"country_code": "SI", "postal_code": "1521", "place_name": "Ljubljana", "latitude": "46.0511", "longitude": "14.5051"}, {"country_code": "SI", "postal_code": "1522", "place_name": "Ljubljana", "latitude": "46.0511", "longitude": "14.5051"}, {"country_code": "SI", "postal_code": "1523", "place_name": "Ljubljana", "latitude": "46.0511", "longitude": "14.5051"}, {"country_code": "SI", "postal_code": "1524", "place_name": "Ljubljana", "latitude": "46.0511", "longitude": "14.5051"}, {"country_code": "SI", "postal_code": "1525", "place_name": "Ljubljana", "latitude": "46.0511", "longitude": "14.5051"}, {"country_code": "SI", "postal_code": "1526", "place_name": "Ljubljana", "latitude": "46.0511", "longitude": "14.5051"}, {"country_code": "SI", "postal_code": "1527", "place_name": "Ljubljana", "latitude": "46.0511", "longitude": "14.5051"}, {"country_code": "SI", "postal_code": "1528", "place_name": "Ljubljana", "latitude": "46.0511", "longitude": "14.5051"}, {"country_code": "SI", "postal_code": "1529", "place_name": "Ljubljana", "latitude": "46.0511", "longitude": "14.5051"}, {"country_code": "SI", "postal_code": "1532", "place_name": "Ljubljana", "latitude": "46.0511", "longitude": "14.5051"}, {"country_code": "SI", "postal_code": "1533", "place_name": "Ljubljana", "latitude": "46.0511", "longitude": "14.5051"}, {"country_code": "SI", "postal_code": "1534", "place_name": "Ljubljana", "latitude": "46.0511", "longitude": "14.5051"}, {"country_code": "SI", "postal_code": "1535", "place_name": "Ljubljana", "latitude": "46.0511", "longitude": "14.5051"}, {"country_code": "SI", "postal_code": "1536", "place_name": "Ljubljana", "latitude": "46.0511", "longitude": "14.5051"}, {"country_code": "SI", "postal_code": "1537", "place_name": "Ljubljana", "latitude": "46.0511", "longitude": "14.5051"}, {"country_code": "SI", "postal_code": "1538", "place_name": "Ljubljana", "latitude": "46.0511", "longitude": "14.5051"}, {"country_code": "SI", "postal_code": "1540", "place_name": "Ljubljana", "latitude": "46.0511", "longitude": "14.5051"}, {"country_code": "SI", "postal_code": "1542", "place_name": "Ljubljana", "latitude": "46.0511", "longitude": "14.5051"}, {"country_code": "SI", "postal_code": "1543", "place_name": "Ljubljana", "latitude": "46.0511", "longitude": "14.5051"}, {"country_code": "SI", "postal_code": "1544", "place_name": "Ljubljana", "latitude": "46.0511", "longitude": "14.5051"}, {"country_code": "SI", "postal_code": "1545", "place_name": "Ljubljana", "latitude": "46.0511", "longitude": "14.5051"}, {"country_code": "SI", "postal_code": "1546", "place_name": "Ljubljana", "latitude": "46.0511", "longitude": "14.5051"}, {"country_code": "SI", "postal_code": "1547", "place_name": "Ljubljana", "latitude": "46.0511", "longitude": "14.5051"}, {"country_code": "SI", "postal_code": "1550", "place_name": "Ljubljana", "latitude": "46.0511", "longitude": "14.5051"}, {"country_code": "SI", "postal_code": "1600", "place_name": "Ljubljana", "latitude": "46.0511", "longitude": "14.5051"}, {"country_code": "SI", "postal_code": "2000", "place_name": "Maribor - dostava", "latitude": "46.5547", "longitude": "15.6467"}, {"country_code": "SI", "postal_code": "2001", "place_name": "Maribor - po\u0161tni predali", "latitude": "46.5547", "longitude": "15.6467"}, {"country_code": "SI", "postal_code": "2201", "place_name": "Zgornja Kungota", "latitude": "46.6392", "longitude": "15.6156"}, {"country_code": "SI", "postal_code": "2204", "place_name": "Miklav\u017e na Dravskem polju", "latitude": "46.5058", "longitude": "15.6972"}, {"country_code": "SI", "postal_code": "2205", "place_name": "Star\u0161e", "latitude": "46.4658", "longitude": "15.7672"}, {"country_code": "SI", "postal_code": "2206", "place_name": "Marjeta na Dravskem polju", "latitude": "46.4525", "longitude": "15.7369"}, {"country_code": "SI", "postal_code": "2208", "place_name": "Pohorje", "latitude": "46.5026", "longitude": "15.573"}, {"country_code": "SI", "postal_code": "2211", "place_name": "Pesnica pri Mariboru", "latitude": "46.6069", "longitude": "15.6767"}, {"country_code": "SI", "postal_code": "2212", "place_name": "\u0160entilj v Slovenskih goricah", "latitude": "46.6792", "longitude": "15.6532"}, {"country_code": "SI", "postal_code": "2213", "place_name": "Zgornja Velka", "latitude": "46.6753", "longitude": "15.7692"}, {"country_code": "SI", "postal_code": "2214", "place_name": "Sladki Vrh", "latitude": "46.7075", "longitude": "15.8011"}, {"country_code": "SI", "postal_code": "2215", "place_name": "Cer\u0161ak", "latitude": "46.6992", "longitude": "15.6692"}, {"country_code": "SI", "postal_code": "2221", "place_name": "Jarenina", "latitude": "46.5803", "longitude": "15.7438"}, {"country_code": "SI", "postal_code": "2222", "place_name": "Jakobski Dol", "latitude": "46.5803", "longitude": "15.7438"}, {"country_code": "SI", "postal_code": "2223", "place_name": "Jurovski Dol", "latitude": "46.6064", "longitude": "15.7847"}, {"country_code": "SI", "postal_code": "2229", "place_name": "Male\u010dnik", "latitude": "46.5542", "longitude": "15.7028"}, {"country_code": "SI", "postal_code": "2230", "place_name": "Lenart v Slovenskih goricah", "latitude": "46.5761", "longitude": "15.8314"}, {"country_code": "SI", "postal_code": "2231", "place_name": "Pernica", "latitude": "46.58", "longitude": "15.7278"}, {"country_code": "SI", "postal_code": "2232", "place_name": "Voli\u010dina", "latitude": "46.5838", "longitude": "15.8478"}, {"country_code": "SI", "postal_code": "2233", "place_name": "Sv. Ana v Slovenskih goricah", "latitude": "46.5838", "longitude": "15.8478"}, {"country_code": "SI", "postal_code": "2234", "place_name": "Benedikt", "latitude": "46.6086", "longitude": "15.8883"}, {"country_code": "SI", "postal_code": "2235", "place_name": "Sv. Trojica v Slovenskih goricah", "latitude": "46.5838", "longitude": "15.8478"}, {"country_code": "SI", "postal_code": "2236", "place_name": "Cerkvenjak", "latitude": "46.5706", "longitude": "15.9436"}, {"country_code": "SI", "postal_code": "2241", "place_name": "Spodnji Duplek", "latitude": "46.5031", "longitude": "15.7453"}, {"country_code": "SI", "postal_code": "2242", "place_name": "Zgornja Korena", "latitude": "46.524", "longitude": "15.7723"}, {"country_code": "SI", "postal_code": "2250", "place_name": "Ptuj", "latitude": "46.4201", "longitude": "15.8702"}, {"country_code": "SI", "postal_code": "2252", "place_name": "Dornava", "latitude": "46.4367", "longitude": "15.9536"}, {"country_code": "SI", "postal_code": "2253", "place_name": "Destrnik", "latitude": "46.5006", "longitude": "15.875"}, {"country_code": "SI", "postal_code": "2254", "place_name": "Trnovska vas", "latitude": "46.5202", "longitude": "15.8866"}, {"country_code": "SI", "postal_code": "2255", "place_name": "Vitomarci", "latitude": "46.5275", "longitude": "15.9394"}, {"country_code": "SI", "postal_code": "2256", "place_name": "Jur\u0161inci", "latitude": "46.4847", "longitude": "15.9714"}, {"country_code": "SI", "postal_code": "2257", "place_name": "Polen\u0161ak", "latitude": "46.4746", "longitude": "16.0031"}, {"country_code": "SI", "postal_code": "2258", "place_name": "Sveti Toma\u017e", "latitude": "46.4842", "longitude": "16.0836"}, {"country_code": "SI", "postal_code": "2259", "place_name": "Ivanjkovci", "latitude": "46.4622", "longitude": "16.1458"}, {"country_code": "SI", "postal_code": "2270", "place_name": "Ormo\u017e", "latitude": "46.4114", "longitude": "16.1544"}, {"country_code": "SI", "postal_code": "2272", "place_name": "Gori\u0161nica", "latitude": "46.4147", "longitude": "16.0139"}, {"country_code": "SI", "postal_code": "2273", "place_name": "Podgorci", "latitude": "46.4292", "longitude": "16.0636"}, {"country_code": "SI", "postal_code": "2274", "place_name": "Velika Nedelja", "latitude": "46.4178", "longitude": "16.1097"}, {"country_code": "SI", "postal_code": "2275", "place_name": "Miklav\u017e pri Ormo\u017eu", "latitude": "46.46", "longitude": "16.2136"}, {"country_code": "SI", "postal_code": "2276", "place_name": "Kog", "latitude": "46.4717", "longitude": "16.2508"}, {"country_code": "SI", "postal_code": "2277", "place_name": "Sredi\u0161\u010de ob Dravi", "latitude": "46.3942", "longitude": "16.2681"}, {"country_code": "SI", "postal_code": "2281", "place_name": "Markovci", "latitude": "46.3833", "longitude": "15.95"}, {"country_code": "SI", "postal_code": "2282", "place_name": "Cirkulane", "latitude": "46.3441", "longitude": "15.9947"}, {"country_code": "SI", "postal_code": "2283", "place_name": "Zavr\u010d", "latitude": "46.3917", "longitude": "16.0497"}, {"country_code": "SI", "postal_code": "2284", "place_name": "Videm pri Ptuju", "latitude": "46.3686", "longitude": "15.9064"}, {"country_code": "SI", "postal_code": "2285", "place_name": "Zgornji Leskovec", "latitude": "46.3303", "longitude": "15.9369"}, {"country_code": "SI", "postal_code": "2286", "place_name": "Podlehnik", "latitude": "46.3353", "longitude": "15.88"}, {"country_code": "SI", "postal_code": "2287", "place_name": "\u017detale", "latitude": "46.275", "longitude": "15.7939"}, {"country_code": "SI", "postal_code": "2288", "place_name": "Hajdina", "latitude": "46.4089", "longitude": "15.8469"}, {"country_code": "SI", "postal_code": "2289", "place_name": "Stoperce", "latitude": "46.29", "longitude": "15.7167"}, {"country_code": "SI", "postal_code": "2310", "place_name": "Slovenska Bistrica", "latitude": "46.3928", "longitude": "15.5744"}, {"country_code": "SI", "postal_code": "2311", "place_name": "Ho\u010de", "latitude": "46.4918", "longitude": "15.6231"}, {"country_code": "SI", "postal_code": "2312", "place_name": "Orehova vas", "latitude": "46.4701", "longitude": "15.6686"}, {"country_code": "SI", "postal_code": "2313", "place_name": "Fram", "latitude": "46.4506", "longitude": "15.6322"}, {"country_code": "SI", "postal_code": "2314", "place_name": "Zgornja Polskava", "latitude": "46.4256", "longitude": "15.6122"}, {"country_code": "SI", "postal_code": "2315", "place_name": "\u0160martno na Pohorju", "latitude": "46.4442", "longitude": "15.5394"}, {"country_code": "SI", "postal_code": "2316", "place_name": "Zgornja Lo\u017enica", "latitude": "46.3833", "longitude": "15.5167"}, {"country_code": "SI", "postal_code": "2317", "place_name": "Oplotnica", "latitude": "46.3878", "longitude": "15.4467"}, {"country_code": "SI", "postal_code": "2318", "place_name": "Laporje", "latitude": "46.3467", "longitude": "15.5947"}, {"country_code": "SI", "postal_code": "2319", "place_name": "Polj\u010dane", "latitude": "46.3119", "longitude": "15.5792"}, {"country_code": "SI", "postal_code": "2321", "place_name": "Makole", "latitude": "46.3172", "longitude": "15.6672"}, {"country_code": "SI", "postal_code": "2322", "place_name": "Maj\u0161perk", "latitude": "46.3517", "longitude": "15.7336"}, {"country_code": "SI", "postal_code": "2323", "place_name": "Ptujska Gora", "latitude": "46.355", "longitude": "15.76"}, {"country_code": "SI", "postal_code": "2324", "place_name": "Lovrenc na Dravskem polju", "latitude": "46.3736", "longitude": "15.7792"}, {"country_code": "SI", "postal_code": "2325", "place_name": "Kidri\u010devo", "latitude": "46.4036", "longitude": "15.7911"}, {"country_code": "SI", "postal_code": "2326", "place_name": "Cirkovce", "latitude": "46.3999", "longitude": "15.7312"}, {"country_code": "SI", "postal_code": "2327", "place_name": "Ra\u010de", "latitude": "46.4519", "longitude": "15.6814"}, {"country_code": "SI", "postal_code": "2331", "place_name": "Pragersko", "latitude": "46.3967", "longitude": "15.66"}, {"country_code": "SI", "postal_code": "2341", "place_name": "Limbu\u0161", "latitude": "46.5536", "longitude": "15.5836"}, {"country_code": "SI", "postal_code": "2342", "place_name": "Ru\u0161e", "latitude": "46.5394", "longitude": "15.5158"}, {"country_code": "SI", "postal_code": "2343", "place_name": "Fala", "latitude": "46.5439", "longitude": "15.4472"}, {"country_code": "SI", "postal_code": "2344", "place_name": "Lovrenc na Pohorju", "latitude": "46.5406", "longitude": "15.3931"}, {"country_code": "SI", "postal_code": "2345", "place_name": "Bistrica ob Dravi", "latitude": "46.5572", "longitude": "15.5144"}, {"country_code": "SI", "postal_code": "2351", "place_name": "Kamnica", "latitude": "46.5744", "longitude": "15.6142"}, {"country_code": "SI", "postal_code": "2352", "place_name": "Selnica ob Dravi", "latitude": "46.55", "longitude": "15.495"}, {"country_code": "SI", "postal_code": "2353", "place_name": "Sv. Duh na Ostrem Vrhu", "latitude": "46.5647", "longitude": "15.5614"}, {"country_code": "SI", "postal_code": "2354", "place_name": "Bresternica", "latitude": "46.5697", "longitude": "15.575"}, {"country_code": "SI", "postal_code": "2360", "place_name": "Radlje ob Dravi", "latitude": "46.6142", "longitude": "15.2264"}, {"country_code": "SI", "postal_code": "2361", "place_name": "O\u017ebalt", "latitude": "46.5869", "longitude": "15.3989"}, {"country_code": "SI", "postal_code": "2362", "place_name": "Kapla", "latitude": "46.2483", "longitude": "15.0094"}, {"country_code": "SI", "postal_code": "2363", "place_name": "Podvelka", "latitude": "46.5869", "longitude": "15.3306"}, {"country_code": "SI", "postal_code": "2364", "place_name": "Ribnica na Pohorju", "latitude": "46.535", "longitude": "15.2728"}, {"country_code": "SI", "postal_code": "2365", "place_name": "Vuhred", "latitude": "46.5947", "longitude": "15.2375"}, {"country_code": "SI", "postal_code": "2366", "place_name": "Muta", "latitude": "46.6114", "longitude": "15.1661"}, {"country_code": "SI", "postal_code": "2367", "place_name": "Vuzenica", "latitude": "46.5964", "longitude": "15.1672"}, {"country_code": "SI", "postal_code": "2370", "place_name": "Dravograd", "latitude": "46.5881", "longitude": "15.0192"}, {"country_code": "SI", "postal_code": "2371", "place_name": "Trbonje", "latitude": "46.6028", "longitude": "15.1075"}, {"country_code": "SI", "postal_code": "2372", "place_name": "Libeli\u010de", "latitude": "46.62", "longitude": "14.9497"}, {"country_code": "SI", "postal_code": "2373", "place_name": "\u0160entjan\u017e pri Dravogradu", "latitude": "46.5611", "longitude": "15.0389"}, {"country_code": "SI", "postal_code": "2380", "place_name": "Slovenj Gradec", "latitude": "46.5103", "longitude": "15.0806"}, {"country_code": "SI", "postal_code": "2381", "place_name": "Podgorje pri Slovenj Gradcu", "latitude": "46.4719", "longitude": "15.0836"}, {"country_code": "SI", "postal_code": "2382", "place_name": "Mislinja", "latitude": "46.4411", "longitude": "15.1956"}, {"country_code": "SI", "postal_code": "2383", "place_name": "\u0160martno pri Slovenj Gradcu", "latitude": "46.4894", "longitude": "15.1067"}, {"country_code": "SI", "postal_code": "2390", "place_name": "Ravne na Koro\u0161kem", "latitude": "46.5431", "longitude": "14.9692"}, {"country_code": "SI", "postal_code": "2391", "place_name": "Prevalje", "latitude": "46.5469", "longitude": "14.9208"}, {"country_code": "SI", "postal_code": "2392", "place_name": "Me\u017eica", "latitude": "46.5214", "longitude": "14.8544"}, {"country_code": "SI", "postal_code": "2393", "place_name": "\u010crna na Koro\u0161kem", "latitude": "46.4705", "longitude": "14.8501"}, {"country_code": "SI", "postal_code": "2394", "place_name": "Kotlje", "latitude": "46.5214", "longitude": "14.9869"}, {"country_code": "SI", "postal_code": "2500", "place_name": "Maribor", "latitude": "46.5547", "longitude": "15.6467"}, {"country_code": "SI", "postal_code": "2501", "place_name": "Maribor", "latitude": "46.5547", "longitude": "15.6467"}, {"country_code": "SI", "postal_code": "2502", "place_name": "Maribor", "latitude": "46.5547", "longitude": "15.6467"}, {"country_code": "SI", "postal_code": "2503", "place_name": "Maribor", "latitude": "46.5547", "longitude": "15.6467"}, {"country_code": "SI", "postal_code": "2504", "place_name": "Maribor", "latitude": "46.5547", "longitude": "15.6467"}, {"country_code": "SI", "postal_code": "2505", "place_name": "Maribor", "latitude": "46.5547", "longitude": "15.6467"}, {"country_code": "SI", "postal_code": "2506", "place_name": "Maribor", "latitude": "46.5547", "longitude": "15.6467"}, {"country_code": "SI", "postal_code": "2507", "place_name": "Maribor", "latitude": "46.5547", "longitude": "15.6467"}, {"country_code": "SI", "postal_code": "2509", "place_name": "Maribor", "latitude": "46.5547", "longitude": "15.6467"}, {"country_code": "SI", "postal_code": "2600", "place_name": "Maribor", "latitude": "46.5547", "longitude": "15.6467"}, {"country_code": "SI", "postal_code": "2603", "place_name": "Maribor", "latitude": "46.5547", "longitude": "15.6467"}, {"country_code": "SI", "postal_code": "2609", "place_name": "Maribor", "latitude": "46.5547", "longitude": "15.6467"}, {"country_code": "SI", "postal_code": "2610", "place_name": "Maribor", "latitude": "46.5547", "longitude": "15.6467"}, {"country_code": "SI", "postal_code": "3000", "place_name": "Celje - dostava", "latitude": "45.5916", "longitude": "14.1546"}, {"country_code": "SI", "postal_code": "3001", "place_name": "Celje - po\u0161tni predali", "latitude": "45.5916", "longitude": "14.1546"}, {"country_code": "SI", "postal_code": "3201", "place_name": "\u0160martno v Ro\u017eni dolini", "latitude": "46.2945", "longitude": "15.2431"}, {"country_code": "SI", "postal_code": "3202", "place_name": "Ljube\u010dna", "latitude": "46.2417", "longitude": "15.3208"}, {"country_code": "SI", "postal_code": "3203", "place_name": "Nova Cerkev", "latitude": "46.3128", "longitude": "15.2856"}, {"country_code": "SI", "postal_code": "3204", "place_name": "Dobrna", "latitude": "46.3375", "longitude": "15.2264"}, {"country_code": "SI", "postal_code": "3205", "place_name": "Vitanje", "latitude": "46.3817", "longitude": "15.2958"}, {"country_code": "SI", "postal_code": "3206", "place_name": "Stranice", "latitude": "46.3636", "longitude": "15.3653"}, {"country_code": "SI", "postal_code": "3210", "place_name": "Slovenske Konjice", "latitude": "46.3367", "longitude": "15.4258"}, {"country_code": "SI", "postal_code": "3211", "place_name": "\u0160kofja vas", "latitude": "46.2679", "longitude": "15.2912"}, {"country_code": "SI", "postal_code": "3212", "place_name": "Vojnik", "latitude": "46.2933", "longitude": "15.3033"}, {"country_code": "SI", "postal_code": "3213", "place_name": "Frankolovo", "latitude": "46.3306", "longitude": "15.3144"}, {"country_code": "SI", "postal_code": "3214", "place_name": "Zre\u010de", "latitude": "46.3822", "longitude": "15.3792"}, {"country_code": "SI", "postal_code": "3215", "place_name": "Lo\u010de", "latitude": "46.283", "longitude": "15.258"}, {"country_code": "SI", "postal_code": "3220", "place_name": "\u0160tore", "latitude": "46.2208", "longitude": "15.3139"}, {"country_code": "SI", "postal_code": "3221", "place_name": "Teharje", "latitude": "46.2303", "longitude": "15.3022"}, {"country_code": "SI", "postal_code": "3222", "place_name": "Dramlje", "latitude": "46.2736", "longitude": "15.3947"}, {"country_code": "SI", "postal_code": "3223", "place_name": "Loka pri \u017dusmu", "latitude": "46.1575", "longitude": "15.5147"}, {"country_code": "SI", "postal_code": "3224", "place_name": "Dobje pri Planini", "latitude": "46.1367", "longitude": "15.4089"}, {"country_code": "SI", "postal_code": "3225", "place_name": "Planina pri Sevnici", "latitude": "46.1114", "longitude": "15.4094"}, {"country_code": "SI", "postal_code": "3230", "place_name": "\u0160entjur", "latitude": "46.2172", "longitude": "15.3975"}, {"country_code": "SI", "postal_code": "3231", "place_name": "Grobelno", "latitude": "46.2117", "longitude": "15.4447"}, {"country_code": "SI", "postal_code": "3232", "place_name": "Ponikva", "latitude": "46.241", "longitude": "15.4567"}, {"country_code": "SI", "postal_code": "3233", "place_name": "Kalobje", "latitude": "46.1672", "longitude": "15.3944"}, {"country_code": "SI", "postal_code": "3240", "place_name": "\u0160marje pri Jel\u0161ah", "latitude": "46.2272", "longitude": "15.5192"}, {"country_code": "SI", "postal_code": "3241", "place_name": "Podplat", "latitude": "46.2461", "longitude": "15.5764"}, {"country_code": "SI", "postal_code": "3250", "place_name": "Roga\u0161ka Slatina", "latitude": "46.2375", "longitude": "15.6397"}, {"country_code": "SI", "postal_code": "3252", "place_name": "Rogatec", "latitude": "46.2294", "longitude": "15.7003"}, {"country_code": "SI", "postal_code": "3253", "place_name": "Pristava pri Mestinju", "latitude": "46.1967", "longitude": "15.5961"}, {"country_code": "SI", "postal_code": "3254", "place_name": "Pod\u010detrtek", "latitude": "46.1569", "longitude": "15.5986"}, {"country_code": "SI", "postal_code": "3255", "place_name": "Bu\u010de", "latitude": "46.1079", "longitude": "15.5701"}, {"country_code": "SI", "postal_code": "3256", "place_name": "Bistrica ob Sotli", "latitude": "46.0589", "longitude": "15.6642"}, {"country_code": "SI", "postal_code": "3257", "place_name": "Podsreda", "latitude": "46.0414", "longitude": "15.5906"}, {"country_code": "SI", "postal_code": "3260", "place_name": "Kozje", "latitude": "46.075", "longitude": "15.5603"}, {"country_code": "SI", "postal_code": "3261", "place_name": "Lesi\u010dno", "latitude": "46.1025", "longitude": "15.5142"}, {"country_code": "SI", "postal_code": "3262", "place_name": "Prevorje", "latitude": "46.1255", "longitude": "15.4774"}, {"country_code": "SI", "postal_code": "3263", "place_name": "Gorica pri Slivnici", "latitude": "46.1872", "longitude": "15.4325"}, {"country_code": "SI", "postal_code": "3264", "place_name": "Sveti \u0160tefan", "latitude": "46.1862", "longitude": "15.4933"}, {"country_code": "SI", "postal_code": "3270", "place_name": "La\u0161ko", "latitude": "46.1546", "longitude": "15.2355"}, {"country_code": "SI", "postal_code": "3271", "place_name": "\u0160entrupert", "latitude": "46.1714", "longitude": "15.3494"}, {"country_code": "SI", "postal_code": "3272", "place_name": "Rimske Toplice", "latitude": "46.1226", "longitude": "15.1919"}, {"country_code": "SI", "postal_code": "3273", "place_name": "Jurklo\u0161ter", "latitude": "46.0917", "longitude": "15.3367"}, {"country_code": "SI", "postal_code": "3301", "place_name": "Petrov\u010de", "latitude": "46.2417", "longitude": "15.19"}, {"country_code": "SI", "postal_code": "3302", "place_name": "Gri\u017ee", "latitude": "46.2294", "longitude": "15.1506"}, {"country_code": "SI", "postal_code": "3303", "place_name": "Gomilsko", "latitude": "46.2528", "longitude": "15.0422"}, {"country_code": "SI", "postal_code": "3304", "place_name": "Tabor", "latitude": "46.2361", "longitude": "15.0183"}, {"country_code": "SI", "postal_code": "3305", "place_name": "Vransko", "latitude": "46.2439", "longitude": "14.9514"}, {"country_code": "SI", "postal_code": "3310", "place_name": "\u017dalec", "latitude": "46.2515", "longitude": "15.1648"}, {"country_code": "SI", "postal_code": "3311", "place_name": "\u0160empeter v Savinjski dolini", "latitude": "46.2654", "longitude": "15.0907"}, {"country_code": "SI", "postal_code": "3312", "place_name": "Prebold", "latitude": "46.2369", "longitude": "15.0925"}, {"country_code": "SI", "postal_code": "3313", "place_name": "Polzela", "latitude": "46.2833", "longitude": "15.0667"}, {"country_code": "SI", "postal_code": "3314", "place_name": "Braslov\u010de", "latitude": "46.2897", "longitude": "15.0389"}, {"country_code": "SI", "postal_code": "3320", "place_name": "Velenje - dostava", "latitude": "46.3712", "longitude": "15.0345"}, {"country_code": "SI", "postal_code": "3322", "place_name": "Velenje - po\u0161tni predali", "latitude": "46.3712", "longitude": "15.0345"}, {"country_code": "SI", "postal_code": "3325", "place_name": "\u0160o\u0161tanj", "latitude": "46.38", "longitude": "15.0486"}, {"country_code": "SI", "postal_code": "3326", "place_name": "Topol\u0161ica", "latitude": "46.4003", "longitude": "15.0216"}, {"country_code": "SI", "postal_code": "3327", "place_name": "\u0160martno ob Paki", "latitude": "46.3333", "longitude": "15.0333"}, {"country_code": "SI", "postal_code": "3330", "place_name": "Mozirje", "latitude": "46.3394", "longitude": "14.9633"}, {"country_code": "SI", "postal_code": "3331", "place_name": "Nazarje", "latitude": "46.3176", "longitude": "14.9467"}, {"country_code": "SI", "postal_code": "3332", "place_name": "Re\u010dica ob Savinji", "latitude": "46.3167", "longitude": "14.9167"}, {"country_code": "SI", "postal_code": "3333", "place_name": "Ljubno ob Savinji", "latitude": "46.3436", "longitude": "14.8338"}, {"country_code": "SI", "postal_code": "3334", "place_name": "Lu\u010de", "latitude": "46.3561", "longitude": "14.7467"}, {"country_code": "SI", "postal_code": "3335", "place_name": "Sol\u010dava", "latitude": "46.4194", "longitude": "14.6936"}, {"country_code": "SI", "postal_code": "3341", "place_name": "\u0160martno ob Dreti", "latitude": "46.2839", "longitude": "14.8903"}, {"country_code": "SI", "postal_code": "3342", "place_name": "Gornji Grad", "latitude": "46.2953", "longitude": "14.8083"}, {"country_code": "SI", "postal_code": "3502", "place_name": "Celje", "latitude": "46.2309", "longitude": "15.2604"}, {"country_code": "SI", "postal_code": "3503", "place_name": "Velenje", "latitude": "46.3592", "longitude": "15.1103"}, {"country_code": "SI", "postal_code": "3504", "place_name": "Velenje", "latitude": "46.3592", "longitude": "15.1103"}, {"country_code": "SI", "postal_code": "3505", "place_name": "Celje", "latitude": "46.2309", "longitude": "15.2604"}, {"country_code": "SI", "postal_code": "3600", "place_name": "Celje", "latitude": "46.2309", "longitude": "15.2604"}, {"country_code": "SI", "postal_code": "4000", "place_name": "Kranj - dostava", "latitude": "46.2389", "longitude": "14.3556"}, {"country_code": "SI", "postal_code": "4001", "place_name": "Kranj - po\u0161tni predali", "latitude": "46.2389", "longitude": "14.3556"}, {"country_code": "SI", "postal_code": "4201", "place_name": "Zgornja Besnica", "latitude": "46.2667", "longitude": "14.2833"}, {"country_code": "SI", "postal_code": "4202", "place_name": "Naklo", "latitude": "46.2728", "longitude": "14.3172"}, {"country_code": "SI", "postal_code": "4203", "place_name": "Duplje", "latitude": "46.2821", "longitude": "14.3831"}, {"country_code": "SI", "postal_code": "4204", "place_name": "Golnik", "latitude": "46.3333", "longitude": "14.3333"}, {"country_code": "SI", "postal_code": "4205", "place_name": "Preddvor", "latitude": "46.3025", "longitude": "14.4231"}, {"country_code": "SI", "postal_code": "4206", "place_name": "Zgornje Jezersko", "latitude": "46.3833", "longitude": "14.4667"}, {"country_code": "SI", "postal_code": "4207", "place_name": "Cerklje na Gorenjskem", "latitude": "46.2542", "longitude": "14.4886"}, {"country_code": "SI", "postal_code": "4208", "place_name": "\u0160en\u010dur", "latitude": "46.2456", "longitude": "14.4197"}, {"country_code": "SI", "postal_code": "4209", "place_name": "\u017dabnica", "latitude": "46.1986", "longitude": "14.3331"}, {"country_code": "SI", "postal_code": "4210", "place_name": "Brnik aerodrom", "latitude": "46.2264", "longitude": "14.4064"}, {"country_code": "SI", "postal_code": "4211", "place_name": "Mav\u010di\u010de", "latitude": "46.1818", "longitude": "14.3948"}, {"country_code": "SI", "postal_code": "4212", "place_name": "Visoko", "latitude": "46.2711", "longitude": "14.4181"}, {"country_code": "SI", "postal_code": "4220", "place_name": "\u0160kofja Loka", "latitude": "46.1655", "longitude": "14.3063"}, {"country_code": "SI", "postal_code": "4223", "place_name": "Poljane nad \u0160kofjo Loko", "latitude": "46.121", "longitude": "14.1862"}, {"country_code": "SI", "postal_code": "4224", "place_name": "Gorenja vas", "latitude": "46.1667", "longitude": "14.15"}, {"country_code": "SI", "postal_code": "4225", "place_name": "Sovodenj", "latitude": "46.0864", "longitude": "14.0436"}, {"country_code": "SI", "postal_code": "4226", "place_name": "\u017diri", "latitude": "46.0422", "longitude": "14.1072"}, {"country_code": "SI", "postal_code": "4227", "place_name": "Selca", "latitude": "46.2244", "longitude": "14.2056"}, {"country_code": "SI", "postal_code": "4228", "place_name": "\u017delezniki", "latitude": "46.2333", "longitude": "14.1667"}, {"country_code": "SI", "postal_code": "4229", "place_name": "Sorica", "latitude": "46.2167", "longitude": "14.0333"}, {"country_code": "SI", "postal_code": "4240", "place_name": "Radovljica", "latitude": "46.3444", "longitude": "14.1744"}, {"country_code": "SI", "postal_code": "4243", "place_name": "Brezje", "latitude": "46.329", "longitude": "14.2323"}, {"country_code": "SI", "postal_code": "4244", "place_name": "Podnart", "latitude": "46.2952", "longitude": "14.2557"}, {"country_code": "SI", "postal_code": "4245", "place_name": "Kropa", "latitude": "46.3", "longitude": "14.2"}, {"country_code": "SI", "postal_code": "4246", "place_name": "Kamna Gorica", "latitude": "46.3167", "longitude": "14.2"}, {"country_code": "SI", "postal_code": "4247", "place_name": "Zgornje Gorje", "latitude": "46.3796", "longitude": "14.0694"}, {"country_code": "SI", "postal_code": "4248", "place_name": "Lesce", "latitude": "46.3611", "longitude": "14.1578"}, {"country_code": "SI", "postal_code": "4260", "place_name": "Bled", "latitude": "46.3692", "longitude": "14.1136"}, {"country_code": "SI", "postal_code": "4263", "place_name": "Bohinjska Bela", "latitude": "46.3489", "longitude": "14.0639"}, {"country_code": "SI", "postal_code": "4264", "place_name": "Bohinjska Bistrica", "latitude": "46.2722", "longitude": "13.9535"}, {"country_code": "SI", "postal_code": "4265", "place_name": "Bohinjsko jezero", "latitude": "46.3218", "longitude": "14.0141"}, {"country_code": "SI", "postal_code": "4267", "place_name": "Srednja vas v Bohinju", "latitude": "46.297", "longitude": "13.9256"}, {"country_code": "SI", "postal_code": "4270", "place_name": "Jesenice", "latitude": "46.4306", "longitude": "14.0669"}, {"country_code": "SI", "postal_code": "4273", "place_name": "Blejska Dobrava", "latitude": "46.4", "longitude": "14.1"}, {"country_code": "SI", "postal_code": "4274", "place_name": "\u017dirovnica", "latitude": "46.4047", "longitude": "14.14"}, {"country_code": "SI", "postal_code": "4275", "place_name": "Begunje na Gorenjskem", "latitude": "46.3833", "longitude": "14.2167"}, {"country_code": "SI", "postal_code": "4276", "place_name": "Hru\u0161ica", "latitude": "46.445", "longitude": "14.0178"}, {"country_code": "SI", "postal_code": "4280", "place_name": "Kranjska Gora", "latitude": "46.4839", "longitude": "13.7894"}, {"country_code": "SI", "postal_code": "4281", "place_name": "Mojstrana", "latitude": "46.4611", "longitude": "13.9369"}, {"country_code": "SI", "postal_code": "4282", "place_name": "Gozd Martuljek", "latitude": "46.4833", "longitude": "13.8333"}, {"country_code": "SI", "postal_code": "4283", "place_name": "Rate\u010de-Planica", "latitude": "46.4761", "longitude": "13.8532"}, {"country_code": "SI", "postal_code": "4290", "place_name": "Tr\u017ei\u010d", "latitude": "46.3636", "longitude": "14.3105"}, {"country_code": "SI", "postal_code": "4294", "place_name": "Kri\u017ee", "latitude": "46.3428", "longitude": "14.3014"}, {"country_code": "SI", "postal_code": "4501", "place_name": "Naklo", "latitude": "46.2728", "longitude": "14.3172"}, {"country_code": "SI", "postal_code": "4502", "place_name": "Kranj", "latitude": "46.2389", "longitude": "14.3556"}, {"country_code": "SI", "postal_code": "4600", "place_name": "Kranj", "latitude": "46.2389", "longitude": "14.3556"}, {"country_code": "SI", "postal_code": "5000", "place_name": "Nova Gorica - dostava", "latitude": "45.958", "longitude": "13.6469"}, {"country_code": "SI", "postal_code": "5001", "place_name": "Nova Gorica - po\u0161tni predali", "latitude": "45.9431", "longitude": "13.6393"}, {"country_code": "SI", "postal_code": "5210", "place_name": "Deskle", "latitude": "46.0531", "longitude": "13.6138"}, {"country_code": "SI", "postal_code": "5211", "place_name": "Kojsko", "latitude": "46.0092", "longitude": "13.5797"}, {"country_code": "SI", "postal_code": "5212", "place_name": "Dobrovo v Brdih", "latitude": "45.9964", "longitude": "13.5264"}, {"country_code": "SI", "postal_code": "5213", "place_name": "Kanal", "latitude": "46.0886", "longitude": "13.6397"}, {"country_code": "SI", "postal_code": "5214", "place_name": "Kal nad Kanalom", "latitude": "46.0833", "longitude": "13.7403"}, {"country_code": "SI", "postal_code": "5215", "place_name": "Ro\u010dinj", "latitude": "46.1128", "longitude": "13.67"}, {"country_code": "SI", "postal_code": "5216", "place_name": "Most na So\u010di", "latitude": "46.1469", "longitude": "13.7389"}, {"country_code": "SI", "postal_code": "5220", "place_name": "Tolmin", "latitude": "46.183", "longitude": "13.7332"}, {"country_code": "SI", "postal_code": "5222", "place_name": "Kobarid", "latitude": "46.2481", "longitude": "13.5772"}, {"country_code": "SI", "postal_code": "5223", "place_name": "Breginj", "latitude": "46.2647", "longitude": "13.4278"}, {"country_code": "SI", "postal_code": "5224", "place_name": "Srpenica", "latitude": "46.2917", "longitude": "13.4988"}, {"country_code": "SI", "postal_code": "5230", "place_name": "Bovec", "latitude": "46.3375", "longitude": "13.5528"}, {"country_code": "SI", "postal_code": "5231", "place_name": "Log pod Mangartom", "latitude": "46.4019", "longitude": "13.5969"}, {"country_code": "SI", "postal_code": "5232", "place_name": "So\u010da", "latitude": "46.3433", "longitude": "13.6564"}, {"country_code": "SI", "postal_code": "5242", "place_name": "Grahovo ob Ba\u010di", "latitude": "46.1539", "longitude": "13.8619"}, {"country_code": "SI", "postal_code": "5243", "place_name": "Podbrdo", "latitude": "46.21", "longitude": "13.9644"}, {"country_code": "SI", "postal_code": "5250", "place_name": "Solkan", "latitude": "45.9714", "longitude": "13.6494"}, {"country_code": "SI", "postal_code": "5251", "place_name": "Grgar", "latitude": "45.9986", "longitude": "13.6739"}, {"country_code": "SI", "postal_code": "5252", "place_name": "Trnovo pri Gorici", "latitude": "45.9742", "longitude": "13.7433"}, {"country_code": "SI", "postal_code": "5253", "place_name": "\u010cepovan", "latitude": "46.0494", "longitude": "13.7969"}, {"country_code": "SI", "postal_code": "5261", "place_name": "\u0160empas", "latitude": "45.9303", "longitude": "13.7436"}, {"country_code": "SI", "postal_code": "5262", "place_name": "\u010crni\u010de", "latitude": "45.9106", "longitude": "13.7767"}, {"country_code": "SI", "postal_code": "5263", "place_name": "Dobravlje", "latitude": "45.8839", "longitude": "13.8453"}, {"country_code": "SI", "postal_code": "5270", "place_name": "Ajdov\u0161\u010dina", "latitude": "45.886", "longitude": "13.9095"}, {"country_code": "SI", "postal_code": "5271", "place_name": "Vipava", "latitude": "45.8467", "longitude": "13.9631"}, {"country_code": "SI", "postal_code": "5272", "place_name": "Podnanos", "latitude": "45.7969", "longitude": "13.9714"}, {"country_code": "SI", "postal_code": "5273", "place_name": "Col", "latitude": "45.8758", "longitude": "14.005"}, {"country_code": "SI", "postal_code": "5274", "place_name": "\u010crni Vrh nad Idrijo", "latitude": "45.8726", "longitude": "13.9885"}, {"country_code": "SI", "postal_code": "5275", "place_name": "Godovi\u010d", "latitude": "45.9578", "longitude": "14.0936"}, {"country_code": "SI", "postal_code": "5280", "place_name": "Idrija", "latitude": "46.0028", "longitude": "14.0306"}, {"country_code": "SI", "postal_code": "5281", "place_name": "Spodnja Idrija", "latitude": "46.0319", "longitude": "14.0272"}, {"country_code": "SI", "postal_code": "5282", "place_name": "Cerkno", "latitude": "46.1256", "longitude": "13.9817"}, {"country_code": "SI", "postal_code": "5283", "place_name": "Slap ob Idrijci", "latitude": "46.1233", "longitude": "13.8047"}, {"country_code": "SI", "postal_code": "5290", "place_name": "\u0160empeter pri Gorici", "latitude": "45.9275", "longitude": "13.6411"}, {"country_code": "SI", "postal_code": "5291", "place_name": "Miren", "latitude": "45.8956", "longitude": "13.6075"}, {"country_code": "SI", "postal_code": "5292", "place_name": "Ren\u010de", "latitude": "45.89", "longitude": "13.6686"}, {"country_code": "SI", "postal_code": "5293", "place_name": "Vol\u010dja Draga", "latitude": "45.9069", "longitude": "13.6775"}, {"country_code": "SI", "postal_code": "5294", "place_name": "Dornberk", "latitude": "45.8897", "longitude": "13.7369"}, {"country_code": "SI", "postal_code": "5295", "place_name": "Branik", "latitude": "45.8572", "longitude": "13.7842"}, {"country_code": "SI", "postal_code": "5296", "place_name": "Kostanjevica na Krasu", "latitude": "45.845", "longitude": "13.6417"}, {"country_code": "SI", "postal_code": "5297", "place_name": "Prva\u010dina", "latitude": "45.89", "longitude": "13.7181"}, {"country_code": "SI", "postal_code": "5600", "place_name": "Nova Gorica", "latitude": "45.956", "longitude": "13.6484"}, {"country_code": "SI", "postal_code": "6000", "place_name": "Koper/Capodistria - dostava", "latitude": "45.5538", "longitude": "13.7439"}, {"country_code": "SI", "postal_code": "6001", "place_name": "Koper/Capodistria - po\u0161tni predali", "latitude": "45.5472", "longitude": "13.7258"}, {"country_code": "SI", "postal_code": "6210", "place_name": "Se\u017eana", "latitude": "45.7092", "longitude": "13.8733"}, {"country_code": "SI", "postal_code": "6215", "place_name": "Diva\u010da", "latitude": "45.6847", "longitude": "13.9703"}, {"country_code": "SI", "postal_code": "6216", "place_name": "Podgorje", "latitude": "45.5292", "longitude": "13.9528"}, {"country_code": "SI", "postal_code": "6217", "place_name": "Vremski Britof", "latitude": "45.6571", "longitude": "14.0301"}, {"country_code": "SI", "postal_code": "6219", "place_name": "Lokev", "latitude": "45.6611", "longitude": "13.9281"}, {"country_code": "SI", "postal_code": "6221", "place_name": "Dutovlje", "latitude": "45.7581", "longitude": "13.8322"}, {"country_code": "SI", "postal_code": "6222", "place_name": "\u0160tanjel", "latitude": "45.8233", "longitude": "13.8436"}, {"country_code": "SI", "postal_code": "6223", "place_name": "Komen", "latitude": "45.8153", "longitude": "13.7483"}, {"country_code": "SI", "postal_code": "6224", "place_name": "Seno\u017ee\u010de", "latitude": "45.7211", "longitude": "14.0411"}, {"country_code": "SI", "postal_code": "6225", "place_name": "Hru\u0161evje", "latitude": "45.7606", "longitude": "14.1064"}, {"country_code": "SI", "postal_code": "6230", "place_name": "Postojna", "latitude": "45.7769", "longitude": "14.2167"}, {"country_code": "SI", "postal_code": "6232", "place_name": "Planina", "latitude": "45.8339", "longitude": "14.2561"}, {"country_code": "SI", "postal_code": "6240", "place_name": "Kozina", "latitude": "45.61", "longitude": "13.9356"}, {"country_code": "SI", "postal_code": "6242", "place_name": "Materija", "latitude": "45.5814", "longitude": "13.9967"}, {"country_code": "SI", "postal_code": "6243", "place_name": "Obrov", "latitude": "45.5425", "longitude": "14.0869"}, {"country_code": "SI", "postal_code": "6244", "place_name": "Podgrad", "latitude": "45.5217", "longitude": "14.1461"}, {"country_code": "SI", "postal_code": "6250", "place_name": "Ilirska Bistrica", "latitude": "45.5697", "longitude": "14.2408"}, {"country_code": "SI", "postal_code": "6251", "place_name": "Ilirska Bistrica-Trnovo", "latitude": "45.6192", "longitude": "14.2205"}, {"country_code": "SI", "postal_code": "6253", "place_name": "Kne\u017eak", "latitude": "45.6245", "longitude": "14.2448"}, {"country_code": "SI", "postal_code": "6254", "place_name": "Jel\u0161ane", "latitude": "45.5028", "longitude": "14.2717"}, {"country_code": "SI", "postal_code": "6255", "place_name": "Prem", "latitude": "45.6048", "longitude": "14.1834"}, {"country_code": "SI", "postal_code": "6256", "place_name": "Ko\u0161ana", "latitude": "45.6192", "longitude": "14.2205"}, {"country_code": "SI", "postal_code": "6257", "place_name": "Pivka", "latitude": "45.6829", "longitude": "14.1959"}, {"country_code": "SI", "postal_code": "6258", "place_name": "Prestranek", "latitude": "45.7303", "longitude": "14.1862"}, {"country_code": "SI", "postal_code": "6271", "place_name": "Dekani", "latitude": "45.5497", "longitude": "13.8136"}, {"country_code": "SI", "postal_code": "6272", "place_name": "Gra\u010di\u0161\u010de", "latitude": "45.505", "longitude": "13.8769"}, {"country_code": "SI", "postal_code": "6273", "place_name": "Marezige", "latitude": "45.5097", "longitude": "13.8031"}, {"country_code": "SI", "postal_code": "6274", "place_name": "\u0160marje", "latitude": "45.5014", "longitude": "13.7178"}, {"country_code": "SI", "postal_code": "6275", "place_name": "\u010crni Kal", "latitude": "45.55", "longitude": "13.88"}, {"country_code": "SI", "postal_code": "6276", "place_name": "Pobegi", "latitude": "45.5394", "longitude": "13.7961"}, {"country_code": "SI", "postal_code": "6280", "place_name": "Ankaran/Ancarano", "latitude": "45.5664", "longitude": "13.7994"}, {"country_code": "SI", "postal_code": "6281", "place_name": "\u0160kofije", "latitude": "45.5664", "longitude": "13.7994"}, {"country_code": "SI", "postal_code": "6310", "place_name": "Izola/Isola", "latitude": "45.4955", "longitude": "13.6077"}, {"country_code": "SI", "postal_code": "6320", "place_name": "Portoro\u017e/Portorose", "latitude": "45.5143", "longitude": "13.5921"}, {"country_code": "SI", "postal_code": "6323", "place_name": "Strunjan/Strugnano (sezonska po\u0161ta)", "latitude": "45.5143", "longitude": "13.5921"}, {"country_code": "SI", "postal_code": "6330", "place_name": "Piran/Pirano", "latitude": "45.4767", "longitude": "13.6233"}, {"country_code": "SI", "postal_code": "6333", "place_name": "Se\u010dovlje/Sicciole", "latitude": "45.4767", "longitude": "13.6233"}, {"country_code": "SI", "postal_code": "6501", "place_name": "Koper", "latitude": "45.5469", "longitude": "13.7294"}, {"country_code": "SI", "postal_code": "6502", "place_name": "Koper", "latitude": "45.5469", "longitude": "13.7294"}, {"country_code": "SI", "postal_code": "6503", "place_name": "Koper", "latitude": "45.5469", "longitude": "13.7294"}, {"country_code": "SI", "postal_code": "6504", "place_name": "Koper", "latitude": "45.5469", "longitude": "13.7294"}, {"country_code": "SI", "postal_code": "6505", "place_name": "Koper", "latitude": "45.5469", "longitude": "13.7294"}, {"country_code": "SI", "postal_code": "6600", "place_name": "Koper", "latitude": "45.5469", "longitude": "13.7294"}, {"country_code": "SI", "postal_code": "8000", "place_name": "Novo mesto - dostava", "latitude": "45.8363", "longitude": "15.1899"}, {"country_code": "SI", "postal_code": "8001", "place_name": "Novo mesto - po\u0161tni predali", "latitude": "45.8296", "longitude": "15.1997"}, {"country_code": "SI", "postal_code": "8210", "place_name": "Trebnje", "latitude": "45.9042", "longitude": "15.0217"}, {"country_code": "SI", "postal_code": "8211", "place_name": "Dobrni\u010d", "latitude": "45.875", "longitude": "14.98"}, {"country_code": "SI", "postal_code": "8212", "place_name": "Velika Loka", "latitude": "45.9289", "longitude": "14.9678"}, {"country_code": "SI", "postal_code": "8213", "place_name": "Veliki Gaber", "latitude": "45.9338", "longitude": "14.9071"}, {"country_code": "SI", "postal_code": "8216", "place_name": "Mirna Pe\u010d", "latitude": "45.8603", "longitude": "15.0833"}, {"country_code": "SI", "postal_code": "8220", "place_name": "\u0160marje\u0161ke Toplice", "latitude": "45.8624", "longitude": "15.2219"}, {"country_code": "SI", "postal_code": "8222", "place_name": "Oto\u010dec", "latitude": "45.8675", "longitude": "15.2733"}, {"country_code": "SI", "postal_code": "8230", "place_name": "Mokronog", "latitude": "45.9342", "longitude": "15.1408"}, {"country_code": "SI", "postal_code": "8231", "place_name": "Trebelno", "latitude": "45.9167", "longitude": "15.15"}, {"country_code": "SI", "postal_code": "8232", "place_name": "\u0160entrupert", "latitude": "45.9778", "longitude": "15.0956"}, {"country_code": "SI", "postal_code": "8233", "place_name": "Mirna", "latitude": "45.9553", "longitude": "15.0619"}, {"country_code": "SI", "postal_code": "8250", "place_name": "Bre\u017eice", "latitude": "45.9033", "longitude": "15.5911"}, {"country_code": "SI", "postal_code": "8251", "place_name": "\u010cate\u017e ob Savi", "latitude": "45.8894", "longitude": "15.6025"}, {"country_code": "SI", "postal_code": "8253", "place_name": "Arti\u010de", "latitude": "45.9539", "longitude": "15.5878"}, {"country_code": "SI", "postal_code": "8254", "place_name": "Globoko", "latitude": "45.955", "longitude": "15.6286"}, {"country_code": "SI", "postal_code": "8255", "place_name": "Pi\u0161ece", "latitude": "46.0017", "longitude": "15.6411"}, {"country_code": "SI", "postal_code": "8256", "place_name": "Sromlje", "latitude": "45.9833", "longitude": "15.6"}, {"country_code": "SI", "postal_code": "8257", "place_name": "Dobova", "latitude": "45.8972", "longitude": "15.6637"}, {"country_code": "SI", "postal_code": "8258", "place_name": "Kapele", "latitude": "45.9333", "longitude": "15.6833"}, {"country_code": "SI", "postal_code": "8259", "place_name": "Bizeljsko", "latitude": "46.0133", "longitude": "15.6967"}, {"country_code": "SI", "postal_code": "8261", "place_name": "Jesenice na Dolenjskem", "latitude": "45.8917", "longitude": "15.5397"}, {"country_code": "SI", "postal_code": "8262", "place_name": "Kr\u0161ka vas", "latitude": "45.9", "longitude": "15.5667"}, {"country_code": "SI", "postal_code": "8263", "place_name": "Cerklje ob Krki", "latitude": "45.8834", "longitude": "15.5128"}, {"country_code": "SI", "postal_code": "8270", "place_name": "Kr\u0161ko", "latitude": "45.9591", "longitude": "15.4917"}, {"country_code": "SI", "postal_code": "8272", "place_name": "Zdole", "latitude": "45.9772", "longitude": "15.5458"}, {"country_code": "SI", "postal_code": "8273", "place_name": "Leskovec pri Kr\u0161kem", "latitude": "45.9357", "longitude": "15.4718"}, {"country_code": "SI", "postal_code": "8274", "place_name": "Raka", "latitude": "45.9297", "longitude": "15.3842"}, {"country_code": "SI", "postal_code": "8275", "place_name": "\u0160kocjan", "latitude": "45.9067", "longitude": "15.2914"}, {"country_code": "SI", "postal_code": "8276", "place_name": "Bu\u010dka", "latitude": "45.9333", "longitude": "15.3167"}, {"country_code": "SI", "postal_code": "8280", "place_name": "Brestanica", "latitude": "45.9953", "longitude": "15.4775"}, {"country_code": "SI", "postal_code": "8281", "place_name": "Senovo", "latitude": "46.0236", "longitude": "15.4769"}, {"country_code": "SI", "postal_code": "8282", "place_name": "Koprivnica", "latitude": "46.0353", "longitude": "15.5403"}, {"country_code": "SI", "postal_code": "8283", "place_name": "Blanca", "latitude": "45.9833", "longitude": "15.4"}, {"country_code": "SI", "postal_code": "8290", "place_name": "Sevnica", "latitude": "46.0078", "longitude": "15.3156"}, {"country_code": "SI", "postal_code": "8292", "place_name": "Zabukovje", "latitude": "46.055", "longitude": "15.3675"}, {"country_code": "SI", "postal_code": "8293", "place_name": "Studenec", "latitude": "45.9667", "longitude": "15.35"}, {"country_code": "SI", "postal_code": "8294", "place_name": "Bo\u0161tanj", "latitude": "46.0144", "longitude": "15.2825"}, {"country_code": "SI", "postal_code": "8295", "place_name": "Tr\u017ei\u0161\u010de", "latitude": "45.9589", "longitude": "15.1972"}, {"country_code": "SI", "postal_code": "8296", "place_name": "Krmelj", "latitude": "45.9847", "longitude": "15.1894"}, {"country_code": "SI", "postal_code": "8297", "place_name": "\u0160entjan\u017e", "latitude": "46.0114", "longitude": "15.1672"}, {"country_code": "SI", "postal_code": "8310", "place_name": "\u0160entjernej", "latitude": "45.84", "longitude": "15.3361"}, {"country_code": "SI", "postal_code": "8311", "place_name": "Kostanjevica na Krki", "latitude": "45.8461", "longitude": "15.4222"}, {"country_code": "SI", "postal_code": "8312", "place_name": "Podbo\u010dje", "latitude": "45.8667", "longitude": "15.4667"}, {"country_code": "SI", "postal_code": "8321", "place_name": "Brusnice", "latitude": "45.7514", "longitude": "15.1715"}, {"country_code": "SI", "postal_code": "8322", "place_name": "Stopi\u010de", "latitude": "45.7694", "longitude": "15.2097"}, {"country_code": "SI", "postal_code": "8323", "place_name": "Ur\u0161na sela", "latitude": "45.7333", "longitude": "15.1333"}, {"country_code": "SI", "postal_code": "8330", "place_name": "Metlika", "latitude": "45.6472", "longitude": "15.3142"}, {"country_code": "SI", "postal_code": "8331", "place_name": "Suhor", "latitude": "45.5296", "longitude": "14.8708"}, {"country_code": "SI", "postal_code": "8332", "place_name": "Gradac", "latitude": "45.6167", "longitude": "15.25"}, {"country_code": "SI", "postal_code": "8333", "place_name": "Semi\u010d", "latitude": "45.6461", "longitude": "15.1822"}, {"country_code": "SI", "postal_code": "8340", "place_name": "\u010crnomelj", "latitude": "45.5711", "longitude": "15.1889"}, {"country_code": "SI", "postal_code": "8341", "place_name": "Adle\u0161i\u010di", "latitude": "45.5222", "longitude": "15.3065"}, {"country_code": "SI", "postal_code": "8342", "place_name": "Stari trg ob Kolpi", "latitude": "45.4936", "longitude": "15.0772"}, {"country_code": "SI", "postal_code": "8343", "place_name": "Dragatu\u0161", "latitude": "45.5208", "longitude": "15.1756"}, {"country_code": "SI", "postal_code": "8344", "place_name": "Vinica", "latitude": "45.4601", "longitude": "15.254"}, {"country_code": "SI", "postal_code": "8350", "place_name": "Dolenjske Toplice", "latitude": "45.7566", "longitude": "15.0592"}, {"country_code": "SI", "postal_code": "8351", "place_name": "Stra\u017ea", "latitude": "45.78", "longitude": "15.0728"}, {"country_code": "SI", "postal_code": "8360", "place_name": "\u017du\u017eemberk", "latitude": "45.8339", "longitude": "14.9292"}, {"country_code": "SI", "postal_code": "8361", "place_name": "Dvor", "latitude": "45.8139", "longitude": "14.9711"}, {"country_code": "SI", "postal_code": "8362", "place_name": "Hinje", "latitude": "45.7656", "longitude": "14.8822"}, {"country_code": "SI", "postal_code": "8501", "place_name": "Novo mesto", "latitude": "45.804", "longitude": "15.1689"}, {"country_code": "SI", "postal_code": "8600", "place_name": "Novo mesto", "latitude": "45.804", "longitude": "15.1689"}, {"country_code": "SI", "postal_code": "9000", "place_name": "Murska Sobota - dostava", "latitude": "46.6586", "longitude": "16.162"}, {"country_code": "SI", "postal_code": "9001", "place_name": "Murska Sobota - po\u0161tni predali", "latitude": "46.6612", "longitude": "16.1651"}, {"country_code": "SI", "postal_code": "9201", "place_name": "Puconci", "latitude": "46.7067", "longitude": "16.1564"}, {"country_code": "SI", "postal_code": "9202", "place_name": "Ma\u010dkovci", "latitude": "46.7814", "longitude": "16.1689"}, {"country_code": "SI", "postal_code": "9203", "place_name": "Petrovci", "latitude": "46.8053", "longitude": "16.2225"}, {"country_code": "SI", "postal_code": "9204", "place_name": "\u0160alovci", "latitude": "46.825", "longitude": "16.2981"}, {"country_code": "SI", "postal_code": "9205", "place_name": "Hodo\u0161/Hodos", "latitude": "46.7688", "longitude": "16.2396"}, {"country_code": "SI", "postal_code": "9206", "place_name": "Kri\u017eevci", "latitude": "46.7889", "longitude": "16.2469"}, {"country_code": "SI", "postal_code": "9207", "place_name": "Prosenjakovci/Partosfalva", "latitude": "46.7408", "longitude": "16.3175"}, {"country_code": "SI", "postal_code": "9208", "place_name": "Fokovci", "latitude": "46.7333", "longitude": "16.2667"}, {"country_code": "SI", "postal_code": "9220", "place_name": "Lendava/Lendva", "latitude": "46.655", "longitude": "16.2946"}, {"country_code": "SI", "postal_code": "9221", "place_name": "Martjanci", "latitude": "46.6864", "longitude": "16.1978"}, {"country_code": "SI", "postal_code": "9222", "place_name": "Bogojina", "latitude": "46.6761", "longitude": "16.2839"}, {"country_code": "SI", "postal_code": "9223", "place_name": "Dobrovnik/Dobronak", "latitude": "46.655", "longitude": "16.2946"}, {"country_code": "SI", "postal_code": "9224", "place_name": "Turni\u0161\u010de", "latitude": "46.6278", "longitude": "16.3203"}, {"country_code": "SI", "postal_code": "9225", "place_name": "Velika Polana", "latitude": "46.5719", "longitude": "16.3469"}, {"country_code": "SI", "postal_code": "9226", "place_name": "Moravske Toplice", "latitude": "46.6831", "longitude": "16.2208"}, {"country_code": "SI", "postal_code": "9227", "place_name": "Kobilje", "latitude": "46.6847", "longitude": "16.3978"}, {"country_code": "SI", "postal_code": "9231", "place_name": "Beltinci", "latitude": "46.6053", "longitude": "16.2406"}, {"country_code": "SI", "postal_code": "9232", "place_name": "\u010cren\u0161ovci", "latitude": "46.5744", "longitude": "16.2906"}, {"country_code": "SI", "postal_code": "9233", "place_name": "Odranci", "latitude": "46.5867", "longitude": "16.2803"}, {"country_code": "SI", "postal_code": "9240", "place_name": "Ljutomer", "latitude": "46.5208", "longitude": "16.1975"}, {"country_code": "SI", "postal_code": "9241", "place_name": "Ver\u017eej", "latitude": "46.5836", "longitude": "16.1653"}, {"country_code": "SI", "postal_code": "9242", "place_name": "Kri\u017eevci pri Ljutomeru", "latitude": "46.5683", "longitude": "16.1386"}, {"country_code": "SI", "postal_code": "9243", "place_name": "Mala Nedelja", "latitude": "46.5289", "longitude": "16.0558"}, {"country_code": "SI", "postal_code": "9244", "place_name": "Sv. Jurij ob \u0160\u010davnici", "latitude": "46.5594", "longitude": "16.1077"}, {"country_code": "SI", "postal_code": "9245", "place_name": "Spodnji Ivanjci", "latitude": "46.5956", "longitude": "15.9814"}, {"country_code": "SI", "postal_code": "9250", "place_name": "Gornja Radgona", "latitude": "46.6733", "longitude": "15.9922"}, {"country_code": "SI", "postal_code": "9251", "place_name": "Ti\u0161ina", "latitude": "46.6836", "longitude": "16.0525"}, {"country_code": "SI", "postal_code": "9252", "place_name": "Radenci", "latitude": "46.642", "longitude": "16.0378"}, {"country_code": "SI", "postal_code": "9253", "place_name": "Apa\u010de", "latitude": "46.6972", "longitude": "15.9106"}, {"country_code": "SI", "postal_code": "9261", "place_name": "Cankova", "latitude": "46.7208", "longitude": "16.0225"}, {"country_code": "SI", "postal_code": "9262", "place_name": "Roga\u0161ovci", "latitude": "46.8", "longitude": "16.0333"}, {"country_code": "SI", "postal_code": "9263", "place_name": "Kuzma", "latitude": "46.8369", "longitude": "16.0833"}, {"country_code": "SI", "postal_code": "9264", "place_name": "Grad", "latitude": "46.8", "longitude": "16.1"}, {"country_code": "SI", "postal_code": "9265", "place_name": "Bodonci", "latitude": "46.7442", "longitude": "16.0922"}, {"country_code": "SI", "postal_code": "9501", "place_name": "Murska Sobota", "latitude": "46.6625", "longitude": "16.1664"}, {"country_code": "SI", "postal_code": "9502", "place_name": "Radenci", "latitude": "46.642", "longitude": "16.0378"}, {"country_code": "SI", "postal_code": "9600", "place_name": "Murska Sobota", "latitude": "46.6625", "longitude": "16.1664"}]