[{"country_code": "RS", "postal_code": "11000", "place_name": "Beograd", "latitude": "44.804", "longitude": "20.4651"}, {"country_code": "RS", "postal_code": "11031", "place_name": "Brograd", "latitude": "44.8249", "longitude": "20.4331"}, {"country_code": "RS", "postal_code": "11080", "place_name": "Zemun", "latitude": "44.8458", "longitude": "20.4012"}, {"country_code": "RS", "postal_code": "11130", "place_name": "Kalu\u0111erica", "latitude": "44.7542", "longitude": "20.5541"}, {"country_code": "RS", "postal_code": "11194", "place_name": "Ru\u0161anj", "latitude": "44.6848", "longitude": "20.4499"}, {"country_code": "RS", "postal_code": "11211", "place_name": "Bor\u010da", "latitude": "44.8697", "longitude": "20.4541"}, {"country_code": "RS", "postal_code": "11212", "place_name": "Ov\u010da", "latitude": "44.8835", "longitude": "20.5334"}, {"country_code": "RS", "postal_code": "11213", "place_name": "Padinska Skela", "latitude": "44.9429", "longitude": "20.4255"}, {"country_code": "RS", "postal_code": "11215", "place_name": "Slanci", "latitude": "44.8077", "longitude": "20.5718"}, {"country_code": "RS", "postal_code": "11223", "place_name": "Beli Potok", "latitude": "44.7063", "longitude": "20.5177"}, {"country_code": "RS", "postal_code": "11224", "place_name": "Vr\u010din", "latitude": "44.6685", "longitude": "20.5933"}, {"country_code": "RS", "postal_code": "11225", "place_name": "Zuce", "latitude": "44.6981", "longitude": "20.5552"}, {"country_code": "RS", "postal_code": "11226", "place_name": "Pinosava", "latitude": "44.6954", "longitude": "20.483"}, {"country_code": "RS", "postal_code": "11232", "place_name": "Ripanj", "latitude": "44.6386", "longitude": "20.5214"}, {"country_code": "RS", "postal_code": "11233", "place_name": "Ralja", "latitude": "44.5722", "longitude": "20.5622"}, {"country_code": "RS", "postal_code": "11235", "place_name": "Mali Po\u017earevac", "latitude": "44.5633", "longitude": "20.6543"}, {"country_code": "RS", "postal_code": "11251", "place_name": "Ostru\u017enica", "latitude": "44.7277", "longitude": "20.3185"}, {"country_code": "RS", "postal_code": "11253", "place_name": "Srem\u010dica", "latitude": "44.6765", "longitude": "20.3923"}, {"country_code": "RS", "postal_code": "11260", "place_name": "Umka", "latitude": "44.6781", "longitude": "20.3047"}, {"country_code": "RS", "postal_code": "11261", "place_name": "Mala Mo\u0161tanica", "latitude": "44.6383", "longitude": "20.306"}, {"country_code": "RS", "postal_code": "11262", "place_name": "Velika Mo\u0161tanica", "latitude": "44.6649", "longitude": "20.3539"}, {"country_code": "RS", "postal_code": "11271", "place_name": "Sur\u010din", "latitude": "44.7931", "longitude": "20.2803"}, {"country_code": "RS", "postal_code": "11272", "place_name": "Dobanovci", "latitude": "44.8263", "longitude": "20.2249"}, {"country_code": "RS", "postal_code": "11275", "place_name": "Boljevci", "latitude": "44.7235", "longitude": "20.2235"}, {"country_code": "RS", "postal_code": "11276", "place_name": "Jakovo", "latitude": "44.7537", "longitude": "20.2601"}, {"country_code": "RS", "postal_code": "11277", "place_name": "Ugrinovci", "latitude": "44.8763", "longitude": "20.1876"}, {"country_code": "RS", "postal_code": "11279", "place_name": "Be\u010dmen", "latitude": "44.7798", "longitude": "20.2058"}, {"country_code": "RS", "postal_code": "11280", "place_name": "Progar", "latitude": "44.7174", "longitude": "20.1605"}, {"country_code": "RS", "postal_code": "11283", "place_name": "Altina", "latitude": "44.7174", "longitude": "20.1605"}, {"country_code": "RS", "postal_code": "11300", "place_name": "Smederevo", "latitude": "44.6644", "longitude": "20.9276"}, {"country_code": "RS", "postal_code": "11306", "place_name": "Grocka", "latitude": "44.6715", "longitude": "20.7165"}, {"country_code": "RS", "postal_code": "11307", "place_name": "Bole\u010d", "latitude": "44.7265", "longitude": "20.6064"}, {"country_code": "RS", "postal_code": "11308", "place_name": "Begaljica", "latitude": "44.6336", "longitude": "20.695"}, {"country_code": "RS", "postal_code": "11309", "place_name": "Le\u0161tane", "latitude": "44.7312", "longitude": "20.5757"}, {"country_code": "RS", "postal_code": "11310", "place_name": "Lipe", "latitude": "44.641", "longitude": "20.9999"}, {"country_code": "RS", "postal_code": "11311", "place_name": "Radinac", "latitude": "44.6273", "longitude": "20.968"}, {"country_code": "RS", "postal_code": "11312", "place_name": "Mihajlovac", "latitude": "44.5438", "longitude": "20.9732"}, {"country_code": "RS", "postal_code": "11313", "place_name": "Mala Krsna", "latitude": "44.5862", "longitude": "21.0074"}, {"country_code": "RS", "postal_code": "11314", "place_name": "Osipaonica", "latitude": "44.5461", "longitude": "21.0548"}, {"country_code": "RS", "postal_code": "11315", "place_name": "Saraorci", "latitude": "44.4905", "longitude": "21.0816"}, {"country_code": "RS", "postal_code": "11316", "place_name": "Golobok", "latitude": "44.4547", "longitude": "21.0041"}, {"country_code": "RS", "postal_code": "11317", "place_name": "Lozovik", "latitude": "44.4673", "longitude": "21.1015"}, {"country_code": "RS", "postal_code": "11318", "place_name": "Milo\u0161evac", "latitude": "44.4411", "longitude": "21.1108"}, {"country_code": "RS", "postal_code": "11319", "place_name": "Krnjevo", "latitude": "44.4093", "longitude": "21.0476"}, {"country_code": "RS", "postal_code": "11320", "place_name": "Velika Plana", "latitude": "44.3339", "longitude": "21.0768"}, {"country_code": "RS", "postal_code": "11321", "place_name": "Lugav\u010dina", "latitude": "44.5231", "longitude": "21.0708"}, {"country_code": "RS", "postal_code": "11322", "place_name": "Skobalj", "latitude": "44.5646", "longitude": "21.0331"}, {"country_code": "RS", "postal_code": "11323", "place_name": "Veliko Ora\u0161je", "latitude": "44.3711", "longitude": "21.0879"}, {"country_code": "RS", "postal_code": "11324", "place_name": "Staro Selo", "latitude": "44.2943", "longitude": "21.0887"}, {"country_code": "RS", "postal_code": "11325", "place_name": "Markovac", "latitude": "44.2388", "longitude": "21.1071"}, {"country_code": "RS", "postal_code": "11328", "place_name": "Vodanj", "latitude": "44.6096", "longitude": "20.8526"}, {"country_code": "RS", "postal_code": "11329", "place_name": "Vranovo", "latitude": "44.601", "longitude": "20.9945"}, {"country_code": "RS", "postal_code": "11351", "place_name": "Vin\u010da", "latitude": "44.7626", "longitude": "20.6216"}, {"country_code": "RS", "postal_code": "11400", "place_name": "Mladenovac", "latitude": "44.4386", "longitude": "20.6992"}, {"country_code": "RS", "postal_code": "11405", "place_name": "Me\u0111ulu\u017eje", "latitude": "44.4092", "longitude": "20.6893"}, {"country_code": "RS", "postal_code": "11406", "place_name": "Vla\u0161ka", "latitude": "44.5003", "longitude": "20.6873"}, {"country_code": "RS", "postal_code": "11407", "place_name": "Selevac", "latitude": "44.4953", "longitude": "20.873"}, {"country_code": "RS", "postal_code": "11408", "place_name": "Velika Krsna", "latitude": "44.4784", "longitude": "20.8052"}, {"country_code": "RS", "postal_code": "11409", "place_name": "Kova\u010devac", "latitude": "44.44", "longitude": "20.74"}, {"country_code": "RS", "postal_code": "11411", "place_name": "Ratari", "latitude": "44.3537", "longitude": "20.8298"}, {"country_code": "RS", "postal_code": "11412", "place_name": "Jagnjilo", "latitude": "44.3774", "longitude": "20.7294"}, {"country_code": "RS", "postal_code": "11413", "place_name": "Pru\u017eatovac", "latitude": "44.4179", "longitude": "20.6279"}, {"country_code": "RS", "postal_code": "11414", "place_name": "Velika Ivan\u010da", "latitude": "44.4264", "longitude": "20.5803"}, {"country_code": "RS", "postal_code": "11415", "place_name": "Kora\u0107ica", "latitude": "44.451", "longitude": "20.6201"}, {"country_code": "RS", "postal_code": "11420", "place_name": "Smederevska Palanka", "latitude": "44.3655", "longitude": "20.9588"}, {"country_code": "RS", "postal_code": "11423", "place_name": "Azanja", "latitude": "44.4331", "longitude": "20.8797"}, {"country_code": "RS", "postal_code": "11425", "place_name": "Kusadak", "latitude": "44.4002", "longitude": "20.805"}, {"country_code": "RS", "postal_code": "11426", "place_name": "Meljak", "latitude": "44.6231", "longitude": "20.3692"}, {"country_code": "RS", "postal_code": "11427", "place_name": "Vrani\u0107", "latitude": "44.6024", "longitude": "20.3287"}, {"country_code": "RS", "postal_code": "11430", "place_name": "Um\u010dari", "latitude": "44.5836", "longitude": "20.7342"}, {"country_code": "RS", "postal_code": "11431", "place_name": "Kolari", "latitude": "44.5843", "longitude": "20.9014"}, {"country_code": "RS", "postal_code": "11432", "place_name": "Drugovac", "latitude": "44.5461", "longitude": "20.8316"}, {"country_code": "RS", "postal_code": "11433", "place_name": "\u0160ep\u0161in", "latitude": "44.5414", "longitude": "20.7045"}, {"country_code": "RS", "postal_code": "11450", "place_name": "Sopot", "latitude": "44.5197", "longitude": "20.5736"}, {"country_code": "RS", "postal_code": "11453", "place_name": "Roga\u010da (Sopot)", "latitude": "44.492", "longitude": "20.5135"}, {"country_code": "RS", "postal_code": "11454", "place_name": "Sibnica", "latitude": "44.4644", "longitude": "20.4533"}, {"country_code": "RS", "postal_code": "11460", "place_name": "Barajevo", "latitude": "44.6089", "longitude": "20.4547"}, {"country_code": "RS", "postal_code": "11461", "place_name": "Beljina", "latitude": "44.5153", "longitude": "20.406"}, {"country_code": "RS", "postal_code": "11462", "place_name": "Veliki Borak", "latitude": "44.5394", "longitude": "20.3505"}, {"country_code": "RS", "postal_code": "11467", "place_name": "Banatski Dvor", "latitude": "44.5545", "longitude": "20.4037"}, {"country_code": "RS", "postal_code": "11500", "place_name": "Obrenovac", "latitude": "44.6549", "longitude": "20.2002"}, {"country_code": "RS", "postal_code": "11504", "place_name": "Bari\u010d", "latitude": "44.6507", "longitude": "20.2594"}, {"country_code": "RS", "postal_code": "11505", "place_name": "Zabre\u017eje", "latitude": "44.6825", "longitude": "20.2025"}, {"country_code": "RS", "postal_code": "11506", "place_name": "Dra\u017eevac", "latitude": "44.5958", "longitude": "20.2217"}, {"country_code": "RS", "postal_code": "11507", "place_name": "Stubline", "latitude": "44.5748", "longitude": "20.1348"}, {"country_code": "RS", "postal_code": "11508", "place_name": "Grabovac", "latitude": "44.6005", "longitude": "20.0854"}, {"country_code": "RS", "postal_code": "11509", "place_name": "Skela", "latitude": "44.682", "longitude": "20.0576"}, {"country_code": "RS", "postal_code": "11550", "place_name": "Lazarevac", "latitude": "44.3853", "longitude": "20.2557"}, {"country_code": "RS", "postal_code": "11560", "place_name": "Vreoci", "latitude": "44.4434", "longitude": "20.282"}, {"country_code": "RS", "postal_code": "11561", "place_name": "Dudovica", "latitude": "44.2983", "longitude": "20.2631"}, {"country_code": "RS", "postal_code": "11562", "place_name": "Junkovac", "latitude": "44.4496", "longitude": "20.3492"}, {"country_code": "RS", "postal_code": "11563", "place_name": "Veliki Crljeni", "latitude": "44.4722", "longitude": "20.2907"}, {"country_code": "RS", "postal_code": "11564", "place_name": "Stepojevac", "latitude": "44.5128", "longitude": "20.295"}, {"country_code": "RS", "postal_code": "11565", "place_name": "Baro\u0161evac", "latitude": "44.3986", "longitude": "20.3689"}, {"country_code": "RS", "postal_code": "11566", "place_name": "Rudovci", "latitude": "44.3736", "longitude": "20.4123"}, {"country_code": "RS", "postal_code": "11567", "place_name": "Mirosaljci", "latitude": "44.4374", "longitude": "20.4176"}, {"country_code": "RS", "postal_code": "12000", "place_name": "Po\u017earevac", "latitude": "44.6213", "longitude": "21.1878"}, {"country_code": "RS", "postal_code": "12206", "place_name": "Bradarac", "latitude": "44.69", "longitude": "21.2282"}, {"country_code": "RS", "postal_code": "12207", "place_name": "Dubravica", "latitude": "44.6964", "longitude": "21.0802"}, {"country_code": "RS", "postal_code": "12208", "place_name": "Kostolac", "latitude": "44.735", "longitude": "21.1956"}, {"country_code": "RS", "postal_code": "12209", "place_name": "Kli\u010devac", "latitude": "44.7593", "longitude": "21.2904"}, {"country_code": "RS", "postal_code": "12220", "place_name": "Veliko Gradi\u0161te", "latitude": "44.7633", "longitude": "21.5165"}, {"country_code": "RS", "postal_code": "12221", "place_name": "Majilovac", "latitude": "44.6917", "longitude": "21.362"}, {"country_code": "RS", "postal_code": "12222", "place_name": "Brani\u010devo", "latitude": "44.705", "longitude": "21.5383"}, {"country_code": "RS", "postal_code": "12223", "place_name": "Golubac", "latitude": "44.653", "longitude": "21.632"}, {"country_code": "RS", "postal_code": "12224", "place_name": "Dobra", "latitude": "44.6357", "longitude": "21.9085"}, {"country_code": "RS", "postal_code": "12226", "place_name": "Topolovnik", "latitude": "44.7197", "longitude": "21.4423"}, {"country_code": "RS", "postal_code": "12227", "place_name": "Bare", "latitude": "44.6468", "longitude": "21.3306"}, {"country_code": "RS", "postal_code": "12229", "place_name": "Vinci", "latitude": "44.711", "longitude": "21.6061"}, {"country_code": "RS", "postal_code": "12230", "place_name": "Brnjica", "latitude": "44.6524", "longitude": "21.7687"}, {"country_code": "RS", "postal_code": "12240", "place_name": "Ku\u010devo", "latitude": "44.4775", "longitude": "21.67"}, {"country_code": "RS", "postal_code": "12242", "place_name": "Neresnica", "latitude": "44.4425", "longitude": "21.7262"}, {"country_code": "RS", "postal_code": "12253", "place_name": "Srednjevo", "latitude": "44.6449", "longitude": "21.4893"}, {"country_code": "RS", "postal_code": "12254", "place_name": "Rabrovo", "latitude": "44.5764", "longitude": "21.5138"}, {"country_code": "RS", "postal_code": "12255", "place_name": "Duboka", "latitude": "44.5222", "longitude": "21.7603"}, {"country_code": "RS", "postal_code": "12256", "place_name": "Voluja", "latitude": "44.4915", "longitude": "21.765"}, {"country_code": "RS", "postal_code": "12257", "place_name": "Turija (Ku\u010devo)", "latitude": "44.5672", "longitude": "21.6118"}, {"country_code": "RS", "postal_code": "12258", "place_name": "Klenje", "latitude": "44.6011", "longitude": "21.5306"}, {"country_code": "RS", "postal_code": "12300", "place_name": "Petrovac na Mlavi", "latitude": "44.3367", "longitude": "21.4466"}, {"country_code": "RS", "postal_code": "12304", "place_name": "Ranovac", "latitude": "44.4441", "longitude": "21.4762"}, {"country_code": "RS", "postal_code": "12304", "place_name": "Kladurovo", "latitude": "44.4369", "longitude": "21.5441"}, {"country_code": "RS", "postal_code": "12305", "place_name": "Melnica", "latitude": "44.3921", "longitude": "21.5336"}, {"country_code": "RS", "postal_code": "12306", "place_name": "Veliko Laole", "latitude": "44.3195", "longitude": "21.4312"}, {"country_code": "RS", "postal_code": "12307", "place_name": "Burovac", "latitude": "44.2728", "longitude": "21.3578"}, {"country_code": "RS", "postal_code": "12308", "place_name": "Ore\u0161kovica", "latitude": "44.3171", "longitude": "21.3251"}, {"country_code": "RS", "postal_code": "12309", "place_name": "\u0160etonje", "latitude": "44.2723", "longitude": "21.4744"}, {"country_code": "RS", "postal_code": "12309", "place_name": "Vezi\u010devo", "latitude": "44.239", "longitude": "21.4302"}, {"country_code": "RS", "postal_code": "12311", "place_name": "Malo Crni\u0107e", "latitude": "44.5561", "longitude": "21.2856"}, {"country_code": "RS", "postal_code": "12312", "place_name": "Smoljinac", "latitude": "44.6062", "longitude": "21.3461"}, {"country_code": "RS", "postal_code": "12313", "place_name": "Bo\u017eevac", "latitude": "44.5418", "longitude": "21.3943"}, {"country_code": "RS", "postal_code": "12315", "place_name": "Ra\u0161anac", "latitude": "44.4609", "longitude": "21.3623"}, {"country_code": "RS", "postal_code": "12316", "place_name": "Krepoljin", "latitude": "44.2627", "longitude": "21.6045"}, {"country_code": "RS", "postal_code": "12317", "place_name": "Osanica", "latitude": "44.2813", "longitude": "21.6677"}, {"country_code": "RS", "postal_code": "12318", "place_name": "Vukovac", "latitude": "44.259", "longitude": "21.7383"}, {"country_code": "RS", "postal_code": "12320", "place_name": "\u017dagubica", "latitude": "44.1969", "longitude": "21.7884"}, {"country_code": "RS", "postal_code": "12321", "place_name": "Laznica", "latitude": "44.2403", "longitude": "21.81"}, {"country_code": "RS", "postal_code": "12322", "place_name": "Suvi Do", "latitude": "44.2086", "longitude": "21.7275"}, {"country_code": "RS", "postal_code": "12370", "place_name": "Aleksandrovac", "latitude": "44.4492", "longitude": "21.2131"}, {"country_code": "RS", "postal_code": "12372", "place_name": "Poljana", "latitude": "44.5322", "longitude": "21.2026"}, {"country_code": "RS", "postal_code": "12373", "place_name": "Simi\u0107evo", "latitude": "44.3933", "longitude": "21.2107"}, {"country_code": "RS", "postal_code": "12374", "place_name": "\u017dabari", "latitude": "44.3561", "longitude": "21.215"}, {"country_code": "RS", "postal_code": "12375", "place_name": "Porodin", "latitude": "44.3171", "longitude": "21.221"}, {"country_code": "RS", "postal_code": "14000", "place_name": "Valjevo", "latitude": "44.2751", "longitude": "19.8982"}, {"country_code": "RS", "postal_code": "14000", "place_name": "Lipljan", "latitude": "44.2751", "longitude": "19.8982"}, {"country_code": "RS", "postal_code": "14201", "place_name": "Brankovina", "latitude": "44.3466", "longitude": "19.8984"}, {"country_code": "RS", "postal_code": "14202", "place_name": "Rajkovi\u0107", "latitude": "44.2248", "longitude": "20.0131"}, {"country_code": "RS", "postal_code": "14203", "place_name": "Dra\u010di\u0107", "latitude": "44.2157", "longitude": "19.9003"}, {"country_code": "RS", "postal_code": "14204", "place_name": "Div\u010dibare", "latitude": "44.106", "longitude": "19.9925"}, {"country_code": "RS", "postal_code": "14205", "place_name": "Leli\u0107", "latitude": "44.2303", "longitude": "19.8293"}, {"country_code": "RS", "postal_code": "14206", "place_name": "Po\u0107uta", "latitude": "44.2106", "longitude": "19.7327"}, {"country_code": "RS", "postal_code": "14207", "place_name": "Pecka", "latitude": "44.2932", "longitude": "19.5407"}, {"country_code": "RS", "postal_code": "14210", "place_name": "Ub", "latitude": "44.4561", "longitude": "20.0739"}, {"country_code": "RS", "postal_code": "14211", "place_name": "Radljevo", "latitude": "44.4624", "longitude": "20.1906"}, {"country_code": "RS", "postal_code": "14212", "place_name": "Brgule", "latitude": "44.5234", "longitude": "20.1749"}, {"country_code": "RS", "postal_code": "14213", "place_name": "Pambukovica", "latitude": "44.4409", "longitude": "19.9231"}, {"country_code": "RS", "postal_code": "14214", "place_name": "Banjani", "latitude": "44.5377", "longitude": "19.9803"}, {"country_code": "RS", "postal_code": "14221", "place_name": "Popu\u010dke", "latitude": "44.2928", "longitude": "19.9542"}, {"country_code": "RS", "postal_code": "14222", "place_name": "Divci", "latitude": "44.3013", "longitude": "20.03"}, {"country_code": "RS", "postal_code": "14223", "place_name": "Slovac", "latitude": "44.3412", "longitude": "20.0719"}, {"country_code": "RS", "postal_code": "14224", "place_name": "Lajkovac", "latitude": "44.3694", "longitude": "20.1653"}, {"country_code": "RS", "postal_code": "14225", "place_name": "Bogova\u0111a", "latitude": "44.3275", "longitude": "20.2005"}, {"country_code": "RS", "postal_code": "14226", "place_name": "Jabu\u010dje", "latitude": "44.3694", "longitude": "20.1653"}, {"country_code": "RS", "postal_code": "14240", "place_name": "Ljig", "latitude": "44.2301", "longitude": "20.2382"}, {"country_code": "RS", "postal_code": "14242", "place_name": "Mionica", "latitude": "44.2519", "longitude": "20.0817"}, {"country_code": "RS", "postal_code": "14243", "place_name": "Gornja Toplica", "latitude": "44.223", "longitude": "20.1679"}, {"country_code": "RS", "postal_code": "14244", "place_name": "Bre\u017e\u0111e", "latitude": "44.1726", "longitude": "20.0606"}, {"country_code": "RS", "postal_code": "14245", "place_name": "Slavkovica", "latitude": "44.1707", "longitude": "20.2457"}, {"country_code": "RS", "postal_code": "14246", "place_name": "Belanovica", "latitude": "44.2495", "longitude": "20.3961"}, {"country_code": "RS", "postal_code": "14251", "place_name": "Pri\u010devi\u0107", "latitude": "44.2797", "longitude": "19.7689"}, {"country_code": "RS", "postal_code": "14252", "place_name": "Kamenica", "latitude": "44.343", "longitude": "19.7233"}, {"country_code": "RS", "postal_code": "14253", "place_name": "Ose\u010dina", "latitude": "44.3731", "longitude": "19.6014"}, {"country_code": "RS", "postal_code": "14254", "place_name": "Komiri\u0107", "latitude": "44.4123", "longitude": "19.5415"}, {"country_code": "RS", "postal_code": "14255", "place_name": "Stave", "latitude": "44.2588", "longitude": "19.6916"}, {"country_code": "RS", "postal_code": "15000", "place_name": "\u0160abac", "latitude": "44.7467", "longitude": "19.69"}, {"country_code": "RS", "postal_code": "15211", "place_name": "Ma\u010dvanski Pri\u010dinovi\u0107", "latitude": "44.8497", "longitude": "19.6311"}, {"country_code": "RS", "postal_code": "15212", "place_name": "Drenovac", "latitude": "44.8665", "longitude": "19.7094"}, {"country_code": "RS", "postal_code": "15213", "place_name": "Orid", "latitude": "44.7103", "longitude": "19.7997"}, {"country_code": "RS", "postal_code": "15214", "place_name": "Debrc", "latitude": "44.6227", "longitude": "19.9027"}, {"country_code": "RS", "postal_code": "15215", "place_name": "Provo", "latitude": "44.6696", "longitude": "19.9104"}, {"country_code": "RS", "postal_code": "15220", "place_name": "Koceljeva", "latitude": "44.4736", "longitude": "19.8117"}, {"country_code": "RS", "postal_code": "15221", "place_name": "Svileuva", "latitude": "44.5215", "longitude": "19.8279"}, {"country_code": "RS", "postal_code": "15222", "place_name": "Kamenica", "latitude": "44.4733", "longitude": "19.722"}, {"country_code": "RS", "postal_code": "15224", "place_name": "Cerovac", "latitude": "44.6771", "longitude": "19.7514"}, {"country_code": "RS", "postal_code": "15225", "place_name": "Vladimirci", "latitude": "44.6147", "longitude": "19.7853"}, {"country_code": "RS", "postal_code": "15226", "place_name": "Draginje", "latitude": "44.533", "longitude": "19.7625"}, {"country_code": "RS", "postal_code": "15227", "place_name": "Donje Crniljevo", "latitude": "44.4677", "longitude": "19.6257"}, {"country_code": "RS", "postal_code": "15232", "place_name": "Varna", "latitude": "44.6791", "longitude": "19.6515"}, {"country_code": "RS", "postal_code": "15233", "place_name": "Metli\u0107", "latitude": "44.5731", "longitude": "19.6299"}, {"country_code": "RS", "postal_code": "15234", "place_name": "Tekeri\u0161", "latitude": "44.5573", "longitude": "19.5297"}, {"country_code": "RS", "postal_code": "15235", "place_name": "Dobri\u0107", "latitude": "44.7022", "longitude": "19.5793"}, {"country_code": "RS", "postal_code": "15300", "place_name": "Loznica", "latitude": "44.5312", "longitude": "19.2427"}, {"country_code": "RS", "postal_code": "15302", "place_name": "Korenita", "latitude": "44.5121", "longitude": "19.2891"}, {"country_code": "RS", "postal_code": "15303", "place_name": "Tr\u0161i\u0107", "latitude": "44.495", "longitude": "19.2649"}, {"country_code": "RS", "postal_code": "15304", "place_name": "Petlova\u010da", "latitude": "44.7222", "longitude": "19.4467"}, {"country_code": "RS", "postal_code": "15305", "place_name": "Lipolist", "latitude": "44.6978", "longitude": "19.501"}, {"country_code": "RS", "postal_code": "15306", "place_name": "Prnjavor", "latitude": "44.7006", "longitude": "19.3869"}, {"country_code": "RS", "postal_code": "15307", "place_name": "Le\u0161nica", "latitude": "44.6525", "longitude": "19.31"}, {"country_code": "RS", "postal_code": "15308", "place_name": "Jadranska Le\u0161nica", "latitude": "44.5973", "longitude": "19.3521"}, {"country_code": "RS", "postal_code": "15309", "place_name": "Brezjak", "latitude": "44.5097", "longitude": "19.3413"}, {"country_code": "RS", "postal_code": "15310", "place_name": "Ribari", "latitude": "44.7096", "longitude": "19.4247"}, {"country_code": "RS", "postal_code": "15311", "place_name": "Draginac", "latitude": "44.5084", "longitude": "19.4163"}, {"country_code": "RS", "postal_code": "15312", "place_name": "Zavlaka", "latitude": "44.4565", "longitude": "19.4835"}, {"country_code": "RS", "postal_code": "15313", "place_name": "Bela Crkva", "latitude": "44.3955", "longitude": "19.4796"}, {"country_code": "RS", "postal_code": "15314", "place_name": "Krupanj", "latitude": "44.3656", "longitude": "19.3619"}, {"country_code": "RS", "postal_code": "15315", "place_name": "Zaja\u010da", "latitude": "44.4568", "longitude": "19.2443"}, {"country_code": "RS", "postal_code": "15316", "place_name": "Banja Kovilja\u010da", "latitude": "44.5146", "longitude": "19.1528"}, {"country_code": "RS", "postal_code": "15317", "place_name": "Donja Borina", "latitude": "44.4352", "longitude": "19.179"}, {"country_code": "RS", "postal_code": "15318", "place_name": "Mali Zvornik", "latitude": "44.3734", "longitude": "19.1065"}, {"country_code": "RS", "postal_code": "15319", "place_name": "Uzovnica", "latitude": "44.2693", "longitude": "19.3524"}, {"country_code": "RS", "postal_code": "15320", "place_name": "Ljubovija", "latitude": "44.1894", "longitude": "19.3767"}, {"country_code": "RS", "postal_code": "15321", "place_name": "Radalj", "latitude": "44.3964", "longitude": "19.1773"}, {"country_code": "RS", "postal_code": "15322", "place_name": "Velika Reka", "latitude": "44.27", "longitude": "19.2281"}, {"country_code": "RS", "postal_code": "15323", "place_name": "Donja Orovica", "latitude": "44.22", "longitude": "19.4729"}, {"country_code": "RS", "postal_code": "15324", "place_name": "Drla\u010de", "latitude": "44.1432", "longitude": "19.4889"}, {"country_code": "RS", "postal_code": "15341", "place_name": "Lipni\u010dki \u0160or", "latitude": "44.5806", "longitude": "19.2657"}, {"country_code": "RS", "postal_code": "15342", "place_name": "Rainova\u010da", "latitude": "44.5806", "longitude": "19.2657"}, {"country_code": "RS", "postal_code": "15350", "place_name": "Bogati\u0107", "latitude": "44.8375", "longitude": "19.4806"}, {"country_code": "RS", "postal_code": "15352", "place_name": "Zminjak", "latitude": "44.7571", "longitude": "19.4707"}, {"country_code": "RS", "postal_code": "15353", "place_name": "Majur", "latitude": "44.773", "longitude": "19.648"}, {"country_code": "RS", "postal_code": "15354", "place_name": "\u0160titar", "latitude": "44.7941", "longitude": "19.5953"}, {"country_code": "RS", "postal_code": "15355", "place_name": "Crna Bara", "latitude": "44.8737", "longitude": "19.3948"}, {"country_code": "RS", "postal_code": "15356", "place_name": "Glu\u0161ci", "latitude": "44.8902", "longitude": "19.5491"}, {"country_code": "RS", "postal_code": "15357", "place_name": "Klenje", "latitude": "44.8079", "longitude": "19.4351"}, {"country_code": "RS", "postal_code": "15358", "place_name": "Badovinci", "latitude": "44.7853", "longitude": "19.3715"}, {"country_code": "RS", "postal_code": "15359", "place_name": "Dublje", "latitude": "44.8012", "longitude": "19.509"}, {"country_code": "RS", "postal_code": "15362", "place_name": "Banovo Polje", "latitude": "44.9104", "longitude": "19.4492"}, {"country_code": "RS", "postal_code": "16000", "place_name": "Leskovac", "latitude": "42.9981", "longitude": "21.9461"}, {"country_code": "RS", "postal_code": "16201", "place_name": "Manojlovce", "latitude": "43.0143", "longitude": "22.0147"}, {"country_code": "RS", "postal_code": "16203", "place_name": "Vu\u010dje", "latitude": "42.8653", "longitude": "21.9105"}, {"country_code": "RS", "postal_code": "16204", "place_name": "Miro\u0161evce", "latitude": "42.8655", "longitude": "21.8381"}, {"country_code": "RS", "postal_code": "16205", "place_name": "Bojnik", "latitude": "43.0122", "longitude": "21.721"}, {"country_code": "RS", "postal_code": "16206", "place_name": "Kosan\u010di\u0107", "latitude": "43.0883", "longitude": "21.7779"}, {"country_code": "RS", "postal_code": "16210", "place_name": "Vlasotince", "latitude": "42.967", "longitude": "22.134"}, {"country_code": "RS", "postal_code": "16211", "place_name": "Guberevac (Leskovac)", "latitude": "42.9181", "longitude": "22.2328"}, {"country_code": "RS", "postal_code": "16212", "place_name": "Svo\u0111e", "latitude": "42.9773", "longitude": "22.2656"}, {"country_code": "RS", "postal_code": "16213", "place_name": "Sastav Reka", "latitude": "42.9181", "longitude": "22.2328"}, {"country_code": "RS", "postal_code": "16215", "place_name": "Crna Trava", "latitude": "42.8099", "longitude": "22.2988"}, {"country_code": "RS", "postal_code": "16220", "place_name": "Grdelica", "latitude": "42.9016", "longitude": "22.0705"}, {"country_code": "RS", "postal_code": "16221", "place_name": "Velika Grabovnica", "latitude": "42.9246", "longitude": "22.0114"}, {"country_code": "RS", "postal_code": "16222", "place_name": "Predejane", "latitude": "42.8328", "longitude": "22.1291"}, {"country_code": "RS", "postal_code": "16223", "place_name": "Ruplje", "latitude": "42.8395", "longitude": "22.2255"}, {"country_code": "RS", "postal_code": "16230", "place_name": "Lebane", "latitude": "42.9239", "longitude": "21.7375"}, {"country_code": "RS", "postal_code": "16231", "place_name": "Turekovac", "latitude": "42.9843", "longitude": "21.8816"}, {"country_code": "RS", "postal_code": "16232", "place_name": "Bo\u0161njace", "latitude": "42.9463", "longitude": "21.8272"}, {"country_code": "RS", "postal_code": "16233", "place_name": "Orane", "latitude": "42.9863", "longitude": "21.6278"}, {"country_code": "RS", "postal_code": "16236", "place_name": "Klaji\u0107", "latitude": "42.8237", "longitude": "21.7313"}, {"country_code": "RS", "postal_code": "16240", "place_name": "Medve\u0111a", "latitude": "42.8431", "longitude": "21.5833"}, {"country_code": "RS", "postal_code": "16244", "place_name": "Gornji Brestovac", "latitude": "42.8298", "longitude": "21.5432"}, {"country_code": "RS", "postal_code": "16246", "place_name": "Sijarinska Banja", "latitude": "42.7777", "longitude": "21.6037"}, {"country_code": "RS", "postal_code": "16247", "place_name": "Tulare", "latitude": "42.7942", "longitude": "21.4605"}, {"country_code": "RS", "postal_code": "16248", "place_name": "Lece", "latitude": "42.9043", "longitude": "21.5252"}, {"country_code": "RS", "postal_code": "16251", "place_name": "Pe\u010danjevce", "latitude": "43.1351", "longitude": "21.9164"}, {"country_code": "RS", "postal_code": "16252", "place_name": "Razgojna", "latitude": "43.1171", "longitude": "21.955"}, {"country_code": "RS", "postal_code": "16253", "place_name": "Brestovac", "latitude": "43.1532", "longitude": "21.8777"}, {"country_code": "RS", "postal_code": "17501", "place_name": "Vranje", "latitude": "42.5514", "longitude": "21.9003"}, {"country_code": "RS", "postal_code": "17507", "place_name": "Vlase", "latitude": "42.6949", "longitude": "21.8628"}, {"country_code": "RS", "postal_code": "17508", "place_name": "Sveti Ilija", "latitude": "42.4744", "longitude": "22.045"}, {"country_code": "RS", "postal_code": "17510", "place_name": "Vladi\u010din Han", "latitude": "42.7078", "longitude": "22.0633"}, {"country_code": "RS", "postal_code": "17511", "place_name": "Priboj Vranjski", "latitude": "42.6057", "longitude": "22.0121"}, {"country_code": "RS", "postal_code": "17512", "place_name": "Stubal", "latitude": "42.633", "longitude": "22.0334"}, {"country_code": "RS", "postal_code": "17513", "place_name": "Lepenica", "latitude": "42.6696", "longitude": "22.0304"}, {"country_code": "RS", "postal_code": "17514", "place_name": "D\u017eep", "latitude": "42.7682", "longitude": "22.0883"}, {"country_code": "RS", "postal_code": "17520", "place_name": "Bujanovac", "latitude": "42.4592", "longitude": "21.7667"}, {"country_code": "RS", "postal_code": "17521", "place_name": "Ristovac", "latitude": "42.4666", "longitude": "21.8412"}, {"country_code": "RS", "postal_code": "17522", "place_name": "Bilja\u010da", "latitude": "42.3552", "longitude": "21.7478"}, {"country_code": "RS", "postal_code": "17523", "place_name": "Pre\u0161evo", "latitude": "42.3092", "longitude": "21.6492"}, {"country_code": "RS", "postal_code": "17524", "place_name": "Klenike", "latitude": "42.3897", "longitude": "21.8889"}, {"country_code": "RS", "postal_code": "17525", "place_name": "Trgovi\u0161te", "latitude": "42.3528", "longitude": "22.0622"}, {"country_code": "RS", "postal_code": "17526", "place_name": "Donji Stajevac", "latitude": "42.4012", "longitude": "22.1597"}, {"country_code": "RS", "postal_code": "17528", "place_name": "Veliki Trnovac", "latitude": "42.4791", "longitude": "21.7399"}, {"country_code": "RS", "postal_code": "17529", "place_name": "Muhovac", "latitude": "42.5696", "longitude": "21.7542"}, {"country_code": "RS", "postal_code": "17530", "place_name": "Suvojnica", "latitude": "42.6597", "longitude": "22.1234"}, {"country_code": "RS", "postal_code": "17530", "place_name": "Surdulica", "latitude": "42.6906", "longitude": "22.1708"}, {"country_code": "RS", "postal_code": "17531", "place_name": "Jela\u0161nica", "latitude": "42.6404", "longitude": "22.0883"}, {"country_code": "RS", "postal_code": "17532", "place_name": "Vlasina Okruglica", "latitude": "42.6656", "longitude": "22.3192"}, {"country_code": "RS", "postal_code": "17533", "place_name": "Vlasina Rid", "latitude": "42.731", "longitude": "22.3219"}, {"country_code": "RS", "postal_code": "17534", "place_name": "Vlasina Stojkovi\u0107evo", "latitude": "42.6647", "longitude": "22.2748"}, {"country_code": "RS", "postal_code": "17535", "place_name": "Klisura", "latitude": "42.7575", "longitude": "22.4077"}, {"country_code": "RS", "postal_code": "17537", "place_name": "Bo\u017eica", "latitude": "42.6151", "longitude": "22.4035"}, {"country_code": "RS", "postal_code": "17538", "place_name": "Gornja Lisina", "latitude": "42.5579", "longitude": "22.3632"}, {"country_code": "RS", "postal_code": "17540", "place_name": "Bosilegrad", "latitude": "42.5011", "longitude": "22.4724"}, {"country_code": "RS", "postal_code": "17541", "place_name": "Vranjska Banja", "latitude": "42.555", "longitude": "21.9922"}, {"country_code": "RS", "postal_code": "17543", "place_name": "Kriva Feja", "latitude": "42.5591", "longitude": "22.1749"}, {"country_code": "RS", "postal_code": "17544", "place_name": "Donja Ljubata", "latitude": "42.4892", "longitude": "22.3425"}, {"country_code": "RS", "postal_code": "17545", "place_name": "Korbevac", "latitude": "42.5894", "longitude": "22.0225"}, {"country_code": "RS", "postal_code": "17546", "place_name": "Bistar", "latitude": "42.3744", "longitude": "22.4394"}, {"country_code": "RS", "postal_code": "17547", "place_name": "Donje Tlamino", "latitude": "42.3599", "longitude": "22.4259"}, {"country_code": "RS", "postal_code": "17561", "place_name": "Radovnica", "latitude": "42.4336", "longitude": "22.2286"}, {"country_code": "RS", "postal_code": "18000", "place_name": "Ni\u0161", "latitude": "43.3247", "longitude": "21.9033"}, {"country_code": "RS", "postal_code": "18201", "place_name": "Lalinac", "latitude": "43.4446", "longitude": "22.0177"}, {"country_code": "RS", "postal_code": "18202", "place_name": "Gornja Toponica", "latitude": "43.4014", "longitude": "21.8071"}, {"country_code": "RS", "postal_code": "18203", "place_name": "Se\u010danica", "latitude": "43.3737", "longitude": "21.75"}, {"country_code": "RS", "postal_code": "18204", "place_name": "Gornji Matejevac", "latitude": "43.3647", "longitude": "21.9679"}, {"country_code": "RS", "postal_code": "18205", "place_name": "Ni\u0161ka Banja", "latitude": "43.2951", "longitude": "22.0057"}, {"country_code": "RS", "postal_code": "18206", "place_name": "Jela\u0161nica", "latitude": "43.2897", "longitude": "22.0514"}, {"country_code": "RS", "postal_code": "18207", "place_name": "Mal\u010da", "latitude": "43.3343", "longitude": "22.0312"}, {"country_code": "RS", "postal_code": "18208", "place_name": "Gu\u0161evac", "latitude": "43.3914", "longitude": "22.2752"}, {"country_code": "RS", "postal_code": "18209", "place_name": "Medo\u0161evac", "latitude": "43.326", "longitude": "21.8616"}, {"country_code": "RS", "postal_code": "18210", "place_name": "\u017ditkovac", "latitude": "43.5114", "longitude": "21.6923"}, {"country_code": "RS", "postal_code": "18211", "place_name": "Trupale", "latitude": "43.3581", "longitude": "21.7936"}, {"country_code": "RS", "postal_code": "18212", "place_name": "Te\u0161ica", "latitude": "43.4631", "longitude": "21.7495"}, {"country_code": "RS", "postal_code": "18213", "place_name": "Trnjane", "latitude": "43.5384", "longitude": "21.6335"}, {"country_code": "RS", "postal_code": "18214", "place_name": "Kulina", "latitude": "43.4265", "longitude": "21.6165"}, {"country_code": "RS", "postal_code": "18215", "place_name": "Veliko Bonjince", "latitude": "43.4528", "longitude": "21.703"}, {"country_code": "RS", "postal_code": "18216", "place_name": "Korman", "latitude": "43.4528", "longitude": "21.703"}, {"country_code": "RS", "postal_code": "18217", "place_name": "Ljubera\u0111a", "latitude": "43.4528", "longitude": "21.703"}, {"country_code": "RS", "postal_code": "18219", "place_name": "Greja\u010d", "latitude": "43.4193", "longitude": "21.7328"}, {"country_code": "RS", "postal_code": "18220", "place_name": "Aleksinac", "latitude": "43.5417", "longitude": "21.7078"}, {"country_code": "RS", "postal_code": "18221", "place_name": "Vr\u0107enovica", "latitude": "43.4312", "longitude": "21.6701"}, {"country_code": "RS", "postal_code": "18222", "place_name": "Veliki Drenovac", "latitude": "43.412", "longitude": "21.7422"}, {"country_code": "RS", "postal_code": "18223", "place_name": "Dra\u017eevac", "latitude": "43.45", "longitude": "21.7904"}, {"country_code": "RS", "postal_code": "18224", "place_name": "Rutevac", "latitude": "43.5908", "longitude": "21.6111"}, {"country_code": "RS", "postal_code": "18225", "place_name": "Katun Bo\u017ei\u010dki", "latitude": "43.5209", "longitude": "21.7001"}, {"country_code": "RS", "postal_code": "18226", "place_name": "Aleksina\u010dki Rudnik", "latitude": "43.5209", "longitude": "21.7001"}, {"country_code": "RS", "postal_code": "18227", "place_name": "Subotinac", "latitude": "43.6022", "longitude": "21.6935"}, {"country_code": "RS", "postal_code": "18228", "place_name": "Lu\u017eane", "latitude": "43.4808", "longitude": "21.725"}, {"country_code": "RS", "postal_code": "18229", "place_name": "Mozgovo", "latitude": "43.6589", "longitude": "21.6611"}, {"country_code": "RS", "postal_code": "18230", "place_name": "Soko Banja", "latitude": "43.6433", "longitude": "21.8711"}, {"country_code": "RS", "postal_code": "18232", "place_name": "\u010citluk", "latitude": "43.6441", "longitude": "22.022"}, {"country_code": "RS", "postal_code": "18234", "place_name": "Jo\u0161anica", "latitude": "43.7282", "longitude": "21.7741"}, {"country_code": "RS", "postal_code": "18235", "place_name": "\u0160arbanovac", "latitude": "43.7052", "longitude": "21.882"}, {"country_code": "RS", "postal_code": "18236", "place_name": "Vrmd\u017ea", "latitude": "43.7137", "longitude": "21.8186"}, {"country_code": "RS", "postal_code": "18237", "place_name": "Dugo Polje", "latitude": "43.6286", "longitude": "21.9523"}, {"country_code": "RS", "postal_code": "18240", "place_name": "Gad\u017ein Han", "latitude": "43.2228", "longitude": "22.0319"}, {"country_code": "RS", "postal_code": "18241", "place_name": "Gornji Barbe\u0161", "latitude": "43.1997", "longitude": "21.9508"}, {"country_code": "RS", "postal_code": "18242", "place_name": "Donji Du\u0161nik", "latitude": "43.1636", "longitude": "22.1044"}, {"country_code": "RS", "postal_code": "18244", "place_name": "Zaplanjska Toponica", "latitude": "43.1604", "longitude": "21.9239"}, {"country_code": "RS", "postal_code": "18245", "place_name": "Li\u010dki Hanovi", "latitude": "43.1642", "longitude": "22.0396"}, {"country_code": "RS", "postal_code": "18246", "place_name": "Ravna Dubrava", "latitude": "43.0748", "longitude": "22.1871"}, {"country_code": "RS", "postal_code": "18250", "place_name": "Novo Selo", "latitude": "43.3179", "longitude": "21.8164"}, {"country_code": "RS", "postal_code": "18251", "place_name": "Mramor", "latitude": "43.3155", "longitude": "21.7817"}, {"country_code": "RS", "postal_code": "18252", "place_name": "Mero\u0161ina", "latitude": "43.2836", "longitude": "21.7204"}, {"country_code": "RS", "postal_code": "18253", "place_name": "Jugbogdanovac", "latitude": "43.2855", "longitude": "21.7795"}, {"country_code": "RS", "postal_code": "18254", "place_name": "Donje Me\u0111urovo", "latitude": "43.2974", "longitude": "21.8233"}, {"country_code": "RS", "postal_code": "18255", "place_name": "Pukovac", "latitude": "43.1644", "longitude": "21.8525"}, {"country_code": "RS", "postal_code": "18257", "place_name": "Balajinac", "latitude": "43.2744", "longitude": "21.7775"}, {"country_code": "RS", "postal_code": "18258", "place_name": "Jovanovac", "latitude": "43.3453", "longitude": "21.6848"}, {"country_code": "RS", "postal_code": "18260", "place_name": "Popovac", "latitude": "43.3337", "longitude": "21.8297"}, {"country_code": "RS", "postal_code": "18262", "place_name": "\u0106urlina", "latitude": "43.26", "longitude": "21.8858"}, {"country_code": "RS", "postal_code": "18300", "place_name": "Pirot", "latitude": "43.1531", "longitude": "22.5861"}, {"country_code": "RS", "postal_code": "18304", "place_name": "Crnokli\u0161te", "latitude": "43.2338", "longitude": "22.4676"}, {"country_code": "RS", "postal_code": "18306", "place_name": "Visoka R\u017eana", "latitude": "43.1555", "longitude": "22.8107"}, {"country_code": "RS", "postal_code": "18307", "place_name": "Krupac", "latitude": "43.1222", "longitude": "22.6724"}, {"country_code": "RS", "postal_code": "18309", "place_name": "Gnjilan", "latitude": "43.1589", "longitude": "22.5583"}, {"country_code": "RS", "postal_code": "18310", "place_name": "Bela Palanka", "latitude": "43.2183", "longitude": "22.3111"}, {"country_code": "RS", "postal_code": "18311", "place_name": "Si\u0107evo", "latitude": "43.3409", "longitude": "22.0841"}, {"country_code": "RS", "postal_code": "18312", "place_name": "Ostrovica", "latitude": "43.3148", "longitude": "22.1245"}, {"country_code": "RS", "postal_code": "18313", "place_name": "Crvena Reka", "latitude": "43.2717", "longitude": "22.2328"}, {"country_code": "RS", "postal_code": "18314", "place_name": "Dolac", "latitude": "43.319", "longitude": "22.1982"}, {"country_code": "RS", "postal_code": "18315", "place_name": "Babin Kal", "latitude": "43.2939", "longitude": "22.3787"}, {"country_code": "RS", "postal_code": "18320", "place_name": "Dimitrovgrad", "latitude": "43.0142", "longitude": "22.7756"}, {"country_code": "RS", "postal_code": "18321", "place_name": "Gradina", "latitude": "43.0024", "longitude": "22.8029"}, {"country_code": "RS", "postal_code": "18322", "place_name": "Sukovo", "latitude": "43.0499", "longitude": "22.647"}, {"country_code": "RS", "postal_code": "18323", "place_name": "Smilovci", "latitude": "43.0853", "longitude": "22.8512"}, {"country_code": "RS", "postal_code": "18324", "place_name": "Kamenica", "latitude": "43.1343", "longitude": "22.8929"}, {"country_code": "RS", "postal_code": "18326", "place_name": "Poganovo", "latitude": "42.9697", "longitude": "22.6668"}, {"country_code": "RS", "postal_code": "18330", "place_name": "Babu\u0161nica", "latitude": "43.0641", "longitude": "22.4138"}, {"country_code": "RS", "postal_code": "18332", "place_name": "Strelac", "latitude": "42.9842", "longitude": "22.4618"}, {"country_code": "RS", "postal_code": "18333", "place_name": "Zvonce", "latitude": "42.9329", "longitude": "22.5797"}, {"country_code": "RS", "postal_code": "18355", "place_name": "Temska", "latitude": "43.2611", "longitude": "22.543"}, {"country_code": "RS", "postal_code": "18360", "place_name": "Svrljig", "latitude": "43.4133", "longitude": "22.1211"}, {"country_code": "RS", "postal_code": "18365", "place_name": "Prekonoga", "latitude": "43.3955", "longitude": "22.103"}, {"country_code": "RS", "postal_code": "18366", "place_name": "Ni\u0161evac", "latitude": "43.4586", "longitude": "22.0985"}, {"country_code": "RS", "postal_code": "18368", "place_name": "Burdimo", "latitude": "43.4099", "longitude": "22.2372"}, {"country_code": "RS", "postal_code": "18400", "place_name": "Prokuplje", "latitude": "43.2342", "longitude": "21.5881"}, {"country_code": "RS", "postal_code": "18403", "place_name": "Velika Plana", "latitude": "43.3209", "longitude": "21.4405"}, {"country_code": "RS", "postal_code": "18404", "place_name": "Donja Re\u010dica", "latitude": "43.2903", "longitude": "21.4964"}, {"country_code": "RS", "postal_code": "18405", "place_name": "D\u017eigolj", "latitude": "43.3356", "longitude": "21.5605"}, {"country_code": "RS", "postal_code": "18406", "place_name": "Dubovo", "latitude": "43.1114", "longitude": "21.6952"}, {"country_code": "RS", "postal_code": "18407", "place_name": "\u017ditni Potok", "latitude": "43.0902", "longitude": "21.5748"}, {"country_code": "RS", "postal_code": "18408", "place_name": "Dobri Do", "latitude": "42.926", "longitude": "21.3904"}, {"country_code": "RS", "postal_code": "18409", "place_name": "Kru\u0161evica", "latitude": "43.1271", "longitude": "21.4452"}, {"country_code": "RS", "postal_code": "18410", "place_name": "Doljevac", "latitude": "43.1982", "longitude": "21.8326"}, {"country_code": "RS", "postal_code": "18411", "place_name": "Belotinac", "latitude": "43.2651", "longitude": "21.8525"}, {"country_code": "RS", "postal_code": "18412", "place_name": "\u017ditora\u0111a", "latitude": "43.19", "longitude": "21.7131"}, {"country_code": "RS", "postal_code": "18413", "place_name": "Pejkovac", "latitude": "43.2261", "longitude": "21.7329"}, {"country_code": "RS", "postal_code": "18414", "place_name": "Donje Crnatovo", "latitude": "43.1523", "longitude": "21.7727"}, {"country_code": "RS", "postal_code": "18415", "place_name": "Malo\u0161i\u0161te", "latitude": "43.2399", "longitude": "21.8676"}, {"country_code": "RS", "postal_code": "18417", "place_name": "\u010ce\u010dina", "latitude": "43.1985", "longitude": "21.8698"}, {"country_code": "RS", "postal_code": "18420", "place_name": "Blace", "latitude": "43.2953", "longitude": "21.2858"}, {"country_code": "RS", "postal_code": "18421", "place_name": "Donja Trnava", "latitude": "43.2541", "longitude": "21.5327"}, {"country_code": "RS", "postal_code": "18423", "place_name": "Mala Plana", "latitude": "43.2535", "longitude": "21.4761"}, {"country_code": "RS", "postal_code": "18424", "place_name": "Beloljin", "latitude": "43.2385", "longitude": "21.3967"}, {"country_code": "RS", "postal_code": "18425", "place_name": "Gornja Dragu\u0161a", "latitude": "43.2795", "longitude": "21.3603"}, {"country_code": "RS", "postal_code": "18426", "place_name": "Barbatovac", "latitude": "43.2281", "longitude": "21.2589"}, {"country_code": "RS", "postal_code": "18430", "place_name": "Kur\u0161umlija", "latitude": "43.1383", "longitude": "21.2734"}, {"country_code": "RS", "postal_code": "18432", "place_name": "Barlovo", "latitude": "43.1815", "longitude": "21.3534"}, {"country_code": "RS", "postal_code": "18433", "place_name": "Prolom Banja", "latitude": "43.1896", "longitude": "21.2124"}, {"country_code": "RS", "postal_code": "18435", "place_name": "Kur\u0161umlijska Banja", "latitude": "43.1896", "longitude": "21.2124"}, {"country_code": "RS", "postal_code": "18436", "place_name": "Mer\u0107ez", "latitude": "43.2378", "longitude": "21.0662"}, {"country_code": "RS", "postal_code": "18437", "place_name": "Lukovska Banja", "latitude": "43.1896", "longitude": "21.2124"}, {"country_code": "RS", "postal_code": "18438", "place_name": "\u017du\u010d", "latitude": "43.2007", "longitude": "21.1568"}, {"country_code": "RS", "postal_code": "18440", "place_name": "Ra\u010da", "latitude": "43.008", "longitude": "21.3211"}, {"country_code": "RS", "postal_code": "18445", "place_name": "Merdare", "latitude": "42.9291", "longitude": "21.263"}, {"country_code": "RS", "postal_code": "19000", "place_name": "Zaje\u010dar", "latitude": "43.9036", "longitude": "22.2641"}, {"country_code": "RS", "postal_code": "19204", "place_name": "Metovnica", "latitude": "43.9609", "longitude": "22.1379"}, {"country_code": "RS", "postal_code": "19205", "place_name": "Gradskovo", "latitude": "44.021", "longitude": "22.3874"}, {"country_code": "RS", "postal_code": "19206", "place_name": "Veliki Izvor", "latitude": "43.9184", "longitude": "22.3329"}, {"country_code": "RS", "postal_code": "19208", "place_name": "Lubnica", "latitude": "43.8673", "longitude": "22.1972"}, {"country_code": "RS", "postal_code": "19209", "place_name": "Mali Jasenovac", "latitude": "44.0351", "longitude": "22.4492"}, {"country_code": "RS", "postal_code": "19210", "place_name": "Bor", "latitude": "44.0749", "longitude": "22.0959"}, {"country_code": "RS", "postal_code": "19213", "place_name": "Donja Bela Reka", "latitude": "44.0724", "longitude": "22.2061"}, {"country_code": "RS", "postal_code": "19214", "place_name": "Rgotina", "latitude": "44.0116", "longitude": "22.2739"}, {"country_code": "RS", "postal_code": "19215", "place_name": "Zlot", "latitude": "44.0085", "longitude": "21.9855"}, {"country_code": "RS", "postal_code": "19216", "place_name": "Brestova\u010dka Banja", "latitude": "44.0594", "longitude": "22.1315"}, {"country_code": "RS", "postal_code": "19219", "place_name": "Krivelj", "latitude": "44.1294", "longitude": "22.0961"}, {"country_code": "RS", "postal_code": "19220", "place_name": "Donji Milanovac", "latitude": "44.4659", "longitude": "22.1517"}, {"country_code": "RS", "postal_code": "19221", "place_name": "Slatina", "latitude": "44.0415", "longitude": "22.1597"}, {"country_code": "RS", "postal_code": "19222", "place_name": "Kloko\u010devac", "latitude": "44.346", "longitude": "22.1798"}, {"country_code": "RS", "postal_code": "19223", "place_name": "Koprivnica", "latitude": "44.0478", "longitude": "22.3255"}, {"country_code": "RS", "postal_code": "19224", "place_name": "Sala\u0161", "latitude": "44.1122", "longitude": "22.318"}, {"country_code": "RS", "postal_code": "19225", "place_name": "Sikole", "latitude": "44.1772", "longitude": "22.3034"}, {"country_code": "RS", "postal_code": "19226", "place_name": "O\u0161trelj", "latitude": "44.0704", "longitude": "22.1593"}, {"country_code": "RS", "postal_code": "19227", "place_name": "Zvezdan", "latitude": "43.9009", "longitude": "22.2143"}, {"country_code": "RS", "postal_code": "19228", "place_name": "Gamzigradska Banja", "latitude": "44.1452", "longitude": "22.2265"}, {"country_code": "RS", "postal_code": "19229", "place_name": "Borski Brestovac", "latitude": "44.1452", "longitude": "22.2265"}, {"country_code": "RS", "postal_code": "19233", "place_name": "Podgorac", "latitude": "43.9391", "longitude": "21.9491"}, {"country_code": "RS", "postal_code": "19234", "place_name": "Luka", "latitude": "44.1703", "longitude": "22.1836"}, {"country_code": "RS", "postal_code": "19235", "place_name": "Velika Jasikova", "latitude": "44.0831", "longitude": "22.361"}, {"country_code": "RS", "postal_code": "19250", "place_name": "Majdanpek", "latitude": "44.4277", "longitude": "21.946"}, {"country_code": "RS", "postal_code": "19257", "place_name": "Rudna Glava", "latitude": "44.3406", "longitude": "22.0642"}, {"country_code": "RS", "postal_code": "19258", "place_name": "Vlaole", "latitude": "44.2682", "longitude": "21.9847"}, {"country_code": "RS", "postal_code": "19300", "place_name": "Negotin", "latitude": "44.2264", "longitude": "22.5308"}, {"country_code": "RS", "postal_code": "19303", "place_name": "\u0160tubik", "latitude": "44.2922", "longitude": "22.3523"}, {"country_code": "RS", "postal_code": "19304", "place_name": "Jabukovac", "latitude": "44.3484", "longitude": "22.3822"}, {"country_code": "RS", "postal_code": "19305", "place_name": "Urovica", "latitude": "44.4003", "longitude": "22.4011"}, {"country_code": "RS", "postal_code": "19306", "place_name": "Trnjane", "latitude": "44.2208", "longitude": "22.3588"}, {"country_code": "RS", "postal_code": "19307", "place_name": "Plavna", "latitude": "44.2959", "longitude": "22.2598"}, {"country_code": "RS", "postal_code": "19310", "place_name": "Negotin", "latitude": "44.2264", "longitude": "22.5308"}, {"country_code": "RS", "postal_code": "19311", "place_name": "Nikoli\u010devo", "latitude": "43.9609", "longitude": "22.2376"}, {"country_code": "RS", "postal_code": "19312", "place_name": "Vra\u017eogrnac", "latitude": "43.9618", "longitude": "22.3199"}, {"country_code": "RS", "postal_code": "19313", "place_name": "Brusnik", "latitude": "44.1067", "longitude": "22.4481"}, {"country_code": "RS", "postal_code": "19314", "place_name": "Rajac", "latitude": "44.0941", "longitude": "22.5571"}, {"country_code": "RS", "postal_code": "19315", "place_name": "Bra\u0107evac", "latitude": "44.0697", "longitude": "22.5041"}, {"country_code": "RS", "postal_code": "19316", "place_name": "Kobi\u0161nica", "latitude": "44.199", "longitude": "22.5959"}, {"country_code": "RS", "postal_code": "19317", "place_name": "Mokranja", "latitude": "44.1581", "longitude": "22.5442"}, {"country_code": "RS", "postal_code": "19318", "place_name": "Rogljevo", "latitude": "44.1246", "longitude": "22.564"}, {"country_code": "RS", "postal_code": "19320", "place_name": "Kladovo", "latitude": "44.6115", "longitude": "22.6095"}, {"country_code": "RS", "postal_code": "19321", "place_name": "Podvr\u0161ka", "latitude": "44.5852", "longitude": "22.4994"}, {"country_code": "RS", "postal_code": "19322", "place_name": "Mihajlovac", "latitude": "44.3662", "longitude": "22.4982"}, {"country_code": "RS", "postal_code": "19323", "place_name": "Brza Palanka", "latitude": "44.4709", "longitude": "22.4468"}, {"country_code": "RS", "postal_code": "19325", "place_name": "Tekija", "latitude": "44.6871", "longitude": "22.4143"}, {"country_code": "RS", "postal_code": "19326", "place_name": "Sip", "latitude": "44.5321", "longitude": "22.5271"}, {"country_code": "RS", "postal_code": "19327", "place_name": "Grabovica", "latitude": "44.4935", "longitude": "22.4894"}, {"country_code": "RS", "postal_code": "19328", "place_name": "Velesnica", "latitude": "44.5189", "longitude": "22.5522"}, {"country_code": "RS", "postal_code": "19329", "place_name": "Korbovo", "latitude": "44.5237", "longitude": "22.7073"}, {"country_code": "RS", "postal_code": "19330", "place_name": "Prahovo", "latitude": "44.2936", "longitude": "22.5831"}, {"country_code": "RS", "postal_code": "19334", "place_name": "Radujevac", "latitude": "44.2668", "longitude": "22.6679"}, {"country_code": "RS", "postal_code": "19335", "place_name": "Du\u0161anovac", "latitude": "44.2935", "longitude": "22.5236"}, {"country_code": "RS", "postal_code": "19340", "place_name": "Mini\u0107evo", "latitude": "43.6843", "longitude": "22.2933"}, {"country_code": "RS", "postal_code": "19341", "place_name": "Grljan", "latitude": "43.86", "longitude": "22.2931"}, {"country_code": "RS", "postal_code": "19342", "place_name": "Grli\u0161te", "latitude": "43.813", "longitude": "22.2449"}, {"country_code": "RS", "postal_code": "19343", "place_name": "Lenovac", "latitude": "43.8052", "longitude": "22.1649"}, {"country_code": "RS", "postal_code": "19344", "place_name": "Vratarnica", "latitude": "43.7949", "longitude": "22.3034"}, {"country_code": "RS", "postal_code": "19345", "place_name": "Donje Zuni\u010de", "latitude": "43.6226", "longitude": "22.2768"}, {"country_code": "RS", "postal_code": "19347", "place_name": "Mali Izvor", "latitude": "43.7274", "longitude": "22.3184"}, {"country_code": "RS", "postal_code": "19350", "place_name": "Knja\u017eevac", "latitude": "43.5663", "longitude": "22.257"}, {"country_code": "RS", "postal_code": "19352", "place_name": "Donja Kamenica", "latitude": "43.4882", "longitude": "22.3263"}, {"country_code": "RS", "postal_code": "19353", "place_name": "Kalna", "latitude": "43.4166", "longitude": "22.4063"}, {"country_code": "RS", "postal_code": "19362", "place_name": "Podvis", "latitude": "43.5473", "longitude": "22.1873"}, {"country_code": "RS", "postal_code": "19366", "place_name": "Beli Potok", "latitude": "43.5328", "longitude": "22.0833"}, {"country_code": "RS", "postal_code": "19367", "place_name": "Vasilj", "latitude": "43.5703", "longitude": "22.1558"}, {"country_code": "RS", "postal_code": "19368", "place_name": "Vina", "latitude": "43.6186", "longitude": "22.1458"}, {"country_code": "RS", "postal_code": "19369", "place_name": "Bu\u010dje", "latitude": "43.68", "longitude": "22.1272"}, {"country_code": "RS", "postal_code": "19370", "place_name": "Boljevac", "latitude": "43.8303", "longitude": "21.9531"}, {"country_code": "RS", "postal_code": "19371", "place_name": "Lukovo", "latitude": "43.8029", "longitude": "21.8393"}, {"country_code": "RS", "postal_code": "19372", "place_name": "Bogovina", "latitude": "43.893", "longitude": "21.9499"}, {"country_code": "RS", "postal_code": "19373", "place_name": "\u0160arbanovac", "latitude": "43.9613", "longitude": "22.0752"}, {"country_code": "RS", "postal_code": "19375", "place_name": "Krivi Vir", "latitude": "43.8231", "longitude": "21.749"}, {"country_code": "RS", "postal_code": "19376", "place_name": "Sumrakovac", "latitude": "43.9399", "longitude": "22.0305"}, {"country_code": "RS", "postal_code": "19377", "place_name": "Savinac", "latitude": "43.9056", "longitude": "22.0423"}, {"country_code": "RS", "postal_code": "19378", "place_name": "Osni\u0107", "latitude": "43.8868", "longitude": "22.0991"}, {"country_code": "RS", "postal_code": "21102", "place_name": "Novi Sad", "latitude": "45.2517", "longitude": "19.8369"}, {"country_code": "RS", "postal_code": "21131", "place_name": "Petrovaradin", "latitude": "45.2467", "longitude": "19.8794"}, {"country_code": "RS", "postal_code": "21201", "place_name": "Rumenka", "latitude": "45.294", "longitude": "19.7431"}, {"country_code": "RS", "postal_code": "21203", "place_name": "Veternik", "latitude": "45.2545", "longitude": "19.7588"}, {"country_code": "RS", "postal_code": "21205", "place_name": "Sremski Karlovci", "latitude": "45.2028", "longitude": "19.9337"}, {"country_code": "RS", "postal_code": "21207", "place_name": "Ledinci", "latitude": "45.187", "longitude": "19.8055"}, {"country_code": "RS", "postal_code": "21208", "place_name": "Sremska Kamenica", "latitude": "45.2233", "longitude": "19.8426"}, {"country_code": "RS", "postal_code": "21209", "place_name": "Bukovac", "latitude": "45.1897", "longitude": "19.8952"}, {"country_code": "RS", "postal_code": "21211", "place_name": "Kisa\u010d", "latitude": "45.3542", "longitude": "19.7297"}, {"country_code": "RS", "postal_code": "21212", "place_name": "Stepanovi\u0107evo", "latitude": "45.4137", "longitude": "19.7"}, {"country_code": "RS", "postal_code": "21213", "place_name": "Zmajevo", "latitude": "45.4541", "longitude": "19.6905"}, {"country_code": "RS", "postal_code": "21214", "place_name": "Sirig", "latitude": "45.4403", "longitude": "19.8104"}, {"country_code": "RS", "postal_code": "21215", "place_name": "Turija", "latitude": "45.5386", "longitude": "19.8564"}, {"country_code": "RS", "postal_code": "21216", "place_name": "Nadalj", "latitude": "45.5086", "longitude": "19.9236"}, {"country_code": "RS", "postal_code": "21217", "place_name": "Ba\u010dko Gradi\u0161te", "latitude": "45.5327", "longitude": "20.0308"}, {"country_code": "RS", "postal_code": "21220", "place_name": "Be\u010dej", "latitude": "45.6163", "longitude": "20.0333"}, {"country_code": "RS", "postal_code": "21225", "place_name": "Radi\u010devi\u0107", "latitude": "45.5819", "longitude": "19.9167"}, {"country_code": "RS", "postal_code": "21226", "place_name": "Ba\u010dko Petrovo Selo", "latitude": "45.7068", "longitude": "20.0793"}, {"country_code": "RS", "postal_code": "21227", "place_name": "Mile\u0161evo", "latitude": "45.7346", "longitude": "19.8213"}, {"country_code": "RS", "postal_code": "21230", "place_name": "\u017dabalj", "latitude": "45.3722", "longitude": "20.0639"}, {"country_code": "RS", "postal_code": "21233", "place_name": "\u010cenej", "latitude": "45.3683", "longitude": "19.8042"}, {"country_code": "RS", "postal_code": "21234", "place_name": "Ba\u010dki Jarak", "latitude": "45.37", "longitude": "19.8751"}, {"country_code": "RS", "postal_code": "21235", "place_name": "Temerin", "latitude": "45.4086", "longitude": "19.8892"}, {"country_code": "RS", "postal_code": "21236", "place_name": "Temerin", "latitude": "45.4086", "longitude": "19.8892"}, {"country_code": "RS", "postal_code": "21237", "place_name": "Gospo\u0111inci", "latitude": "45.4038", "longitude": "19.9881"}, {"country_code": "RS", "postal_code": "21238", "place_name": "\u010curug", "latitude": "45.4722", "longitude": "20.0686"}, {"country_code": "RS", "postal_code": "21239", "place_name": "\u0110ur\u0111evo", "latitude": "45.4005", "longitude": "19.9397"}, {"country_code": "RS", "postal_code": "21240", "place_name": "Titel", "latitude": "45.2061", "longitude": "20.2944"}, {"country_code": "RS", "postal_code": "21241", "place_name": "Ka\u0107", "latitude": "45.3041", "longitude": "19.943"}, {"country_code": "RS", "postal_code": "21242", "place_name": "Budisava", "latitude": "45.2814", "longitude": "19.9939"}, {"country_code": "RS", "postal_code": "21243", "place_name": "Kovilj", "latitude": "45.2342", "longitude": "20.0233"}, {"country_code": "RS", "postal_code": "21244", "place_name": "\u0160ajka\u0161", "latitude": "45.2732", "longitude": "20.0905"}, {"country_code": "RS", "postal_code": "21245", "place_name": "Mo\u0161orin", "latitude": "45.302", "longitude": "20.1692"}, {"country_code": "RS", "postal_code": "21246", "place_name": "Vilovo", "latitude": "45.2486", "longitude": "20.1552"}, {"country_code": "RS", "postal_code": "21247", "place_name": "Gardinovci", "latitude": "45.2036", "longitude": "20.1356"}, {"country_code": "RS", "postal_code": "21248", "place_name": "Lok", "latitude": "45.2158", "longitude": "20.2122"}, {"country_code": "RS", "postal_code": "21299", "place_name": "Rakovac", "latitude": "45.2078", "longitude": "19.7679"}, {"country_code": "RS", "postal_code": "21300", "place_name": "Beo\u010din", "latitude": "45.2083", "longitude": "19.7206"}, {"country_code": "RS", "postal_code": "21311", "place_name": "\u010cerevi\u0107", "latitude": "45.2201", "longitude": "19.6625"}, {"country_code": "RS", "postal_code": "21312", "place_name": "Bano\u0161tor", "latitude": "45.2126", "longitude": "19.6118"}, {"country_code": "RS", "postal_code": "21313", "place_name": "Susek", "latitude": "45.2228", "longitude": "19.5335"}, {"country_code": "RS", "postal_code": "21314", "place_name": "Ne\u0161tin", "latitude": "45.2231", "longitude": "19.4542"}, {"country_code": "RS", "postal_code": "21315", "place_name": "Lug", "latitude": "45.1822", "longitude": "19.5452"}, {"country_code": "RS", "postal_code": "21400", "place_name": "Ba\u010dka Palanka", "latitude": "45.2497", "longitude": "19.3966"}, {"country_code": "RS", "postal_code": "21410", "place_name": "Futog", "latitude": "45.2387", "longitude": "19.7142"}, {"country_code": "RS", "postal_code": "21411", "place_name": "Bege\u010d", "latitude": "45.2367", "longitude": "19.6231"}, {"country_code": "RS", "postal_code": "21412", "place_name": "Glo\u017ean", "latitude": "45.2795", "longitude": "19.5684"}, {"country_code": "RS", "postal_code": "21413", "place_name": "\u010celarevo", "latitude": "45.27", "longitude": "19.5248"}, {"country_code": "RS", "postal_code": "21420", "place_name": "Ba\u010d", "latitude": "45.3919", "longitude": "19.2367"}, {"country_code": "RS", "postal_code": "21421", "place_name": "Kara\u0111or\u0111evo", "latitude": "45.2922", "longitude": "19.3043"}, {"country_code": "RS", "postal_code": "21422", "place_name": "Mladenovo", "latitude": "45.3034", "longitude": "19.2617"}, {"country_code": "RS", "postal_code": "21423", "place_name": "Obrovac", "latitude": "45.3211", "longitude": "19.3505"}, {"country_code": "RS", "postal_code": "21424", "place_name": "Tovari\u0161evo", "latitude": "45.355", "longitude": "19.3243"}, {"country_code": "RS", "postal_code": "21425", "place_name": "Selen\u010da", "latitude": "45.4096", "longitude": "19.3002"}, {"country_code": "RS", "postal_code": "21426", "place_name": "Vajska", "latitude": "45.4108", "longitude": "19.1119"}, {"country_code": "RS", "postal_code": "21427", "place_name": "Bo\u0111ani", "latitude": "45.3896", "longitude": "19.1067"}, {"country_code": "RS", "postal_code": "21428", "place_name": "Plavna", "latitude": "45.3491", "longitude": "19.1269"}, {"country_code": "RS", "postal_code": "21429", "place_name": "Ba\u010dko Novo Selo", "latitude": "45.2934", "longitude": "19.1411"}, {"country_code": "RS", "postal_code": "21431", "place_name": "Nova Gajdobra", "latitude": "45.3309", "longitude": "19.4361"}, {"country_code": "RS", "postal_code": "21432", "place_name": "Gajdobra", "latitude": "45.3506", "longitude": "19.4458"}, {"country_code": "RS", "postal_code": "21433", "place_name": "Silba\u0161", "latitude": "45.3938", "longitude": "19.4611"}, {"country_code": "RS", "postal_code": "21434", "place_name": "Parage", "latitude": "45.4147", "longitude": "19.4031"}, {"country_code": "RS", "postal_code": "21460", "place_name": "Vrbas", "latitude": "45.5714", "longitude": "19.6408"}, {"country_code": "RS", "postal_code": "21465", "place_name": "Ba\u010dko Dobro Polje", "latitude": "45.5015", "longitude": "19.6898"}, {"country_code": "RS", "postal_code": "21466", "place_name": "Kucura", "latitude": "45.5205", "longitude": "19.5887"}, {"country_code": "RS", "postal_code": "21467", "place_name": "Savino Selo", "latitude": "45.5066", "longitude": "19.5223"}, {"country_code": "RS", "postal_code": "21468", "place_name": "Despotovo", "latitude": "45.4598", "longitude": "19.5265"}, {"country_code": "RS", "postal_code": "21469", "place_name": "Pivnice", "latitude": "45.4704", "longitude": "19.4554"}, {"country_code": "RS", "postal_code": "21470", "place_name": "Ba\u010dki Petrovac", "latitude": "45.3606", "longitude": "19.5917"}, {"country_code": "RS", "postal_code": "21471", "place_name": "Ravno Selo", "latitude": "45.4497", "longitude": "19.621"}, {"country_code": "RS", "postal_code": "21472", "place_name": "Kulpin", "latitude": "45.4024", "longitude": "19.5881"}, {"country_code": "RS", "postal_code": "21473", "place_name": "Magli\u0107", "latitude": "45.3625", "longitude": "19.5321"}, {"country_code": "RS", "postal_code": "21480", "place_name": "Srbobran", "latitude": "45.5539", "longitude": "19.8028"}, {"country_code": "RS", "postal_code": "22000", "place_name": "Sremska Mitrovica", "latitude": "44.9764", "longitude": "19.6122"}, {"country_code": "RS", "postal_code": "22201", "place_name": "Zasavica", "latitude": "44.9705", "longitude": "19.5311"}, {"country_code": "RS", "postal_code": "22202", "place_name": "Ma\u010dvanska Mitrovica", "latitude": "44.9674", "longitude": "19.5931"}, {"country_code": "RS", "postal_code": "22203", "place_name": "No\u0107aj", "latitude": "44.9268", "longitude": "19.5504"}, {"country_code": "RS", "postal_code": "22204", "place_name": "Sala\u0161 No\u0107ajski", "latitude": "44.9472", "longitude": "19.5861"}, {"country_code": "RS", "postal_code": "22205", "place_name": "Ravnje", "latitude": "44.9433", "longitude": "19.4228"}, {"country_code": "RS", "postal_code": "22207", "place_name": "Le\u017eimir", "latitude": "45.1232", "longitude": "19.5707"}, {"country_code": "RS", "postal_code": "22208", "place_name": "Man\u0111elos", "latitude": "45.0837", "longitude": "19.5976"}, {"country_code": "RS", "postal_code": "22211", "place_name": "Veliki Radinci", "latitude": "45.0452", "longitude": "19.6747"}, {"country_code": "RS", "postal_code": "22212", "place_name": "Be\u0161enovo", "latitude": "45.0836", "longitude": "19.7041"}, {"country_code": "RS", "postal_code": "22213", "place_name": "Grgurevci", "latitude": "45.1043", "longitude": "19.6464"}, {"country_code": "RS", "postal_code": "22217", "place_name": "Bosut", "latitude": "44.9298", "longitude": "19.3609"}, {"country_code": "RS", "postal_code": "22221", "place_name": "La\u0107arak", "latitude": "44.997", "longitude": "19.5699"}, {"country_code": "RS", "postal_code": "22222", "place_name": "Martinci", "latitude": "45.0112", "longitude": "19.4597"}, {"country_code": "RS", "postal_code": "22223", "place_name": "Kuzmin", "latitude": "45.0223", "longitude": "19.4046"}, {"country_code": "RS", "postal_code": "22224", "place_name": "Kukujevci", "latitude": "45.0697", "longitude": "19.3407"}, {"country_code": "RS", "postal_code": "22225", "place_name": "Ba\u010dinci", "latitude": "45.0816", "longitude": "19.307"}, {"country_code": "RS", "postal_code": "22230", "place_name": "Erdevik", "latitude": "45.1172", "longitude": "19.4088"}, {"country_code": "RS", "postal_code": "22231", "place_name": "\u010calma", "latitude": "45.0795", "longitude": "19.507"}, {"country_code": "RS", "postal_code": "22232", "place_name": "Divo\u0161", "latitude": "45.1109", "longitude": "19.5098"}, {"country_code": "RS", "postal_code": "22239", "place_name": "\u0160id", "latitude": "45.1283", "longitude": "19.2264"}, {"country_code": "RS", "postal_code": "22241", "place_name": "Va\u0161ica", "latitude": "45.095", "longitude": "19.1861"}, {"country_code": "RS", "postal_code": "22242", "place_name": "Berkasovo", "latitude": "45.1459", "longitude": "19.2527"}, {"country_code": "RS", "postal_code": "22243", "place_name": "Sot", "latitude": "45.1608", "longitude": "19.3178"}, {"country_code": "RS", "postal_code": "22244", "place_name": "Ada\u0161evci", "latitude": "45.0793", "longitude": "19.2213"}, {"country_code": "RS", "postal_code": "22245", "place_name": "Morovi\u0107", "latitude": "45.0099", "longitude": "19.2151"}, {"country_code": "RS", "postal_code": "22246", "place_name": "Vi\u0161nji\u0107evo", "latitude": "44.9673", "longitude": "19.2899"}, {"country_code": "RS", "postal_code": "22247", "place_name": "Sremska Ra\u010da", "latitude": "44.9208", "longitude": "19.2858"}, {"country_code": "RS", "postal_code": "22248", "place_name": "Jamena", "latitude": "44.884", "longitude": "19.0638"}, {"country_code": "RS", "postal_code": "22250", "place_name": "Ilinci", "latitude": "45.1135", "longitude": "19.1239"}, {"country_code": "RS", "postal_code": "22251", "place_name": "Batrovci", "latitude": "45.0527", "longitude": "19.1323"}, {"country_code": "RS", "postal_code": "22253", "place_name": "Bingula", "latitude": "45.0995", "longitude": "19.4486"}, {"country_code": "RS", "postal_code": "22254", "place_name": "Biki\u0107 Do", "latitude": "45.1542", "longitude": "19.2926"}, {"country_code": "RS", "postal_code": "22255", "place_name": "Ljuba", "latitude": "45.1578", "longitude": "19.389"}, {"country_code": "RS", "postal_code": "22256", "place_name": "Molovin", "latitude": "45.183", "longitude": "19.3121"}, {"country_code": "RS", "postal_code": "22257", "place_name": "Privina Glava", "latitude": "45.1419", "longitude": "19.2958"}, {"country_code": "RS", "postal_code": "22258", "place_name": "Gibarac", "latitude": "45.1039", "longitude": "19.2637"}, {"country_code": "RS", "postal_code": "22300", "place_name": "Stara Pazova", "latitude": "44.985", "longitude": "20.1608"}, {"country_code": "RS", "postal_code": "22304", "place_name": "Novi Banovci", "latitude": "44.9569", "longitude": "20.2808"}, {"country_code": "RS", "postal_code": "22305", "place_name": "Stari Banovci", "latitude": "44.9842", "longitude": "20.2838"}, {"country_code": "RS", "postal_code": "22306", "place_name": "Belegi\u0161", "latitude": "45.0192", "longitude": "20.3332"}, {"country_code": "RS", "postal_code": "22307", "place_name": "Surduk", "latitude": "45.0712", "longitude": "20.3251"}, {"country_code": "RS", "postal_code": "22308", "place_name": "Golubinci", "latitude": "44.9853", "longitude": "20.0634"}, {"country_code": "RS", "postal_code": "22310", "place_name": "\u0160imanovci", "latitude": "44.8739", "longitude": "20.0918"}, {"country_code": "RS", "postal_code": "22313", "place_name": "Vojka", "latitude": "44.9371", "longitude": "20.1524"}, {"country_code": "RS", "postal_code": "22314", "place_name": "Krnje\u0161evci", "latitude": "44.8888", "longitude": "20.138"}, {"country_code": "RS", "postal_code": "22320", "place_name": "In\u0111ija", "latitude": "45.0482", "longitude": "20.0816"}, {"country_code": "RS", "postal_code": "22321", "place_name": "Ljukovo", "latitude": "45.026", "longitude": "20.0274"}, {"country_code": "RS", "postal_code": "22322", "place_name": "Novi Karlovci", "latitude": "45.0764", "longitude": "20.1795"}, {"country_code": "RS", "postal_code": "22323", "place_name": "Novi Slankamen", "latitude": "45.1255", "longitude": "20.2391"}, {"country_code": "RS", "postal_code": "22324", "place_name": "Be\u0161ka", "latitude": "45.1309", "longitude": "20.067"}, {"country_code": "RS", "postal_code": "22325", "place_name": "Kr\u010dedin", "latitude": "45.1387", "longitude": "20.1331"}, {"country_code": "RS", "postal_code": "22326", "place_name": "\u010cortanovci", "latitude": "45.1546", "longitude": "20.0185"}, {"country_code": "RS", "postal_code": "22327", "place_name": "Maradik", "latitude": "45.1014", "longitude": "19.9928"}, {"country_code": "RS", "postal_code": "22328", "place_name": "Kru\u0161edol", "latitude": "45.1134", "longitude": "19.9471"}, {"country_code": "RS", "postal_code": "22329", "place_name": "Stari Slankamen", "latitude": "45.1425", "longitude": "20.2577"}, {"country_code": "RS", "postal_code": "22330", "place_name": "Nova Pazova", "latitude": "44.9437", "longitude": "20.2193"}, {"country_code": "RS", "postal_code": "22400", "place_name": "Ruma", "latitude": "45.0081", "longitude": "19.8222"}, {"country_code": "RS", "postal_code": "22404", "place_name": "Putinci", "latitude": "44.9926", "longitude": "19.971"}, {"country_code": "RS", "postal_code": "22405", "place_name": "Stejanovci", "latitude": "45.0564", "longitude": "19.7241"}, {"country_code": "RS", "postal_code": "22406", "place_name": "Irig", "latitude": "45.0523", "longitude": "19.8445"}, {"country_code": "RS", "postal_code": "22408", "place_name": "Vrdnik", "latitude": "45.1217", "longitude": "19.7923"}, {"country_code": "RS", "postal_code": "22410", "place_name": "Pe\u0107inci", "latitude": "44.9089", "longitude": "19.9664"}, {"country_code": "RS", "postal_code": "22411", "place_name": "Kraljevci", "latitude": "44.9774", "longitude": "19.8833"}, {"country_code": "RS", "postal_code": "22412", "place_name": "Dobrinci", "latitude": "44.9537", "longitude": "19.9266"}, {"country_code": "RS", "postal_code": "22413", "place_name": "Sremski Mihaljevci", "latitude": "44.8587", "longitude": "20.0408"}, {"country_code": "RS", "postal_code": "22414", "place_name": "Suboti\u0161te", "latitude": "44.8451", "longitude": "19.9598"}, {"country_code": "RS", "postal_code": "22416", "place_name": "Ogar", "latitude": "44.7923", "longitude": "19.9477"}, {"country_code": "RS", "postal_code": "22417", "place_name": "Obre\u017e", "latitude": "44.7367", "longitude": "19.9741"}, {"country_code": "RS", "postal_code": "22418", "place_name": "A\u0161anja", "latitude": "44.7564", "longitude": "20.0759"}, {"country_code": "RS", "postal_code": "22419", "place_name": "Kupinovo", "latitude": "44.7071", "longitude": "20.0496"}, {"country_code": "RS", "postal_code": "22420", "place_name": "Plati\u010devo", "latitude": "44.8221", "longitude": "19.7949"}, {"country_code": "RS", "postal_code": "22421", "place_name": "Bu\u0111anovci", "latitude": "44.8939", "longitude": "19.8634"}, {"country_code": "RS", "postal_code": "22422", "place_name": "Nikinci", "latitude": "44.8502", "longitude": "19.8232"}, {"country_code": "RS", "postal_code": "22423", "place_name": "Grabovci", "latitude": "44.765", "longitude": "19.8449"}, {"country_code": "RS", "postal_code": "22424", "place_name": "Klenak", "latitude": "44.7885", "longitude": "19.71"}, {"country_code": "RS", "postal_code": "22425", "place_name": "\u0160a\u0161inci", "latitude": "44.9651", "longitude": "19.7415"}, {"country_code": "RS", "postal_code": "22426", "place_name": "Jarak", "latitude": "44.9184", "longitude": "19.7548"}, {"country_code": "RS", "postal_code": "22427", "place_name": "Hrtkovci", "latitude": "44.8815", "longitude": "19.7637"}, {"country_code": "RS", "postal_code": "22428", "place_name": "Popinci", "latitude": "44.9283", "longitude": "20.007"}, {"country_code": "RS", "postal_code": "22429", "place_name": "Voganj", "latitude": "45.0032", "longitude": "19.7561"}, {"country_code": "RS", "postal_code": "22440", "place_name": "Siba\u010d", "latitude": "44.906", "longitude": "19.9334"}, {"country_code": "RS", "postal_code": "22441", "place_name": "De\u010d", "latitude": "44.8353", "longitude": "20.1139"}, {"country_code": "RS", "postal_code": "22442", "place_name": "Prhovo", "latitude": "44.8825", "longitude": "20.0083"}, {"country_code": "RS", "postal_code": "22443", "place_name": "Karlov\u010di\u0107", "latitude": "44.8232", "longitude": "20.045"}, {"country_code": "RS", "postal_code": "23101", "place_name": "Zrenjanin", "latitude": "45.3836", "longitude": "20.3819"}, {"country_code": "RS", "postal_code": "23202", "place_name": "Mihajlovo", "latitude": "45.4708", "longitude": "20.4151"}, {"country_code": "RS", "postal_code": "23203", "place_name": "E\u010dka", "latitude": "45.3233", "longitude": "20.4429"}, {"country_code": "RS", "postal_code": "23204", "place_name": "Staji\u0107evo", "latitude": "45.2949", "longitude": "20.4584"}, {"country_code": "RS", "postal_code": "23205", "place_name": "Belo Blato", "latitude": "45.2728", "longitude": "20.375"}, {"country_code": "RS", "postal_code": "23206", "place_name": "Mu\u017elja", "latitude": "45.3441", "longitude": "20.4091"}, {"country_code": "RS", "postal_code": "23207", "place_name": "Aradac", "latitude": "45.3835", "longitude": "20.3014"}, {"country_code": "RS", "postal_code": "23208", "place_name": "Elemir", "latitude": "45.4426", "longitude": "20.3"}, {"country_code": "RS", "postal_code": "23209", "place_name": "Tara\u0161", "latitude": "45.4674", "longitude": "20.1987"}, {"country_code": "RS", "postal_code": "23210", "place_name": "\u017diti\u0161te", "latitude": "45.485", "longitude": "20.5497"}, {"country_code": "RS", "postal_code": "23211", "place_name": "Klek", "latitude": "45.4225", "longitude": "20.4805"}, {"country_code": "RS", "postal_code": "23212", "place_name": "Ravni Topolovac", "latitude": "45.4608", "longitude": "20.5694"}, {"country_code": "RS", "postal_code": "23214", "place_name": "Torda", "latitude": "45.5842", "longitude": "20.459"}, {"country_code": "RS", "postal_code": "23215", "place_name": "\u010cestereg", "latitude": "45.5636", "longitude": "20.5319"}, {"country_code": "RS", "postal_code": "23216", "place_name": "Banatsko Kara\u0111or\u0111evo", "latitude": "45.5869", "longitude": "20.5642"}, {"country_code": "RS", "postal_code": "23217", "place_name": "Aleksandrovo", "latitude": "45.6376", "longitude": "20.5929"}, {"country_code": "RS", "postal_code": "23218", "place_name": "Nova Crnja", "latitude": "45.6683", "longitude": "20.605"}, {"country_code": "RS", "postal_code": "23219", "place_name": "Vojvoda Stepa", "latitude": "45.6854", "longitude": "20.6554"}, {"country_code": "RS", "postal_code": "23220", "place_name": "Srpska Crnja", "latitude": "45.7254", "longitude": "20.6901"}, {"country_code": "RS", "postal_code": "23221", "place_name": "Radojevo", "latitude": "45.7462", "longitude": "20.7892"}, {"country_code": "RS", "postal_code": "23222", "place_name": "Toba", "latitude": "45.6894", "longitude": "20.5571"}, {"country_code": "RS", "postal_code": "23224", "place_name": "Lukino Selo", "latitude": "45.3024", "longitude": "20.4263"}, {"country_code": "RS", "postal_code": "23230", "place_name": "Ja\u0161a Tomi\u0107", "latitude": "45.4472", "longitude": "20.8555"}, {"country_code": "RS", "postal_code": "23231", "place_name": "Kraji\u0161nik", "latitude": "45.4528", "longitude": "20.7298"}, {"country_code": "RS", "postal_code": "23232", "place_name": "Begejci", "latitude": "45.5093", "longitude": "20.609"}, {"country_code": "RS", "postal_code": "23233", "place_name": "Srpski Itebej", "latitude": "45.5672", "longitude": "20.7135"}, {"country_code": "RS", "postal_code": "23234", "place_name": "Me\u0111a", "latitude": "45.5381", "longitude": "20.8068"}, {"country_code": "RS", "postal_code": "23235", "place_name": "Hetin", "latitude": "45.662", "longitude": "20.7914"}, {"country_code": "RS", "postal_code": "23236", "place_name": "Novi Itebej", "latitude": "45.5592", "longitude": "20.7003"}, {"country_code": "RS", "postal_code": "23237", "place_name": "Banatsko Vi\u0161nji\u0107evo", "latitude": "45.4467", "longitude": "20.6808"}, {"country_code": "RS", "postal_code": "23240", "place_name": "Se\u010danj", "latitude": "45.3667", "longitude": "20.7722"}, {"country_code": "RS", "postal_code": "23241", "place_name": "Lazarevo", "latitude": "45.3889", "longitude": "20.54"}, {"country_code": "RS", "postal_code": "23242", "place_name": "Banatski Despotovac", "latitude": "45.3661", "longitude": "20.6641"}, {"country_code": "RS", "postal_code": "23243", "place_name": "Boto\u0161", "latitude": "45.3084", "longitude": "20.6351"}, {"country_code": "RS", "postal_code": "23244", "place_name": "Sutjeska", "latitude": "45.3831", "longitude": "20.6962"}, {"country_code": "RS", "postal_code": "23245", "place_name": "Neuzina", "latitude": "45.3446", "longitude": "20.7142"}, {"country_code": "RS", "postal_code": "23250", "place_name": "Jarkovac", "latitude": "45.2698", "longitude": "20.7608"}, {"country_code": "RS", "postal_code": "23251", "place_name": "Banatska Dubica", "latitude": "45.2715", "longitude": "20.8283"}, {"country_code": "RS", "postal_code": "23252", "place_name": "Boka", "latitude": "45.3554", "longitude": "20.8299"}, {"country_code": "RS", "postal_code": "23253", "place_name": "Konak", "latitude": "45.3158", "longitude": "20.9147"}, {"country_code": "RS", "postal_code": "23254", "place_name": "\u0160urjan", "latitude": "45.3996", "longitude": "20.8747"}, {"country_code": "RS", "postal_code": "23255", "place_name": "Zlatica", "latitude": "45.3862", "longitude": "20.5827"}, {"country_code": "RS", "postal_code": "23260", "place_name": "Perlez", "latitude": "45.2081", "longitude": "20.382"}, {"country_code": "RS", "postal_code": "23261", "place_name": "Luki\u0107evo", "latitude": "45.3382", "longitude": "20.4989"}, {"country_code": "RS", "postal_code": "23262", "place_name": "Toma\u0161evac", "latitude": "45.2685", "longitude": "20.6227"}, {"country_code": "RS", "postal_code": "23263", "place_name": "Orlovat", "latitude": "45.2417", "longitude": "20.5809"}, {"country_code": "RS", "postal_code": "23264", "place_name": "Farka\u017edin", "latitude": "45.1917", "longitude": "20.4724"}, {"country_code": "RS", "postal_code": "23265", "place_name": "Kni\u0107anin", "latitude": "45.19", "longitude": "20.3222"}, {"country_code": "RS", "postal_code": "23266", "place_name": "\u010centa", "latitude": "45.1081", "longitude": "20.3895"}, {"country_code": "RS", "postal_code": "23270", "place_name": "Melenci", "latitude": "45.5168", "longitude": "20.3196"}, {"country_code": "RS", "postal_code": "23271", "place_name": "Kumane", "latitude": "45.5395", "longitude": "20.229"}, {"country_code": "RS", "postal_code": "23272", "place_name": "Novi Be\u010dej", "latitude": "45.5986", "longitude": "20.1356"}, {"country_code": "RS", "postal_code": "23273", "place_name": "Novo Milo\u0161evo", "latitude": "45.7192", "longitude": "20.3036"}, {"country_code": "RS", "postal_code": "23274", "place_name": "Bo\u010dar", "latitude": "45.7699", "longitude": "20.2839"}, {"country_code": "RS", "postal_code": "23300", "place_name": "Kikinda", "latitude": "45.8297", "longitude": "20.4653"}, {"country_code": "RS", "postal_code": "23305", "place_name": "Mokrin", "latitude": "45.9336", "longitude": "20.4122"}, {"country_code": "RS", "postal_code": "23311", "place_name": "Nakovo", "latitude": "45.875", "longitude": "20.5671"}, {"country_code": "RS", "postal_code": "23312", "place_name": "Banatsko Veliko Selo", "latitude": "45.8196", "longitude": "20.6077"}, {"country_code": "RS", "postal_code": "23313", "place_name": "Novi Kozarci", "latitude": "45.7824", "longitude": "20.6229"}, {"country_code": "RS", "postal_code": "23314", "place_name": "Rusko Selo", "latitude": "45.7629", "longitude": "20.5712"}, {"country_code": "RS", "postal_code": "23315", "place_name": "Banatska Topola", "latitude": "45.6725", "longitude": "20.4653"}, {"country_code": "RS", "postal_code": "23316", "place_name": "Ba\u0161aid", "latitude": "45.641", "longitude": "20.4143"}, {"country_code": "RS", "postal_code": "23320", "place_name": "\u010coka", "latitude": "45.9425", "longitude": "20.1433"}, {"country_code": "RS", "postal_code": "23323", "place_name": "I\u0111o\u0161", "latitude": "45.8265", "longitude": "20.3179"}, {"country_code": "RS", "postal_code": "23324", "place_name": "Sajan", "latitude": "45.8423", "longitude": "20.2782"}, {"country_code": "RS", "postal_code": "23325", "place_name": "Padej", "latitude": "45.8276", "longitude": "20.1628"}, {"country_code": "RS", "postal_code": "23326", "place_name": "Ostoji\u0107evo", "latitude": "45.8886", "longitude": "20.1664"}, {"country_code": "RS", "postal_code": "23327", "place_name": "Jazovo", "latitude": "45.8988", "longitude": "20.2213"}, {"country_code": "RS", "postal_code": "23328", "place_name": "Crna Bara", "latitude": "45.9733", "longitude": "20.2761"}, {"country_code": "RS", "postal_code": "23329", "place_name": "Vrbica", "latitude": "46.0058", "longitude": "20.3133"}, {"country_code": "RS", "postal_code": "23330", "place_name": "Novi Kne\u017eevac", "latitude": "46.05", "longitude": "20.1"}, {"country_code": "RS", "postal_code": "23331", "place_name": "Sanad", "latitude": "45.976", "longitude": "20.1082"}, {"country_code": "RS", "postal_code": "23332", "place_name": "Banatsko Aran\u0111elovo", "latitude": "46.0645", "longitude": "20.2424"}, {"country_code": "RS", "postal_code": "23333", "place_name": "Majdan", "latitude": "46.0945", "longitude": "20.2599"}, {"country_code": "RS", "postal_code": "23334", "place_name": "Srpski Krstur", "latitude": "46.1284", "longitude": "20.0927"}, {"country_code": "RS", "postal_code": "23335", "place_name": "\u0110ala", "latitude": "46.0627", "longitude": "20.1606"}, {"country_code": "RS", "postal_code": "24000", "place_name": "Subotica", "latitude": "46.1", "longitude": "19.6667"}, {"country_code": "RS", "postal_code": "24104", "place_name": "Kelebija", "latitude": "45.9185", "longitude": "19.769"}, {"country_code": "RS", "postal_code": "24206", "place_name": "Bikovo", "latitude": "46.0217", "longitude": "19.7597"}, {"country_code": "RS", "postal_code": "24207", "place_name": "Orom", "latitude": "45.9771", "longitude": "19.8346"}, {"country_code": "RS", "postal_code": "24210", "place_name": "Bajmok", "latitude": "45.9714", "longitude": "19.4225"}, {"country_code": "RS", "postal_code": "24211", "place_name": "Mi\u0161i\u0107evo", "latitude": "45.9951", "longitude": "19.49"}, {"country_code": "RS", "postal_code": "24213", "place_name": "\u0110ur\u0111in", "latitude": "46.0136", "longitude": "19.493"}, {"country_code": "RS", "postal_code": "24214", "place_name": "Tavankut", "latitude": "46.0484", "longitude": "19.4872"}, {"country_code": "RS", "postal_code": "24215", "place_name": "Ljutovo", "latitude": "46.0136", "longitude": "19.493"}, {"country_code": "RS", "postal_code": "24217", "place_name": "Mala Bosna", "latitude": "46.0395", "longitude": "19.5725"}, {"country_code": "RS", "postal_code": "24220", "place_name": "\u010cantavir", "latitude": "45.921", "longitude": "19.7661"}, {"country_code": "RS", "postal_code": "24222", "place_name": "Vi\u0161njevac", "latitude": "45.9515", "longitude": "19.7427"}, {"country_code": "RS", "postal_code": "24223", "place_name": "Novi \u017dednik", "latitude": "45.9412", "longitude": "19.6714"}, {"country_code": "RS", "postal_code": "24224", "place_name": "Stari \u017dednik", "latitude": "45.9486", "longitude": "19.6303"}, {"country_code": "RS", "postal_code": "24300", "place_name": "Ba\u010dka Topola", "latitude": "45.8152", "longitude": "19.6318"}, {"country_code": "RS", "postal_code": "24308", "place_name": "Kara\u0111or\u0111evo", "latitude": "45.8582", "longitude": "19.591"}, {"country_code": "RS", "postal_code": "24309", "place_name": "Mali Beograd", "latitude": "45.8847", "longitude": "19.6353"}, {"country_code": "RS", "postal_code": "24311", "place_name": "Njego\u0161evo", "latitude": "45.7623", "longitude": "19.7535"}, {"country_code": "RS", "postal_code": "24312", "place_name": "Gunaro\u0161", "latitude": "45.7603", "longitude": "19.8278"}, {"country_code": "RS", "postal_code": "24313", "place_name": "Pobeda", "latitude": "45.7613", "longitude": "19.7906"}, {"country_code": "RS", "postal_code": "24321", "place_name": "Mali I\u0111o\u0161", "latitude": "45.7083", "longitude": "19.6653"}, {"country_code": "RS", "postal_code": "24322", "place_name": "Lov\u0107enac", "latitude": "45.6816", "longitude": "19.6921"}, {"country_code": "RS", "postal_code": "24323", "place_name": "Feketi\u0107", "latitude": "45.6643", "longitude": "19.6997"}, {"country_code": "RS", "postal_code": "24330", "place_name": "Panonija", "latitude": "45.7799", "longitude": "19.5852"}, {"country_code": "RS", "postal_code": "24331", "place_name": "Baj\u0161a", "latitude": "45.7799", "longitude": "19.5852"}, {"country_code": "RS", "postal_code": "24340", "place_name": "Stara Moravica", "latitude": "45.8695", "longitude": "19.4672"}, {"country_code": "RS", "postal_code": "24341", "place_name": "Krivaja", "latitude": "45.7083", "longitude": "19.6653"}, {"country_code": "RS", "postal_code": "24342", "place_name": "Pa\u010dir", "latitude": "45.9002", "longitude": "19.4417"}, {"country_code": "RS", "postal_code": "24343", "place_name": "Ba\u010dki Sokolac", "latitude": "45.8496", "longitude": "19.5402"}, {"country_code": "RS", "postal_code": "24344", "place_name": "Ore\u0161kovi\u0107", "latitude": "45.8269", "longitude": "19.5594"}, {"country_code": "RS", "postal_code": "24351", "place_name": "Novo Orahovo", "latitude": "45.8482", "longitude": "19.774"}, {"country_code": "RS", "postal_code": "24352", "place_name": "Tornjo\u0161", "latitude": "45.8769", "longitude": "19.8352"}, {"country_code": "RS", "postal_code": "24400", "place_name": "Senta", "latitude": "45.9275", "longitude": "20.0772"}, {"country_code": "RS", "postal_code": "24406", "place_name": "Gornji Breg", "latitude": "45.92", "longitude": "20.0177"}, {"country_code": "RS", "postal_code": "24407", "place_name": "Kevi", "latitude": "45.8503", "longitude": "19.8803"}, {"country_code": "RS", "postal_code": "24408", "place_name": "Bogara\u0161", "latitude": "45.9344", "longitude": "19.9275"}, {"country_code": "RS", "postal_code": "24410", "place_name": "Horgo\u0161", "latitude": "46.1539", "longitude": "19.9677"}, {"country_code": "RS", "postal_code": "24413", "place_name": "Pali\u0107", "latitude": "46.1065", "longitude": "19.7565"}, {"country_code": "RS", "postal_code": "24415", "place_name": "Hajdukovo", "latitude": "46.123", "longitude": "19.8559"}, {"country_code": "RS", "postal_code": "24415", "place_name": "Ba\u010dki Vinogradi", "latitude": "46.123", "longitude": "19.8559"}, {"country_code": "RS", "postal_code": "24416", "place_name": "Male Pijace", "latitude": "46.0674", "longitude": "19.9217"}, {"country_code": "RS", "postal_code": "24417", "place_name": "Martono\u0161", "latitude": "46.1146", "longitude": "20.0589"}, {"country_code": "RS", "postal_code": "24418", "place_name": "\u0160upljak", "latitude": "46.1128", "longitude": "19.8129"}, {"country_code": "RS", "postal_code": "24420", "place_name": "Kanji\u017ea", "latitude": "46.0667", "longitude": "20.05"}, {"country_code": "RS", "postal_code": "24425", "place_name": "Adorjan", "latitude": "46.0033", "longitude": "20.0401"}, {"country_code": "RS", "postal_code": "24426", "place_name": "Tre\u0161njevac", "latitude": "45.9789", "longitude": "19.9863"}, {"country_code": "RS", "postal_code": "24427", "place_name": "Totovo Selo", "latitude": "45.9638", "longitude": "19.9174"}, {"country_code": "RS", "postal_code": "24430", "place_name": "Ada", "latitude": "45.8025", "longitude": "20.1258"}, {"country_code": "RS", "postal_code": "24435", "place_name": "Mol", "latitude": "45.7646", "longitude": "20.1329"}, {"country_code": "RS", "postal_code": "24437", "place_name": "Utrine", "latitude": "45.812", "longitude": "19.9"}, {"country_code": "RS", "postal_code": "25101", "place_name": "Sombor", "latitude": "45.7742", "longitude": "19.1122"}, {"country_code": "RS", "postal_code": "25210", "place_name": "\u010conoplja", "latitude": "45.8113", "longitude": "19.2513"}, {"country_code": "RS", "postal_code": "25211", "place_name": "Svetozar Mileti\u0107", "latitude": "45.8522", "longitude": "19.2058"}, {"country_code": "RS", "postal_code": "25212", "place_name": "Aleksa \u0160anti\u0107", "latitude": "45.9284", "longitude": "19.3325"}, {"country_code": "RS", "postal_code": "25220", "place_name": "Crvenka", "latitude": "45.661", "longitude": "19.4543"}, {"country_code": "RS", "postal_code": "25221", "place_name": "Kljaji\u0107evo", "latitude": "45.7704", "longitude": "19.277"}, {"country_code": "RS", "postal_code": "25222", "place_name": "Tele\u010dka", "latitude": "45.795", "longitude": "19.3818"}, {"country_code": "RS", "postal_code": "25223", "place_name": "Sivac", "latitude": "45.7045", "longitude": "19.3827"}, {"country_code": "RS", "postal_code": "25224", "place_name": "Nova Crvenka", "latitude": "45.6956", "longitude": "19.4877"}, {"country_code": "RS", "postal_code": "25225", "place_name": "Kru\u0161\u010di\u0107", "latitude": "45.6139", "longitude": "19.3692"}, {"country_code": "RS", "postal_code": "25230", "place_name": "Kula", "latitude": "45.6089", "longitude": "19.5264"}, {"country_code": "RS", "postal_code": "25232", "place_name": "Lipar", "latitude": "45.6139", "longitude": "19.3692"}, {"country_code": "RS", "postal_code": "25233", "place_name": "Ruski Krstur", "latitude": "45.5639", "longitude": "19.42"}, {"country_code": "RS", "postal_code": "25234", "place_name": "Lali\u0107", "latitude": "45.5193", "longitude": "19.3658"}, {"country_code": "RS", "postal_code": "25240", "place_name": "Stapar", "latitude": "45.6643", "longitude": "19.2006"}, {"country_code": "RS", "postal_code": "25242", "place_name": "Ba\u010dki Brestovac", "latitude": "45.6182", "longitude": "19.2709"}, {"country_code": "RS", "postal_code": "25243", "place_name": "Doroslovo", "latitude": "45.607", "longitude": "19.1887"}, {"country_code": "RS", "postal_code": "25244", "place_name": "Srpski Mileti\u0107", "latitude": "45.5594", "longitude": "19.2038"}, {"country_code": "RS", "postal_code": "25245", "place_name": "Bogojevo", "latitude": "45.5301", "longitude": "19.1302"}, {"country_code": "RS", "postal_code": "25250", "place_name": "Od\u017eaci", "latitude": "45.5067", "longitude": "19.2611"}, {"country_code": "RS", "postal_code": "25252", "place_name": "Ba\u010dki Gra\u010dac", "latitude": "45.5545", "longitude": "19.3235"}, {"country_code": "RS", "postal_code": "25253", "place_name": "Ratkovo", "latitude": "45.4557", "longitude": "19.3373"}, {"country_code": "RS", "postal_code": "25254", "place_name": "Deronje", "latitude": "45.4553", "longitude": "19.2203"}, {"country_code": "RS", "postal_code": "25255", "place_name": "Karavukovo", "latitude": "45.4983", "longitude": "19.1942"}, {"country_code": "RS", "postal_code": "25260", "place_name": "Apatin", "latitude": "45.6726", "longitude": "18.978"}, {"country_code": "RS", "postal_code": "25262", "place_name": "Kupusina", "latitude": "45.7376", "longitude": "19.0108"}, {"country_code": "RS", "postal_code": "25263", "place_name": "Prigrevica", "latitude": "45.6764", "longitude": "19.0881"}, {"country_code": "RS", "postal_code": "25264", "place_name": "Sonta", "latitude": "45.5943", "longitude": "19.0972"}, {"country_code": "RS", "postal_code": "25265", "place_name": "Svilojevo", "latitude": "45.649", "longitude": "19.0664"}, {"country_code": "RS", "postal_code": "25270", "place_name": "Bezdan", "latitude": "45.8494", "longitude": "18.924"}, {"country_code": "RS", "postal_code": "25272", "place_name": "Ba\u010dki Mono\u0161tor", "latitude": "45.7944", "longitude": "18.934"}, {"country_code": "RS", "postal_code": "25274", "place_name": "Kolut", "latitude": "45.8929", "longitude": "18.9276"}, {"country_code": "RS", "postal_code": "25275", "place_name": "Ba\u010dki Breg", "latitude": "45.9203", "longitude": "18.9294"}, {"country_code": "RS", "postal_code": "25280", "place_name": "Ri\u0111ica", "latitude": "45.9909", "longitude": "19.1064"}, {"country_code": "RS", "postal_code": "25282", "place_name": "Gakovo", "latitude": "45.9331", "longitude": "19.1005"}, {"country_code": "RS", "postal_code": "25283", "place_name": "Rastina", "latitude": "45.9601", "longitude": "19.0354"}, {"country_code": "RS", "postal_code": "25284", "place_name": "Stani\u0161i\u0107", "latitude": "45.939", "longitude": "19.1671"}, {"country_code": "RS", "postal_code": "26101", "place_name": "Pan\u010devo", "latitude": "44.8718", "longitude": "20.6417"}, {"country_code": "RS", "postal_code": "26201", "place_name": "Jabuka", "latitude": "44.9492", "longitude": "20.5998"}, {"country_code": "RS", "postal_code": "26202", "place_name": "Glogonj", "latitude": "44.9864", "longitude": "20.5275"}, {"country_code": "RS", "postal_code": "26203", "place_name": "Sefkerin", "latitude": "45.005", "longitude": "20.4826"}, {"country_code": "RS", "postal_code": "26204", "place_name": "Opovo", "latitude": "45.0522", "longitude": "20.4303"}, {"country_code": "RS", "postal_code": "26205", "place_name": "Baranda", "latitude": "45.0846", "longitude": "20.4426"}, {"country_code": "RS", "postal_code": "26206", "place_name": "Sakule", "latitude": "45.1467", "longitude": "20.4862"}, {"country_code": "RS", "postal_code": "26207", "place_name": "Idvor", "latitude": "45.189", "longitude": "20.5144"}, {"country_code": "RS", "postal_code": "26210", "place_name": "Kova\u010dica", "latitude": "45.1117", "longitude": "20.6214"}, {"country_code": "RS", "postal_code": "26212", "place_name": "Ka\u010darevo", "latitude": "44.9672", "longitude": "20.6996"}, {"country_code": "RS", "postal_code": "26213", "place_name": "Crepaja", "latitude": "45.0098", "longitude": "20.637"}, {"country_code": "RS", "postal_code": "26214", "place_name": "Debelja\u010da", "latitude": "45.0707", "longitude": "20.6015"}, {"country_code": "RS", "postal_code": "26215", "place_name": "Padina", "latitude": "45.1199", "longitude": "20.7286"}, {"country_code": "RS", "postal_code": "26216", "place_name": "Uzdin", "latitude": "45.2051", "longitude": "20.6234"}, {"country_code": "RS", "postal_code": "26220", "place_name": "Kovin", "latitude": "44.7475", "longitude": "20.9761"}, {"country_code": "RS", "postal_code": "26222", "place_name": "Bavani\u0161te", "latitude": "44.8191", "longitude": "20.8765"}, {"country_code": "RS", "postal_code": "26223", "place_name": "Gaj", "latitude": "44.7953", "longitude": "21.0659"}, {"country_code": "RS", "postal_code": "26224", "place_name": "Dubovac", "latitude": "44.7955", "longitude": "21.2086"}, {"country_code": "RS", "postal_code": "26225", "place_name": "Deliblato", "latitude": "44.8388", "longitude": "21.0386"}, {"country_code": "RS", "postal_code": "26226", "place_name": "Mramorak", "latitude": "44.8802", "longitude": "20.9709"}, {"country_code": "RS", "postal_code": "26227", "place_name": "Dolovo", "latitude": "44.8982", "longitude": "20.8779"}, {"country_code": "RS", "postal_code": "26228", "place_name": "Skorenovac", "latitude": "44.765", "longitude": "20.9041"}, {"country_code": "RS", "postal_code": "26229", "place_name": "Plo\u010dica", "latitude": "44.7203", "longitude": "20.8842"}, {"country_code": "RS", "postal_code": "26230", "place_name": "Omoljica", "latitude": "44.7589", "longitude": "20.7341"}, {"country_code": "RS", "postal_code": "26232", "place_name": "Star\u010devo", "latitude": "44.8073", "longitude": "20.7055"}, {"country_code": "RS", "postal_code": "26233", "place_name": "Ivanovo", "latitude": "44.7395", "longitude": "20.6978"}, {"country_code": "RS", "postal_code": "26234", "place_name": "Banatski Brestovac", "latitude": "44.7274", "longitude": "20.809"}, {"country_code": "RS", "postal_code": "26300", "place_name": "Vr\u0161ac", "latitude": "45.1167", "longitude": "21.3036"}, {"country_code": "RS", "postal_code": "26310", "place_name": "Alibunar", "latitude": "45.0808", "longitude": "20.9658"}, {"country_code": "RS", "postal_code": "26314", "place_name": "Banatsko Novo Selo", "latitude": "44.9894", "longitude": "20.7836"}, {"country_code": "RS", "postal_code": "26315", "place_name": "Vladimirovac", "latitude": "45.0312", "longitude": "20.8657"}, {"country_code": "RS", "postal_code": "26316", "place_name": "Devoja\u010dki Bunar", "latitude": "45.0338", "longitude": "20.8717"}, {"country_code": "RS", "postal_code": "26320", "place_name": "Banatski Karlovac", "latitude": "45.0499", "longitude": "21.018"}, {"country_code": "RS", "postal_code": "26322", "place_name": "Nikolinci", "latitude": "45.0525", "longitude": "21.067"}, {"country_code": "RS", "postal_code": "26323", "place_name": "Crvena Crkva", "latitude": "44.9003", "longitude": "21.3653"}, {"country_code": "RS", "postal_code": "26324", "place_name": "Banatska Palanka", "latitude": "44.8453", "longitude": "21.3318"}, {"country_code": "RS", "postal_code": "26327", "place_name": "Banatska Subotica", "latitude": "44.9833", "longitude": "21.3451"}, {"country_code": "RS", "postal_code": "26328", "place_name": "Dupljaja", "latitude": "44.9287", "longitude": "21.2776"}, {"country_code": "RS", "postal_code": "26329", "place_name": "Kajtasovo", "latitude": "44.8764", "longitude": "21.255"}, {"country_code": "RS", "postal_code": "26330", "place_name": "Uljma", "latitude": "45.0421", "longitude": "21.1539"}, {"country_code": "RS", "postal_code": "26331", "place_name": "Riti\u0161evo", "latitude": "45.0645", "longitude": "21.2281"}, {"country_code": "RS", "postal_code": "26332", "place_name": "Vlajkovac", "latitude": "45.0721", "longitude": "21.1994"}, {"country_code": "RS", "postal_code": "26333", "place_name": "Pavli\u0161", "latitude": "45.1057", "longitude": "21.2395"}, {"country_code": "RS", "postal_code": "26334", "place_name": "Veliko Sredi\u0161te", "latitude": "45.1792", "longitude": "21.4035"}, {"country_code": "RS", "postal_code": "26335", "place_name": "Gudurica", "latitude": "45.1682", "longitude": "21.4426"}, {"country_code": "RS", "postal_code": "26336", "place_name": "Ku\u0161tilj", "latitude": "45.0349", "longitude": "21.3799"}, {"country_code": "RS", "postal_code": "26337", "place_name": "Vatin", "latitude": "45.2328", "longitude": "21.2439"}, {"country_code": "RS", "postal_code": "26338", "place_name": "Vojvodinci", "latitude": "45.0156", "longitude": "21.3479"}, {"country_code": "RS", "postal_code": "26340", "place_name": "Bela Crkva", "latitude": "44.8975", "longitude": "21.4172"}, {"country_code": "RS", "postal_code": "26343", "place_name": "Izbi\u0161te", "latitude": "45.0225", "longitude": "21.1839"}, {"country_code": "RS", "postal_code": "26344", "place_name": "Zagajica", "latitude": "44.9822", "longitude": "21.2288"}, {"country_code": "RS", "postal_code": "26345", "place_name": "Stra\u017ea", "latitude": "44.9751", "longitude": "21.3019"}, {"country_code": "RS", "postal_code": "26346", "place_name": "Jasenovo", "latitude": "44.9359", "longitude": "21.3014"}, {"country_code": "RS", "postal_code": "26347", "place_name": "Grebenac", "latitude": "44.9017", "longitude": "21.2353"}, {"country_code": "RS", "postal_code": "26348", "place_name": "Vra\u010dev Gaj", "latitude": "44.8787", "longitude": "21.3674"}, {"country_code": "RS", "postal_code": "26349", "place_name": "Kusi\u0107", "latitude": "44.8767", "longitude": "21.4792"}, {"country_code": "RS", "postal_code": "26350", "place_name": "Samo\u0161", "latitude": "45.2026", "longitude": "20.7739"}, {"country_code": "RS", "postal_code": "26351", "place_name": "Seleu\u0161", "latitude": "45.1277", "longitude": "20.9146"}, {"country_code": "RS", "postal_code": "26352", "place_name": "Iland\u017ea", "latitude": "45.169", "longitude": "20.9201"}, {"country_code": "RS", "postal_code": "26353", "place_name": "Novi Kozjak", "latitude": "45.1826", "longitude": "20.8638"}, {"country_code": "RS", "postal_code": "26354", "place_name": "Dobrica", "latitude": "45.2134", "longitude": "20.8499"}, {"country_code": "RS", "postal_code": "26360", "place_name": "Plandi\u0161te", "latitude": "45.2272", "longitude": "21.1217"}, {"country_code": "RS", "postal_code": "26361", "place_name": "Lokve", "latitude": "45.152", "longitude": "21.0307"}, {"country_code": "RS", "postal_code": "26362", "place_name": "Jano\u0161ik", "latitude": "45.1714", "longitude": "21.0066"}, {"country_code": "RS", "postal_code": "26363", "place_name": "Jermenovci", "latitude": "45.1863", "longitude": "21.0455"}, {"country_code": "RS", "postal_code": "26364", "place_name": "Margita", "latitude": "45.216", "longitude": "21.1753"}, {"country_code": "RS", "postal_code": "26365", "place_name": "Veliki Gaj", "latitude": "45.2885", "longitude": "21.1706"}, {"country_code": "RS", "postal_code": "26366", "place_name": "Velika Greda", "latitude": "45.2438", "longitude": "21.035"}, {"country_code": "RS", "postal_code": "26367", "place_name": "Barice", "latitude": "45.1819", "longitude": "21.0828"}, {"country_code": "RS", "postal_code": "26368", "place_name": "Kupinik", "latitude": "45.2925", "longitude": "21.137"}, {"country_code": "RS", "postal_code": "26370", "place_name": "Hajdu\u010dica", "latitude": "45.2501", "longitude": "20.9602"}, {"country_code": "RS", "postal_code": "26371", "place_name": "Stari Lec", "latitude": "45.284", "longitude": "20.9643"}, {"country_code": "RS", "postal_code": "26373", "place_name": "Mileti\u0107evo", "latitude": "45.3051", "longitude": "21.064"}, {"country_code": "RS", "postal_code": "31000", "place_name": "U\u017eice", "latitude": "43.8586", "longitude": "19.8488"}, {"country_code": "RS", "postal_code": "31203", "place_name": "Lunovo Selo", "latitude": "43.8826", "longitude": "19.9382"}, {"country_code": "RS", "postal_code": "31204", "place_name": "Karan (U\u017eice)", "latitude": "43.7488", "longitude": "19.8882"}, {"country_code": "RS", "postal_code": "31205", "place_name": "Sevojno", "latitude": "43.8496", "longitude": "19.9108"}, {"country_code": "RS", "postal_code": "31206", "place_name": "Ravni", "latitude": "43.7397", "longitude": "19.898"}, {"country_code": "RS", "postal_code": "31207", "place_name": "Sirogojno", "latitude": "43.689", "longitude": "19.8875"}, {"country_code": "RS", "postal_code": "31208", "place_name": "Ro\u017eanstvo", "latitude": "43.7153", "longitude": "19.8384"}, {"country_code": "RS", "postal_code": "31209", "place_name": "Ljubi\u0161", "latitude": "43.6167", "longitude": "19.8565"}, {"country_code": "RS", "postal_code": "31210", "place_name": "Po\u017eega", "latitude": "43.8489", "longitude": "20.0363"}, {"country_code": "RS", "postal_code": "31213", "place_name": "Je\u017eevica", "latitude": "43.9664", "longitude": "20.0292"}, {"country_code": "RS", "postal_code": "31214", "place_name": "Gornja Dobrinja", "latitude": "43.9543", "longitude": "20.0866"}, {"country_code": "RS", "postal_code": "31215", "place_name": "Jelen Do", "latitude": "43.8949", "longitude": "20.1122"}, {"country_code": "RS", "postal_code": "31230", "place_name": "Arilje", "latitude": "43.7531", "longitude": "20.0956"}, {"country_code": "RS", "postal_code": "31233", "place_name": "Kru\u0161\u010dica", "latitude": "43.7026", "longitude": "19.9767"}, {"country_code": "RS", "postal_code": "31234", "place_name": "Brekovo", "latitude": "43.6453", "longitude": "20.0115"}, {"country_code": "RS", "postal_code": "31236", "place_name": "Divljaka", "latitude": "43.6783", "longitude": "20.1211"}, {"country_code": "RS", "postal_code": "31237", "place_name": "Roge", "latitude": "43.7691", "longitude": "19.9986"}, {"country_code": "RS", "postal_code": "31241", "place_name": "Bioska", "latitude": "43.8718", "longitude": "19.6629"}, {"country_code": "RS", "postal_code": "31242", "place_name": "Kremna", "latitude": "43.8381", "longitude": "19.5743"}, {"country_code": "RS", "postal_code": "31243", "place_name": "Mokra Gora", "latitude": "43.7885", "longitude": "19.5003"}, {"country_code": "RS", "postal_code": "31244", "place_name": "\u0160ljivovica", "latitude": "43.7947", "longitude": "19.6573"}, {"country_code": "RS", "postal_code": "31250", "place_name": "Bajina Ba\u0161ta", "latitude": "43.9708", "longitude": "19.5675"}, {"country_code": "RS", "postal_code": "31251", "place_name": "Mitrovac", "latitude": "43.9215", "longitude": "19.4237"}, {"country_code": "RS", "postal_code": "31253", "place_name": "Zlodol", "latitude": "43.9338", "longitude": "19.6729"}, {"country_code": "RS", "postal_code": "31254", "place_name": "Kostojevi\u0107i", "latitude": "44.0075", "longitude": "19.6872"}, {"country_code": "RS", "postal_code": "31255", "place_name": "Roga\u010dica", "latitude": "44.0372", "longitude": "19.6324"}, {"country_code": "RS", "postal_code": "31256", "place_name": "Peru\u0107ac", "latitude": "43.9545", "longitude": "19.4353"}, {"country_code": "RS", "postal_code": "31257", "place_name": "Kalu\u0111erske Bare", "latitude": "43.9876", "longitude": "19.5616"}, {"country_code": "RS", "postal_code": "31258", "place_name": "Ba\u010devci", "latitude": "44.0882", "longitude": "19.5119"}, {"country_code": "RS", "postal_code": "31260", "place_name": "Kosjeri\u0107", "latitude": "43.9961", "longitude": "19.9069"}, {"country_code": "RS", "postal_code": "31262", "place_name": "Se\u010da Reka", "latitude": "44.0104", "longitude": "19.8361"}, {"country_code": "RS", "postal_code": "31263", "place_name": "Varda", "latitude": "44.0436", "longitude": "19.7513"}, {"country_code": "RS", "postal_code": "31265", "place_name": "Ra\u017eana", "latitude": "44.0684", "longitude": "19.9186"}, {"country_code": "RS", "postal_code": "31300", "place_name": "Prijepolje", "latitude": "43.39", "longitude": "19.6487"}, {"country_code": "RS", "postal_code": "31305", "place_name": "Brodarevo", "latitude": "43.229", "longitude": "19.7196"}, {"country_code": "RS", "postal_code": "31306", "place_name": "Jabuka", "latitude": "43.3534", "longitude": "19.5131"}, {"country_code": "RS", "postal_code": "31307", "place_name": "Aljinovi\u0107i", "latitude": "43.3377", "longitude": "19.8487"}, {"country_code": "RS", "postal_code": "31310", "place_name": "\u010cajetina", "latitude": "43.7498", "longitude": "19.7127"}, {"country_code": "RS", "postal_code": "31311", "place_name": "Bela Zemlja", "latitude": "43.8115", "longitude": "19.7949"}, {"country_code": "RS", "postal_code": "31312", "place_name": "Ma\u010dkat", "latitude": "43.7918", "longitude": "19.782"}, {"country_code": "RS", "postal_code": "31313", "place_name": "Gostilje", "latitude": "43.6529", "longitude": "19.8298"}, {"country_code": "RS", "postal_code": "31314", "place_name": "Jablanica", "latitude": "43.6726", "longitude": "19.7818"}, {"country_code": "RS", "postal_code": "31315", "place_name": "Zlatibor", "latitude": "43.729", "longitude": "19.7003"}, {"country_code": "RS", "postal_code": "31317", "place_name": "Draglica", "latitude": "43.5766", "longitude": "19.7445"}, {"country_code": "RS", "postal_code": "31318", "place_name": "Kokin Brod", "latitude": "43.5144", "longitude": "19.8014"}, {"country_code": "RS", "postal_code": "31319", "place_name": "Jasenovo", "latitude": "43.555", "longitude": "19.8889"}, {"country_code": "RS", "postal_code": "31320", "place_name": "Nova Varo\u0161", "latitude": "43.4606", "longitude": "19.8114"}, {"country_code": "RS", "postal_code": "31322", "place_name": "Bo\u017eeti\u0107i", "latitude": "43.4484", "longitude": "19.9722"}, {"country_code": "RS", "postal_code": "31325", "place_name": "Bistrica", "latitude": "43.4652", "longitude": "19.7094"}, {"country_code": "RS", "postal_code": "31330", "place_name": "Priboj", "latitude": "42.992", "longitude": "21.3208"}, {"country_code": "RS", "postal_code": "31335", "place_name": "Sastavci", "latitude": "42.992", "longitude": "21.3208"}, {"country_code": "RS", "postal_code": "31337", "place_name": "Banja (Priboj)", "latitude": "42.992", "longitude": "21.3208"}, {"country_code": "RS", "postal_code": "32000", "place_name": "\u010ca\u010dak", "latitude": "43.8914", "longitude": "20.3497"}, {"country_code": "RS", "postal_code": "32205", "place_name": "Trbu\u0161ani", "latitude": "43.908", "longitude": "20.3118"}, {"country_code": "RS", "postal_code": "32210", "place_name": "Mr\u010dajevci", "latitude": "43.868", "longitude": "20.5269"}, {"country_code": "RS", "postal_code": "32212", "place_name": "Preljina", "latitude": "43.9135", "longitude": "20.4291"}, {"country_code": "RS", "postal_code": "32213", "place_name": "Bresnica", "latitude": "43.8745", "longitude": "20.5901"}, {"country_code": "RS", "postal_code": "32215", "place_name": "Gornja Trep\u010da", "latitude": "43.941", "longitude": "20.4833"}, {"country_code": "RS", "postal_code": "32222", "place_name": "Je\u017eevica", "latitude": "43.8205", "longitude": "20.4029"}, {"country_code": "RS", "postal_code": "32223", "place_name": "Zabla\u0107e", "latitude": "43.8456", "longitude": "20.4469"}, {"country_code": "RS", "postal_code": "32224", "place_name": "Mr\u0161inci", "latitude": "43.8001", "longitude": "20.4835"}, {"country_code": "RS", "postal_code": "32225", "place_name": "Gori\u010dani", "latitude": "43.7939", "longitude": "20.53"}, {"country_code": "RS", "postal_code": "32230", "place_name": "Gu\u010da", "latitude": "43.7789", "longitude": "20.2256"}, {"country_code": "RS", "postal_code": "32232", "place_name": "Gora\u010di\u0107i", "latitude": "43.774", "longitude": "20.3365"}, {"country_code": "RS", "postal_code": "32233", "place_name": "Vi\u010da", "latitude": "43.7402", "longitude": "20.2913"}, {"country_code": "RS", "postal_code": "32234", "place_name": "Kaona", "latitude": "43.7118", "longitude": "20.4064"}, {"country_code": "RS", "postal_code": "32235", "place_name": "Kotra\u017ea", "latitude": "43.7008", "longitude": "20.2241"}, {"country_code": "RS", "postal_code": "32240", "place_name": "Lu\u010dani", "latitude": "43.8608", "longitude": "20.1381"}, {"country_code": "RS", "postal_code": "32242", "place_name": "Ov\u010dar Banja", "latitude": "43.8981", "longitude": "20.1858"}, {"country_code": "RS", "postal_code": "32243", "place_name": "Markovica", "latitude": "43.8541", "longitude": "20.2151"}, {"country_code": "RS", "postal_code": "32250", "place_name": "Ivanjica", "latitude": "43.5803", "longitude": "20.2311"}, {"country_code": "RS", "postal_code": "32251", "place_name": "Bukovica", "latitude": "43.6139", "longitude": "20.1826"}, {"country_code": "RS", "postal_code": "32252", "place_name": "Prili\u010dki Kiseljak", "latitude": "43.5195", "longitude": "20.2792"}, {"country_code": "RS", "postal_code": "32253", "place_name": "Brezova", "latitude": "43.5142", "longitude": "20.4881"}, {"country_code": "RS", "postal_code": "32254", "place_name": "Vionica", "latitude": "43.4334", "longitude": "20.3541"}, {"country_code": "RS", "postal_code": "32255", "place_name": "Me\u0111ure\u010dje", "latitude": "43.5336", "longitude": "20.2276"}, {"country_code": "RS", "postal_code": "32256", "place_name": "Bratljevo", "latitude": "43.4656", "longitude": "20.1943"}, {"country_code": "RS", "postal_code": "32257", "place_name": "Kovilje", "latitude": "43.5195", "longitude": "20.2792"}, {"country_code": "RS", "postal_code": "32258", "place_name": "Ku\u0161i\u0107i", "latitude": "43.6094", "longitude": "20.2706"}, {"country_code": "RS", "postal_code": "32259", "place_name": "Bele Vode", "latitude": "43.4061", "longitude": "20.2853"}, {"country_code": "RS", "postal_code": "32300", "place_name": "Gornji Milanovac", "latitude": "44.026", "longitude": "20.4615"}, {"country_code": "RS", "postal_code": "32303", "place_name": "Br\u0111ani", "latitude": "43.9574", "longitude": "20.387"}, {"country_code": "RS", "postal_code": "32304", "place_name": "Takovo", "latitude": "44.0428", "longitude": "20.3875"}, {"country_code": "RS", "postal_code": "32305", "place_name": "Ber\u0161i\u0107i", "latitude": "44.0568", "longitude": "20.313"}, {"country_code": "RS", "postal_code": "32306", "place_name": "Gornji Banjani", "latitude": "44.1035", "longitude": "20.268"}, {"country_code": "RS", "postal_code": "32307", "place_name": "Brezna", "latitude": "44.0518", "longitude": "20.2809"}, {"country_code": "RS", "postal_code": "32308", "place_name": "Pranjani", "latitude": "43.9944", "longitude": "20.1828"}, {"country_code": "RS", "postal_code": "32311", "place_name": "\u0160ilopaj", "latitude": "44.1121", "longitude": "20.4116"}, {"country_code": "RS", "postal_code": "32312", "place_name": "Boljkovci", "latitude": "44.1435", "longitude": "20.3456"}, {"country_code": "RS", "postal_code": "32313", "place_name": "Rudnik", "latitude": "44.1398", "longitude": "20.494"}, {"country_code": "RS", "postal_code": "32314", "place_name": "Ugrinovci", "latitude": "44.1737", "longitude": "20.387"}, {"country_code": "RS", "postal_code": "32315", "place_name": "Vra\u0107ev\u0161nica", "latitude": "44.0417", "longitude": "20.619"}, {"country_code": "RS", "postal_code": "34000", "place_name": "Kragujevac", "latitude": "44.0167", "longitude": "20.9167"}, {"country_code": "RS", "postal_code": "34202", "place_name": "Gro\u0161nica", "latitude": "43.954", "longitude": "20.876"}, {"country_code": "RS", "postal_code": "34203", "place_name": "Ili\u0107evo", "latitude": "43.9945", "longitude": "20.8796"}, {"country_code": "RS", "postal_code": "34204", "place_name": "Divostin", "latitude": "44.0229", "longitude": "20.8335"}, {"country_code": "RS", "postal_code": "34205", "place_name": "Bare", "latitude": "44.0439", "longitude": "20.687"}, {"country_code": "RS", "postal_code": "34206", "place_name": "Gornja Sabanta", "latitude": "43.942", "longitude": "21.0037"}, {"country_code": "RS", "postal_code": "34207", "place_name": "Erde\u010d", "latitude": "43.9714", "longitude": "20.8999"}, {"country_code": "RS", "postal_code": "34209", "place_name": "Mar\u0161i\u0107", "latitude": "44.0326", "longitude": "20.9777"}, {"country_code": "RS", "postal_code": "34210", "place_name": "Ra\u010da Kragujeva\u010dka", "latitude": "44.0178", "longitude": "21.0629"}, {"country_code": "RS", "postal_code": "34211", "place_name": "Jovanovac", "latitude": "43.7448", "longitude": "21.5098"}, {"country_code": "RS", "postal_code": "34212", "place_name": "Malo Kr\u010dmare", "latitude": "44.155", "longitude": "20.9268"}, {"country_code": "RS", "postal_code": "34213", "place_name": "Sipi\u0107", "latitude": "44.1677", "longitude": "20.9606"}, {"country_code": "RS", "postal_code": "34215", "place_name": "\u0110ur\u0111evo", "latitude": "44.0178", "longitude": "21.0629"}, {"country_code": "RS", "postal_code": "34216", "place_name": "Male P\u010delice", "latitude": "44.0034", "longitude": "20.8545"}, {"country_code": "RS", "postal_code": "34217", "place_name": "Bukurovac", "latitude": "44.0178", "longitude": "21.0629"}, {"country_code": "RS", "postal_code": "34220", "place_name": "Lapovo", "latitude": "44.1842", "longitude": "21.0973"}, {"country_code": "RS", "postal_code": "34224", "place_name": "Korman", "latitude": "44.0503", "longitude": "20.9928"}, {"country_code": "RS", "postal_code": "34225", "place_name": "Resnik", "latitude": "44.1076", "longitude": "20.9254"}, {"country_code": "RS", "postal_code": "34226", "place_name": "Badnjevac", "latitude": "44.1317", "longitude": "20.9824"}, {"country_code": "RS", "postal_code": "34227", "place_name": "Bato\u010dina", "latitude": "44.157", "longitude": "21.0534"}, {"country_code": "RS", "postal_code": "34228", "place_name": "Brzan", "latitude": "44.124", "longitude": "21.1151"}, {"country_code": "RS", "postal_code": "34229", "place_name": "\u017dirovnica", "latitude": "44.1179", "longitude": "21.0261"}, {"country_code": "RS", "postal_code": "34230", "place_name": "Gru\u017ea", "latitude": "43.899", "longitude": "20.7694"}, {"country_code": "RS", "postal_code": "34231", "place_name": "Dragobra\u0107a", "latitude": "43.9677", "longitude": "20.8382"}, {"country_code": "RS", "postal_code": "34232", "place_name": "Guberevac", "latitude": "43.8321", "longitude": "20.773"}, {"country_code": "RS", "postal_code": "34240", "place_name": "Kni\u0107", "latitude": "43.9269", "longitude": "20.7189"}, {"country_code": "RS", "postal_code": "34242", "place_name": "Bumbarevo Brdo", "latitude": "43.9114", "longitude": "20.6245"}, {"country_code": "RS", "postal_code": "34243", "place_name": "Toponica", "latitude": "43.97", "longitude": "20.6737"}, {"country_code": "RS", "postal_code": "34244", "place_name": "Zabojnica", "latitude": "43.9935", "longitude": "20.7546"}, {"country_code": "RS", "postal_code": "34300", "place_name": "Aran\u0111elovac", "latitude": "44.3069", "longitude": "20.56"}, {"country_code": "RS", "postal_code": "34301", "place_name": "Bukovik", "latitude": "44.3294", "longitude": "20.5174"}, {"country_code": "RS", "postal_code": "34302", "place_name": "Ranilovi\u0107", "latitude": "44.3981", "longitude": "20.5168"}, {"country_code": "RS", "postal_code": "34304", "place_name": "Banja", "latitude": "44.2789", "longitude": "20.6214"}, {"country_code": "RS", "postal_code": "34305", "place_name": "Darosava", "latitude": "44.3341", "longitude": "20.4531"}, {"country_code": "RS", "postal_code": "34306", "place_name": "Ven\u010dane", "latitude": "44.4067", "longitude": "20.4678"}, {"country_code": "RS", "postal_code": "34307", "place_name": "Stojnik", "latitude": "44.3762", "longitude": "20.6267"}, {"country_code": "RS", "postal_code": "34308", "place_name": "Ora\u0161ac", "latitude": "44.3306", "longitude": "20.5867"}, {"country_code": "RS", "postal_code": "34309", "place_name": "Jelovik", "latitude": "44.2644", "longitude": "20.4553"}, {"country_code": "RS", "postal_code": "34310", "place_name": "Topola", "latitude": "44.2542", "longitude": "20.6825"}, {"country_code": "RS", "postal_code": "34312", "place_name": "Belosavci", "latitude": "44.3315", "longitude": "20.6746"}, {"country_code": "RS", "postal_code": "34313", "place_name": "Natalinci", "latitude": "44.2529", "longitude": "20.8037"}, {"country_code": "RS", "postal_code": "34314", "place_name": "Donja \u0160atornja", "latitude": "44.1941", "longitude": "20.6021"}, {"country_code": "RS", "postal_code": "34318", "place_name": "Jarmenovci", "latitude": "44.1849", "longitude": "20.5462"}, {"country_code": "RS", "postal_code": "34321", "place_name": "Cerovac", "latitude": "44.0956", "longitude": "20.8489"}, {"country_code": "RS", "postal_code": "34321", "place_name": "Desimirovac", "latitude": "44.0725", "longitude": "20.8802"}, {"country_code": "RS", "postal_code": "34322", "place_name": "\u010cumi\u0107", "latitude": "44.1476", "longitude": "20.7821"}, {"country_code": "RS", "postal_code": "34323", "place_name": "Stragari", "latitude": "44.1534", "longitude": "20.6613"}, {"country_code": "RS", "postal_code": "34324", "place_name": "Gornja Trnava", "latitude": "44.1848", "longitude": "20.765"}, {"country_code": "RS", "postal_code": "34325", "place_name": "Lu\u017enice", "latitude": "44.1072", "longitude": "20.8178"}, {"country_code": "RS", "postal_code": "35000", "place_name": "Jagodina", "latitude": "43.9771", "longitude": "21.2612"}, {"country_code": "RS", "postal_code": "35203", "place_name": "Siokovac", "latitude": "43.9771", "longitude": "21.1803"}, {"country_code": "RS", "postal_code": "35204", "place_name": "Bagrdan", "latitude": "44.0711", "longitude": "21.1787"}, {"country_code": "RS", "postal_code": "35205", "place_name": "Jovac", "latitude": "43.9586", "longitude": "21.243"}, {"country_code": "RS", "postal_code": "35206", "place_name": "Ra\u0161evica", "latitude": "43.8392", "longitude": "21.3247"}, {"country_code": "RS", "postal_code": "35207", "place_name": "Poto\u010dac", "latitude": "43.8148", "longitude": "21.3153"}, {"country_code": "RS", "postal_code": "35208", "place_name": "Vojska", "latitude": "44.0909", "longitude": "21.2161"}, {"country_code": "RS", "postal_code": "35209", "place_name": "Subotica (Kod Svilajnca)", "latitude": "43.9586", "longitude": "21.243"}, {"country_code": "RS", "postal_code": "35210", "place_name": "Svilajnac", "latitude": "44.2337", "longitude": "21.1967"}, {"country_code": "RS", "postal_code": "35211", "place_name": "Sedlare", "latitude": "44.1987", "longitude": "21.294"}, {"country_code": "RS", "postal_code": "35212", "place_name": "Pla\u017eane", "latitude": "44.1457", "longitude": "21.4112"}, {"country_code": "RS", "postal_code": "35213", "place_name": "Despotovac", "latitude": "44.0925", "longitude": "21.4469"}, {"country_code": "RS", "postal_code": "35215", "place_name": "Stenjevac", "latitude": "44.0864", "longitude": "21.5363"}, {"country_code": "RS", "postal_code": "35217", "place_name": "Bobovo", "latitude": "44.237", "longitude": "21.2751"}, {"country_code": "RS", "postal_code": "35219", "place_name": "Kon\u010darevo", "latitude": "43.9751", "longitude": "21.3137"}, {"country_code": "RS", "postal_code": "35220", "place_name": "Ribare", "latitude": "44.0101", "longitude": "21.2851"}, {"country_code": "RS", "postal_code": "35223", "place_name": "Veliki Popovi\u0107", "latitude": "44.1179", "longitude": "21.3573"}, {"country_code": "RS", "postal_code": "35224", "place_name": "Medve\u0111a", "latitude": "44.1509", "longitude": "21.343"}, {"country_code": "RS", "postal_code": "35226", "place_name": "Ku\u0161iljevo", "latitude": "44.2844", "longitude": "21.2061"}, {"country_code": "RS", "postal_code": "35227", "place_name": "Kru\u0161ar", "latitude": "44.0176", "longitude": "21.3351"}, {"country_code": "RS", "postal_code": "35228", "place_name": "Supska", "latitude": "43.9748", "longitude": "21.3678"}, {"country_code": "RS", "postal_code": "35230", "place_name": "\u0106uprija", "latitude": "43.9275", "longitude": "21.37"}, {"country_code": "RS", "postal_code": "35233", "place_name": "Senje", "latitude": "43.9651", "longitude": "21.4836"}, {"country_code": "RS", "postal_code": "35234", "place_name": "Senjski Rudnik", "latitude": "43.9958", "longitude": "21.5697"}, {"country_code": "RS", "postal_code": "35236", "place_name": "Mijatovac", "latitude": "43.9527", "longitude": "21.3403"}, {"country_code": "RS", "postal_code": "35237", "place_name": "Resavica", "latitude": "44.0695", "longitude": "21.5174"}, {"country_code": "RS", "postal_code": "35241", "place_name": "Jasenovo", "latitude": "44.1531", "longitude": "21.3077"}, {"country_code": "RS", "postal_code": "35242", "place_name": "Kolare", "latitude": "43.9012", "longitude": "21.2416"}, {"country_code": "RS", "postal_code": "35247", "place_name": "Plana", "latitude": "43.8204", "longitude": "21.5474"}, {"country_code": "RS", "postal_code": "35248", "place_name": "Tre\u0161njevica", "latitude": "43.87", "longitude": "21.3251"}, {"country_code": "RS", "postal_code": "35250", "place_name": "Para\u0107in", "latitude": "43.8608", "longitude": "21.4078"}, {"country_code": "RS", "postal_code": "35254", "place_name": "Popovac", "latitude": "43.9095", "longitude": "21.5035"}, {"country_code": "RS", "postal_code": "35255", "place_name": "Donja Mutnica", "latitude": "43.8517", "longitude": "21.5613"}, {"country_code": "RS", "postal_code": "35256", "place_name": "Sikirica", "latitude": "43.7789", "longitude": "21.4189"}, {"country_code": "RS", "postal_code": "35257", "place_name": "Drenovac", "latitude": "43.7637", "longitude": "21.427"}, {"country_code": "RS", "postal_code": "35258", "place_name": "Donje Vidovo", "latitude": "43.8029", "longitude": "21.3681"}, {"country_code": "RS", "postal_code": "35259", "place_name": "Svojnovo", "latitude": "43.7993", "longitude": "21.3063"}, {"country_code": "RS", "postal_code": "35260", "place_name": "Rekovac", "latitude": "43.863", "longitude": "21.0934"}, {"country_code": "RS", "postal_code": "35261", "place_name": "Glavinci", "latitude": "43.9248", "longitude": "21.251"}, {"country_code": "RS", "postal_code": "35262", "place_name": "Drago\u0161evac", "latitude": "43.8824", "longitude": "21.2259"}, {"country_code": "RS", "postal_code": "35263", "place_name": "Belu\u0161i\u0107", "latitude": "43.7829", "longitude": "21.1483"}, {"country_code": "RS", "postal_code": "35264", "place_name": "Preve\u0161t", "latitude": "43.7573", "longitude": "21.0426"}, {"country_code": "RS", "postal_code": "35265", "place_name": "Dragovo", "latitude": "43.7872", "longitude": "21.1007"}, {"country_code": "RS", "postal_code": "35267", "place_name": "Opari\u0107", "latitude": "43.7512", "longitude": "21.1227"}, {"country_code": "RS", "postal_code": "35268", "place_name": "Milo\u0161evo", "latitude": "44.1058", "longitude": "21.1509"}, {"country_code": "RS", "postal_code": "35269", "place_name": "Stri\u017eilo", "latitude": "44.067", "longitude": "21.1085"}, {"country_code": "RS", "postal_code": "35270", "place_name": "Majur", "latitude": "43.9476", "longitude": "21.2923"}, {"country_code": "RS", "postal_code": "35271", "place_name": "Novo Lani\u0161te", "latitude": "44.0317", "longitude": "21.2384"}, {"country_code": "RS", "postal_code": "35272", "place_name": "Dragocvet", "latitude": "43.9404", "longitude": "21.2139"}, {"country_code": "RS", "postal_code": "35273", "place_name": "Bunar", "latitude": "43.92", "longitude": "21.147"}, {"country_code": "RS", "postal_code": "35274", "place_name": "Lo\u0107ika", "latitude": "43.8583", "longitude": "21.1867"}, {"country_code": "RS", "postal_code": "36000", "place_name": "Kraljevo", "latitude": "43.7258", "longitude": "20.6894"}, {"country_code": "RS", "postal_code": "36201", "place_name": "Mataru\u0161ka Banja", "latitude": "43.6882", "longitude": "20.6101"}, {"country_code": "RS", "postal_code": "36202", "place_name": "Samaila", "latitude": "43.7623", "longitude": "20.5468"}, {"country_code": "RS", "postal_code": "36203", "place_name": "Adrani", "latitude": "43.7626", "longitude": "20.6347"}, {"country_code": "RS", "postal_code": "36204", "place_name": "La\u0111evci", "latitude": "43.8172", "longitude": "20.6099"}, {"country_code": "RS", "postal_code": "36205", "place_name": "Ro\u0107evi\u0107i", "latitude": "43.7133", "longitude": "20.5125"}, {"country_code": "RS", "postal_code": "36206", "place_name": "Vitanovac", "latitude": "43.7264", "longitude": "20.7994"}, {"country_code": "RS", "postal_code": "36207", "place_name": "Vitkovac", "latitude": "43.7948", "longitude": "20.7836"}, {"country_code": "RS", "postal_code": "36208", "place_name": "Sir\u010da", "latitude": "43.7464", "longitude": "20.721"}, {"country_code": "RS", "postal_code": "36210", "place_name": "Vrnja\u010dka Banja", "latitude": "43.6273", "longitude": "20.8963"}, {"country_code": "RS", "postal_code": "36212", "place_name": "Ratina", "latitude": "43.7014", "longitude": "20.7516"}, {"country_code": "RS", "postal_code": "36214", "place_name": "Vrba", "latitude": "43.6904", "longitude": "20.7861"}, {"country_code": "RS", "postal_code": "36215", "place_name": "Podunavci", "latitude": "43.6715", "longitude": "20.8301"}, {"country_code": "RS", "postal_code": "36216", "place_name": "Novo Selo", "latitude": "43.6504", "longitude": "20.8734"}, {"country_code": "RS", "postal_code": "36217", "place_name": "Vrnjci", "latitude": "43.6138", "longitude": "20.8781"}, {"country_code": "RS", "postal_code": "36220", "place_name": "\u010cukojevac", "latitude": "43.7111", "longitude": "20.8362"}, {"country_code": "RS", "postal_code": "36221", "place_name": "\u017di\u010da", "latitude": "43.6944", "longitude": "20.6542"}, {"country_code": "RS", "postal_code": "36222", "place_name": "Rudno", "latitude": "43.4147", "longitude": "20.4818"}, {"country_code": "RS", "postal_code": "36300", "place_name": "Novi Pazar", "latitude": "43.1367", "longitude": "20.5122"}, {"country_code": "RS", "postal_code": "36305", "place_name": "De\u017eeva", "latitude": "43.2038", "longitude": "20.4797"}, {"country_code": "RS", "postal_code": "36306", "place_name": "Lukare", "latitude": "43.0731", "longitude": "20.4628"}, {"country_code": "RS", "postal_code": "36307", "place_name": "Delime\u0111e", "latitude": "43.1041", "longitude": "20.3022"}, {"country_code": "RS", "postal_code": "36308", "place_name": "Sopo\u0107ani", "latitude": "43.0977", "longitude": "20.4453"}, {"country_code": "RS", "postal_code": "36309", "place_name": "Ribari\u0107e", "latitude": "42.9707", "longitude": "20.4697"}, {"country_code": "RS", "postal_code": "36310", "place_name": "Sjenica", "latitude": "43.2731", "longitude": "19.9994"}, {"country_code": "RS", "postal_code": "36311", "place_name": "\u0160tavalj", "latitude": "43.274", "longitude": "20.1171"}, {"country_code": "RS", "postal_code": "36312", "place_name": "Duga Poljana", "latitude": "43.2515", "longitude": "20.2278"}, {"country_code": "RS", "postal_code": "36313", "place_name": "Ugao", "latitude": "43.0501", "longitude": "20.0568"}, {"country_code": "RS", "postal_code": "36314", "place_name": "\u0160titare", "latitude": "43.2263", "longitude": "20.3337"}, {"country_code": "RS", "postal_code": "36315", "place_name": "Bare", "latitude": "43.1742", "longitude": "19.7509"}, {"country_code": "RS", "postal_code": "36320", "place_name": "Tutin", "latitude": "42.9903", "longitude": "20.3314"}, {"country_code": "RS", "postal_code": "36321", "place_name": "Crkvine", "latitude": "43.0512", "longitude": "20.3879"}, {"country_code": "RS", "postal_code": "36340", "place_name": "Konarevo", "latitude": "43.702", "longitude": "20.6123"}, {"country_code": "RS", "postal_code": "36341", "place_name": "Bogutovac", "latitude": "43.6663", "longitude": "20.5495"}, {"country_code": "RS", "postal_code": "36342", "place_name": "U\u0161\u0107e", "latitude": "43.4675", "longitude": "20.6146"}, {"country_code": "RS", "postal_code": "36343", "place_name": "Studenica", "latitude": "43.5159", "longitude": "20.6346"}, {"country_code": "RS", "postal_code": "36344", "place_name": "Baljevac na Ibru", "latitude": "43.5159", "longitude": "20.6346"}, {"country_code": "RS", "postal_code": "36345", "place_name": "Jo\u0161ani\u010dka Banja", "latitude": "43.3894", "longitude": "20.7505"}, {"country_code": "RS", "postal_code": "36346", "place_name": "Brvenik", "latitude": "43.3544", "longitude": "20.6461"}, {"country_code": "RS", "postal_code": "36350", "place_name": "Ra\u0161ka", "latitude": "43.2872", "longitude": "20.6153"}, {"country_code": "RS", "postal_code": "36353", "place_name": "Rudnica", "latitude": "43.2368", "longitude": "20.6844"}, {"country_code": "RS", "postal_code": "36354", "place_name": "Kopaonik", "latitude": "43.286", "longitude": "20.8092"}, {"country_code": "RS", "postal_code": "37000", "place_name": "Kru\u0161evac", "latitude": "43.58", "longitude": "21.3339"}, {"country_code": "RS", "postal_code": "37201", "place_name": "Parunovac", "latitude": "43.5702", "longitude": "21.3656"}, {"country_code": "RS", "postal_code": "37202", "place_name": "\u0110unis", "latitude": "43.5291", "longitude": "21.3944"}, {"country_code": "RS", "postal_code": "37203", "place_name": "Zdravinje", "latitude": "43.4982", "longitude": "21.446"}, {"country_code": "RS", "postal_code": "37204", "place_name": "Veliki \u0160iljegovac", "latitude": "43.519", "longitude": "21.5297"}, {"country_code": "RS", "postal_code": "37205", "place_name": "Ribarska Banja", "latitude": "43.5291", "longitude": "21.3944"}, {"country_code": "RS", "postal_code": "37206", "place_name": "Dvorane", "latitude": "43.4978", "longitude": "21.4119"}, {"country_code": "RS", "postal_code": "37208", "place_name": "\u010citluk", "latitude": "43.594", "longitude": "21.2719"}, {"country_code": "RS", "postal_code": "37209", "place_name": "Velika Lomnica", "latitude": "43.4957", "longitude": "21.3414"}, {"country_code": "RS", "postal_code": "37210", "place_name": "\u0106i\u0107evac", "latitude": "43.7188", "longitude": "21.4408"}, {"country_code": "RS", "postal_code": "37212", "place_name": "Stala\u0107", "latitude": "43.6774", "longitude": "21.4133"}, {"country_code": "RS", "postal_code": "37213", "place_name": "Vito\u0161evac", "latitude": "43.7471", "longitude": "21.5814"}, {"country_code": "RS", "postal_code": "37214", "place_name": "Pojate", "latitude": "43.7421", "longitude": "21.4555"}, {"country_code": "RS", "postal_code": "37215", "place_name": "Ra\u017eanj", "latitude": "43.6722", "longitude": "21.5494"}, {"country_code": "RS", "postal_code": "37216", "place_name": "Novi Bra\u010din", "latitude": "43.7531", "longitude": "21.5047"}, {"country_code": "RS", "postal_code": "37218", "place_name": "Skorica", "latitude": "43.7891", "longitude": "21.5647"}, {"country_code": "RS", "postal_code": "37220", "place_name": "Brus", "latitude": "43.3846", "longitude": "21.0289"}, {"country_code": "RS", "postal_code": "37221", "place_name": "Gornji Stepo\u0161", "latitude": "43.5066", "longitude": "21.2959"}, {"country_code": "RS", "postal_code": "37222", "place_name": "Kupci", "latitude": "43.4552", "longitude": "21.2331"}, {"country_code": "RS", "postal_code": "37223", "place_name": "Razbojna", "latitude": "43.3471", "longitude": "21.1659"}, {"country_code": "RS", "postal_code": "37224", "place_name": "Lepenac", "latitude": "43.3447", "longitude": "21.0916"}, {"country_code": "RS", "postal_code": "37225", "place_name": "Brze\u0107e", "latitude": "43.3017", "longitude": "20.885"}, {"country_code": "RS", "postal_code": "37226", "place_name": "Bla\u017eevo", "latitude": "43.2289", "longitude": "20.9086"}, {"country_code": "RS", "postal_code": "37227", "place_name": "Milentija", "latitude": "43.4325", "longitude": "20.9822"}, {"country_code": "RS", "postal_code": "37228", "place_name": "Zlatari", "latitude": "43.3869", "longitude": "21.1581"}, {"country_code": "RS", "postal_code": "37230", "place_name": "Aleksandrovac", "latitude": "43.4586", "longitude": "21.0525"}, {"country_code": "RS", "postal_code": "37231", "place_name": "Pepeljevac", "latitude": "43.5644", "longitude": "21.2555"}, {"country_code": "RS", "postal_code": "37233", "place_name": "Velika Vrbnica", "latitude": "43.4897", "longitude": "20.9688"}, {"country_code": "RS", "postal_code": "37234", "place_name": "Gornji Stupanj", "latitude": "43.4727", "longitude": "21.185"}, {"country_code": "RS", "postal_code": "37235", "place_name": "Trnavci", "latitude": "43.4295", "longitude": "21.1166"}, {"country_code": "RS", "postal_code": "37236", "place_name": "Rataje", "latitude": "43.4778", "longitude": "21.1425"}, {"country_code": "RS", "postal_code": "37237", "place_name": "Plo\u010da", "latitude": "43.4484", "longitude": "20.86"}, {"country_code": "RS", "postal_code": "37238", "place_name": "Ple\u0161", "latitude": "43.4844", "longitude": "20.9181"}, {"country_code": "RS", "postal_code": "37239", "place_name": "\u0160ljivovo", "latitude": "43.4084", "longitude": "21.072"}, {"country_code": "RS", "postal_code": "37240", "place_name": "Trstenik", "latitude": "43.6169", "longitude": "21.0025"}, {"country_code": "RS", "postal_code": "37242", "place_name": "Stopanja", "latitude": "43.5802", "longitude": "21.1502"}, {"country_code": "RS", "postal_code": "37243", "place_name": "Po\u010dekovina", "latitude": "43.5924", "longitude": "21.0835"}, {"country_code": "RS", "postal_code": "37244", "place_name": "Medve\u0111a", "latitude": "43.6307", "longitude": "21.0757"}, {"country_code": "RS", "postal_code": "37245", "place_name": "Velika Drenova", "latitude": "43.6269", "longitude": "21.1299"}, {"country_code": "RS", "postal_code": "37246", "place_name": "Milutovac", "latitude": "43.6875", "longitude": "21.1291"}, {"country_code": "RS", "postal_code": "37251", "place_name": "Globoder", "latitude": "43.5634", "longitude": "21.1739"}, {"country_code": "RS", "postal_code": "37252", "place_name": "Jasika", "latitude": "43.6147", "longitude": "21.298"}, {"country_code": "RS", "postal_code": "37253", "place_name": "Bela Voda", "latitude": "43.6172", "longitude": "21.1993"}, {"country_code": "RS", "postal_code": "37254", "place_name": "Konjuh", "latitude": "43.6433", "longitude": "21.1814"}, {"country_code": "RS", "postal_code": "37255", "place_name": "Kukljin", "latitude": "43.6042", "longitude": "21.2338"}, {"country_code": "RS", "postal_code": "37256", "place_name": "Kaonik", "latitude": "43.5592", "longitude": "21.4969"}, {"country_code": "RS", "postal_code": "37257", "place_name": "Pade\u017e", "latitude": "43.6632", "longitude": "21.2858"}, {"country_code": "RS", "postal_code": "37258", "place_name": "Donji Kr\u010din", "latitude": "43.7351", "longitude": "21.1836"}, {"country_code": "RS", "postal_code": "37259", "place_name": "Ribare", "latitude": "43.4545", "longitude": "21.5327"}, {"country_code": "RS", "postal_code": "37260", "place_name": "Varvarin", "latitude": "43.724", "longitude": "21.3624"}, {"country_code": "RS", "postal_code": "37262", "place_name": "Bo\u0161njane", "latitude": "43.6638", "longitude": "21.3656"}, {"country_code": "RS", "postal_code": "37265", "place_name": "Ba\u010dina", "latitude": "43.7261", "longitude": "21.2979"}, {"country_code": "RS", "postal_code": "37266", "place_name": "Obre\u017e", "latitude": "43.7684", "longitude": "21.3482"}, {"country_code": "RS", "postal_code": "37271", "place_name": "Da\u0161nica", "latitude": "43.475", "longitude": "21.1593"}, {"country_code": "RS", "postal_code": "37282", "place_name": "Kriva Reka", "latitude": "43.3747", "longitude": "20.8799"}]