[{"country_code": "HT", "postal_code": "HT3110", "place_name": "Port-de-Paix", "latitude": "19.9398", "longitude": "-72.8304"}, {"country_code": "HT", "postal_code": "HT3111", "place_name": "La Pointe", "latitude": "19.9452", "longitude": "-72.7751"}, {"country_code": "HT", "postal_code": "HT3120", "place_name": "La Tortue", "latitude": "20.0251", "longitude": "-72.7778"}, {"country_code": "HT", "postal_code": "HT3121", "place_name": "Pointe des Oiseaux", "latitude": "20.0157", "longitude": "-72.764"}, {"country_code": "HT", "postal_code": "HT3122", "place_name": "Mare Rouge", "latitude": "20.0344", "longitude": "-72.7916"}, {"country_code": "HT", "postal_code": "HT3130", "place_name": "Bassin-Bleu", "latitude": "19.9637", "longitude": "-72.7993"}, {"country_code": "HT", "postal_code": "HT3140", "place_name": "Chansolme", "latitude": "19.8832", "longitude": "-72.8355"}, {"country_code": "HT", "postal_code": "HT3210", "place_name": "Saint-Louis-du-Nord", "latitude": "19.9038", "longitude": "-72.6868"}, {"country_code": "HT", "postal_code": "HT3211", "place_name": "Bonneau", "latitude": "19.9076", "longitude": "-72.6569"}, {"country_code": "HT", "postal_code": "HT3212", "place_name": "Guichard", "latitude": "19.9", "longitude": "-72.7167"}, {"country_code": "HT", "postal_code": "HT3220", "place_name": "Anse-\u00e0-Foleur", "latitude": "19.8926", "longitude": "-72.6201"}, {"country_code": "HT", "postal_code": "HT3310", "place_name": "M\u00f4le-Saint-Nicolas", "latitude": "19.7361", "longitude": "-73.2461"}, {"country_code": "HT", "postal_code": "HT3320", "place_name": "Bombardopolis", "latitude": "19.6914", "longitude": "-73.3377"}, {"country_code": "HT", "postal_code": "HT3330", "place_name": "Baie-de-Henne", "latitude": "19.6631", "longitude": "-73.2094"}, {"country_code": "HT", "postal_code": "HT3340", "place_name": "Jean-Rabel", "latitude": "19.8538", "longitude": "-73.1913"}, {"country_code": "HT", "postal_code": "HT4110", "place_name": "Gona\u00efves", "latitude": "19.4475", "longitude": "-72.6893"}, {"country_code": "HT", "postal_code": "HT4111", "place_name": "Petite Rivi\u00e8re de l\u2019Artibonite", "latitude": "19.124", "longitude": "-72.4817"}, {"country_code": "HT", "postal_code": "HT4120", "place_name": "Ennery", "latitude": "19.4834", "longitude": "-72.4854"}, {"country_code": "HT", "postal_code": "HT4130", "place_name": "L'Est\u00e8re", "latitude": "19.3031", "longitude": "-72.6097"}, {"country_code": "HT", "postal_code": "HT4210", "place_name": "Gros Morne", "latitude": "19.6708", "longitude": "-72.6781"}, {"country_code": "HT", "postal_code": "HT4220", "place_name": "Terre-Neuve", "latitude": "19.5995", "longitude": "-72.7809"}, {"country_code": "HT", "postal_code": "HT4230", "place_name": "Anse-Rouge", "latitude": "19.6345", "longitude": "-72.9179"}, {"country_code": "HT", "postal_code": "HT4231", "place_name": "Sources Chaudes", "latitude": "19.6345", "longitude": "-72.9179"}, {"country_code": "HT", "postal_code": "HT4310", "place_name": "Saint-Marc", "latitude": "19.1082", "longitude": "-72.6938"}, {"country_code": "HT", "postal_code": "HT4311", "place_name": "Montrouis", "latitude": "19.0977", "longitude": "-72.7082"}, {"country_code": "HT", "postal_code": "HT4320", "place_name": "Verrettes", "latitude": "19.0505", "longitude": "-72.4658"}, {"country_code": "HT", "postal_code": "HT4321", "place_name": "D\u00e9sarmes", "latitude": "18.9935", "longitude": "-72.3906"}, {"country_code": "HT", "postal_code": "HT4322", "place_name": "Deschapelles", "latitude": "19.0736", "longitude": "-72.4918"}, {"country_code": "HT", "postal_code": "HT4323", "place_name": "Liancourt", "latitude": "19.1247", "longitude": "-72.5371"}, {"country_code": "HT", "postal_code": "HT4410", "place_name": "Dessalines (Marchand-Dessalines)", "latitude": "19.1731", "longitude": "-72.5656"}, {"country_code": "HT", "postal_code": "HT4420", "place_name": "Petite-Rivi\u00e8re-de-l\u2019Artibonite", "latitude": "19.124", "longitude": "-72.4817"}, {"country_code": "HT", "postal_code": "HT4421", "place_name": "Savane \u00e0 Roches", "latitude": "19.011", "longitude": "-72.367"}, {"country_code": "HT", "postal_code": "HT4430", "place_name": "Grande-Saline", "latitude": "19.2651", "longitude": "-72.769"}, {"country_code": "HT", "postal_code": "HT4440", "place_name": "Desdunes", "latitude": "19.2924", "longitude": "-72.6448"}, {"country_code": "HT", "postal_code": "HT4510", "place_name": "Marmelade", "latitude": "19.5174", "longitude": "-72.3613"}, {"country_code": "HT", "postal_code": "HT4520", "place_name": "Saint-Michel-de-l\u2019Attalaye", "latitude": "19.5174", "longitude": "-72.3613"}, {"country_code": "HT", "postal_code": "HT4530", "place_name": "Moreau Paye", "latitude": "19.5174", "longitude": "-72.3613"}, {"country_code": "HT", "postal_code": "HT5110", "place_name": "Hinche", "latitude": "19.15", "longitude": "-72.0167"}, {"country_code": "HT", "postal_code": "HT5111", "place_name": "Los Palis", "latitude": "19.1417", "longitude": "-71.9402"}, {"country_code": "HT", "postal_code": "HT5120", "place_name": "Ma\u00efssade", "latitude": "19.1761", "longitude": "-72.1396"}, {"country_code": "HT", "postal_code": "HT5121", "place_name": "Louverture", "latitude": "19.4263", "longitude": "-72.3139"}, {"country_code": "HT", "postal_code": "HT5130", "place_name": "Thomonde", "latitude": "19.0173", "longitude": "-71.9623"}, {"country_code": "HT", "postal_code": "HT5140", "place_name": "Cerca-Carvajal", "latitude": "19.2696", "longitude": "-71.9386"}, {"country_code": "HT", "postal_code": "HT5210", "place_name": "Mirebalais", "latitude": "18.8345", "longitude": "-72.1048"}, {"country_code": "HT", "postal_code": "HT5211", "place_name": "Dufailly", "latitude": "18.5128", "longitude": "-74.2844"}, {"country_code": "HT", "postal_code": "HT5220", "place_name": "Saut-d\u2019Eau", "latitude": "18.7502", "longitude": "-72.8095"}, {"country_code": "HT", "postal_code": "HT5230", "place_name": "Boucan-Carr\u00e9", "latitude": "18.9033", "longitude": "-72.0392"}, {"country_code": "HT", "postal_code": "HT5231", "place_name": "P\u00e9ligre", "latitude": "18.9033", "longitude": "-72.0392"}, {"country_code": "HT", "postal_code": "HT5310", "place_name": "Lascahobas", "latitude": "18.8305", "longitude": "-71.9356"}, {"country_code": "HT", "postal_code": "HT5320", "place_name": "Bellad\u00e8re", "latitude": "18.8679", "longitude": "-71.7622"}, {"country_code": "HT", "postal_code": "HT5321", "place_name": "Baptiste", "latitude": "18.7976", "longitude": "-71.7831"}, {"country_code": "HT", "postal_code": "HT5330", "place_name": "Savanette", "latitude": "18.7443", "longitude": "-71.8219"}, {"country_code": "HT", "postal_code": "HT5410", "place_name": "Cerca-la-Source", "latitude": "19.1887", "longitude": "-71.7308"}, {"country_code": "HT", "postal_code": "HT5411", "place_name": "Saltad\u00e8re", "latitude": "19.1342", "longitude": "-71.7327"}, {"country_code": "HT", "postal_code": "HT5412", "place_name": "Lamielle", "latitude": "19.2432", "longitude": "-71.7288"}, {"country_code": "HT", "postal_code": "HT5420", "place_name": "Thomassique", "latitude": "19.0821", "longitude": "-71.8385"}, {"country_code": "HT", "postal_code": "HT1110", "place_name": "Cap-Ha\u00eftien (la ville)", "latitude": "19.7394", "longitude": "-72.1825"}, {"country_code": "HT", "postal_code": "HT1111", "place_name": "Bande-du-Nord (quartier du Cap)", "latitude": "19.7394", "longitude": "-72.1825"}, {"country_code": "HT", "postal_code": "HT1112", "place_name": "Labadie (quartier du Cap)", "latitude": "19.7394", "longitude": "-72.1825"}, {"country_code": "HT", "postal_code": "HT1113", "place_name": "Haut-du-Cap (quartier du Cap)", "latitude": "19.7394", "longitude": "-72.1825"}, {"country_code": "HT", "postal_code": "HT1114", "place_name": "Petite-Anse", "latitude": "19.7394", "longitude": "-72.1825"}, {"country_code": "HT", "postal_code": "HT1120", "place_name": "Quartier-Morin", "latitude": "19.697", "longitude": "-72.1571"}, {"country_code": "HT", "postal_code": "HT1130", "place_name": "Limonade", "latitude": "19.6701", "longitude": "-72.1243"}, {"country_code": "HT", "postal_code": "HT1210", "place_name": "Acul-du-Nord", "latitude": "19.6052", "longitude": "-72.3522"}, {"country_code": "HT", "postal_code": "HT1211", "place_name": "La Soufri\u00e8re", "latitude": "19.6052", "longitude": "-72.3522"}, {"country_code": "HT", "postal_code": "HT1220", "place_name": "Plaine-du-Nord", "latitude": "19.612", "longitude": "-72.2607"}, {"country_code": "HT", "postal_code": "HT1221", "place_name": "Robillard", "latitude": "19.612", "longitude": "-72.2607"}, {"country_code": "HT", "postal_code": "HT1230", "place_name": "Milot", "latitude": "19.6084", "longitude": "-72.2132"}, {"country_code": "HT", "postal_code": "HT1231", "place_name": "Carrefour-des-P\u00e8res", "latitude": "19.685", "longitude": "-72.2047"}, {"country_code": "HT", "postal_code": "HT1310", "place_name": "Grande-Rivi\u00e8re-du-Nord", "latitude": "19.631", "longitude": "-72.3013"}, {"country_code": "HT", "postal_code": "HT1320", "place_name": "Barbon", "latitude": "19.631", "longitude": "-72.3013"}, {"country_code": "HT", "postal_code": "HT1410", "place_name": "Saint-Rapha\u00ebl", "latitude": "19.4388", "longitude": "-72.1991"}, {"country_code": "HT", "postal_code": "HT1420", "place_name": "Dondon", "latitude": "19.5273", "longitude": "-72.2434"}, {"country_code": "HT", "postal_code": "HT1430", "place_name": "Ranquitte", "latitude": "19.4133", "longitude": "-72.0808"}, {"country_code": "HT", "postal_code": "HT1440", "place_name": "Pignon", "latitude": "19.3359", "longitude": "-72.1166"}, {"country_code": "HT", "postal_code": "HT1450", "place_name": "La Victoire", "latitude": "19.3375", "longitude": "-72.0206"}, {"country_code": "HT", "postal_code": "HT1510", "place_name": "Borgne", "latitude": "19.8451", "longitude": "-72.5235"}, {"country_code": "HT", "postal_code": "HT1511", "place_name": "Petit-Bourg-de-Borgne", "latitude": "19.8451", "longitude": "-72.5235"}, {"country_code": "HT", "postal_code": "HT1517", "place_name": "C\u00f4te-de-Fer et Fond", "latitude": "19.8451", "longitude": "-72.5235"}, {"country_code": "HT", "postal_code": "HT1520", "place_name": "Port-Margot", "latitude": "19.7518", "longitude": "-72.4301"}, {"country_code": "HT", "postal_code": "HT1521", "place_name": "Bayeux", "latitude": "19.808", "longitude": "-72.4321"}, {"country_code": "HT", "postal_code": "HT1522", "place_name": "Margot", "latitude": "19.8036", "longitude": "-72.5428"}, {"country_code": "HT", "postal_code": "HT1610", "place_name": "Limb\u00e9", "latitude": "19.706", "longitude": "-72.4034"}, {"country_code": "HT", "postal_code": "HT1611", "place_name": "Camp-Coq", "latitude": "19.6333", "longitude": "-72.4333"}, {"country_code": "HT", "postal_code": "HT1620", "place_name": "Bas-Limb\u00e9", "latitude": "19.7684", "longitude": "-72.3847"}, {"country_code": "HT", "postal_code": "HT1710", "place_name": "Plaisance", "latitude": "19.598", "longitude": "-72.4699"}, {"country_code": "HT", "postal_code": "HT1720", "place_name": "Pilate", "latitude": "19.6675", "longitude": "-72.5523"}, {"country_code": "HT", "postal_code": "HT1723", "place_name": "Ravine-Trompette", "latitude": "19.6675", "longitude": "-72.5523"}, {"country_code": "HT", "postal_code": "HT2110", "place_name": "Fort-Libert\u00e9", "latitude": "19.5868", "longitude": "-71.8483"}, {"country_code": "HT", "postal_code": "HT2111", "place_name": "D\u00e9rac", "latitude": "19.6548", "longitude": "-71.8145"}, {"country_code": "HT", "postal_code": "HT2112", "place_name": "Acul Samedi", "latitude": "19.5188", "longitude": "-71.8821"}, {"country_code": "HT", "postal_code": "HT2120", "place_name": "Ferrier", "latitude": "19.6155", "longitude": "-71.7779"}, {"country_code": "HT", "postal_code": "HT2121", "place_name": "Maribahoux", "latitude": "19.6155", "longitude": "-71.7779"}, {"country_code": "HT", "postal_code": "HT2130", "place_name": "Perches", "latitude": "19.522", "longitude": "-71.9232"}, {"country_code": "HT", "postal_code": "HT2210", "place_name": "Ouanaminthe", "latitude": "19.5493", "longitude": "-71.7248"}, {"country_code": "HT", "postal_code": "HT2220", "place_name": "Capotille", "latitude": "19.448", "longitude": "-71.6929"}, {"country_code": "HT", "postal_code": "HT2230", "place_name": "Mont-Organis\u00e9", "latitude": "19.4082", "longitude": "-71.7813"}, {"country_code": "HT", "postal_code": "HT2310", "place_name": "Trou-duNord", "latitude": "19.6231", "longitude": "-71.9885"}, {"country_code": "HT", "postal_code": "HT2320", "place_name": "Sainte-Suzanne", "latitude": "19.5834", "longitude": "-72.0889"}, {"country_code": "HT", "postal_code": "HT2321", "place_name": "Dupity", "latitude": "19.4833", "longitude": "-72.05"}, {"country_code": "HT", "postal_code": "HT2330", "place_name": "Terrier-Rouge", "latitude": "19.6363", "longitude": "-71.9548"}, {"country_code": "HT", "postal_code": "HT2331", "place_name": "Pha\u00ebton", "latitude": "19.6753", "longitude": "-71.8969"}, {"country_code": "HT", "postal_code": "HT2332", "place_name": "Paulette", "latitude": "19.6676", "longitude": "-71.9232"}, {"country_code": "HT", "postal_code": "HT2340", "place_name": "Caracol", "latitude": "19.6927", "longitude": "-72.0173"}, {"country_code": "HT", "postal_code": "HT2410", "place_name": "Valli\u00e8res", "latitude": "19.4355", "longitude": "-71.9209"}, {"country_code": "HT", "postal_code": "HT2411", "place_name": "Grosse-Roche", "latitude": "19.4355", "longitude": "-71.9209"}, {"country_code": "HT", "postal_code": "HT2420", "place_name": "Carice", "latitude": "19.3779", "longitude": "-71.8303"}, {"country_code": "HT", "postal_code": "HT2430", "place_name": "Mombin-Crochu", "latitude": "19.3688", "longitude": "-71.9824"}, {"country_code": "HT", "postal_code": "HT2431", "place_name": "Bois-Laurence", "latitude": "19.3281", "longitude": "-71.8625"}, {"country_code": "HT", "postal_code": "HT3408", "place_name": "Puits Blain 38", "latitude": "19.8843", "longitude": "-72.8844"}, {"country_code": "HT", "postal_code": "HT6110", "place_name": "Port-au-Prince", "latitude": "18.5435", "longitude": "-72.3388"}, {"country_code": "HT", "postal_code": "HT6111", "place_name": "Bel-Air et Bourdon", "latitude": "18.5333", "longitude": "-72.3374"}, {"country_code": "HT", "postal_code": "HT6113", "place_name": "Turgeau", "latitude": "18.5347", "longitude": "-72.3317"}, {"country_code": "HT", "postal_code": "HT6114", "place_name": "Bois Verna", "latitude": "18.5364", "longitude": "-72.33"}, {"country_code": "HT", "postal_code": "HT6115", "place_name": "Lalue", "latitude": "18.5333", "longitude": "-72.3374"}, {"country_code": "HT", "postal_code": "HT6116", "place_name": "Carrefour Feuilles", "latitude": "18.5231", "longitude": "-72.3378"}, {"country_code": "HT", "postal_code": "HT6117", "place_name": "Morne de l\u2019H\u00f4pital", "latitude": "18.5333", "longitude": "-72.3374"}, {"country_code": "HT", "postal_code": "HT6118", "place_name": "Bolosse", "latitude": "18.5286", "longitude": "-72.3489"}, {"country_code": "HT", "postal_code": "HT6119", "place_name": "Martissant et Fontamara", "latitude": "18.5333", "longitude": "-72.3374"}, {"country_code": "HT", "postal_code": "HT6120", "place_name": "Delmas", "latitude": "18.5201", "longitude": "-72.4911"}, {"country_code": "HT", "postal_code": "HT6121", "place_name": "Varreux", "latitude": "18.3833", "longitude": "-72.85"}, {"country_code": "HT", "postal_code": "HT6122", "place_name": "Cit\u00e9 soleil", "latitude": "18.5803", "longitude": "-72.3381"}, {"country_code": "HT", "postal_code": "HT6123", "place_name": "Ma\u00efs G\u00e2t\u00e9, Tabarre zone 1", "latitude": "18.5201", "longitude": "-72.4911"}, {"country_code": "HT", "postal_code": "HT6123", "place_name": "Tabarre (zone1)", "latitude": "18.5201", "longitude": "-72.4911"}, {"country_code": "HT", "postal_code": "HT6124", "place_name": "Petite Place Cazeau, Tabarre zone 2", "latitude": "18.5201", "longitude": "-72.4911"}, {"country_code": "HT", "postal_code": "HT6124", "place_name": "Tabarre (zone2)", "latitude": "18.5201", "longitude": "-72.4911"}, {"country_code": "HT", "postal_code": "HT6125", "place_name": "Croix-des-Missions", "latitude": "18.5968", "longitude": "-72.2852"}, {"country_code": "HT", "postal_code": "HT6130", "place_name": "Carrefour", "latitude": "18.5411", "longitude": "-72.3992"}, {"country_code": "HT", "postal_code": "HT6131", "place_name": "Bizoton", "latitude": "18.5298", "longitude": "-72.3777"}, {"country_code": "HT", "postal_code": "HT6132", "place_name": "Diquini, Thor", "latitude": "18.5406", "longitude": "-72.4171"}, {"country_code": "HT", "postal_code": "HT6133", "place_name": "C\u00f4te-Page, Mahoti\u00e8re", "latitude": "18.5406", "longitude": "-72.4171"}, {"country_code": "HT", "postal_code": "HT6134", "place_name": "Arcachon", "latitude": "18.5425", "longitude": "-72.3986"}, {"country_code": "HT", "postal_code": "HT6134", "place_name": "Warney", "latitude": "18.5425", "longitude": "-72.3986"}, {"country_code": "HT", "postal_code": "HT6135", "place_name": "Brochette", "latitude": "18.5358", "longitude": "-72.4175"}, {"country_code": "HT", "postal_code": "HT6136", "place_name": "Mariani", "latitude": "18.5414", "longitude": "-72.4278"}, {"country_code": "HT", "postal_code": "HT6136", "place_name": "Lamentin", "latitude": "18.5521", "longitude": "-72.4089"}, {"country_code": "HT", "postal_code": "HT6136", "place_name": "Merger", "latitude": "18.5415", "longitude": "-72.4902"}, {"country_code": "HT", "postal_code": "HT6140", "place_name": "P\u00e9tion-Ville", "latitude": "18.5125", "longitude": "-72.2853"}, {"country_code": "HT", "postal_code": "HT6141", "place_name": "Fr\u00e8res, pergnier,peguy-ville", "latitude": "18.4966", "longitude": "-72.2896"}, {"country_code": "HT", "postal_code": "HT6142", "place_name": "P\u00e8lerin", "latitude": "18.5042", "longitude": "-72.2958"}, {"country_code": "HT", "postal_code": "HT6143", "place_name": "T\u00eate de l\u2019Eau", "latitude": "18.5", "longitude": "-72.2833"}, {"country_code": "HT", "postal_code": "HT6144", "place_name": "Laboule", "latitude": "18.4966", "longitude": "-72.2896"}, {"country_code": "HT", "postal_code": "HT6145", "place_name": "Thomassin", "latitude": "18.4966", "longitude": "-72.2896"}, {"country_code": "HT", "postal_code": "HT6146", "place_name": "Fermathe", "latitude": "18.4696", "longitude": "-72.294"}, {"country_code": "HT", "postal_code": "HT6147", "place_name": "Pergnier", "latitude": "18.4966", "longitude": "-72.2896"}, {"country_code": "HT", "postal_code": "HT6150", "place_name": "Kenscoff", "latitude": "18.4477", "longitude": "-72.284"}, {"country_code": "HT", "postal_code": "HT6160", "place_name": "Gressier", "latitude": "18.5409", "longitude": "-72.5268"}, {"country_code": "HT", "postal_code": "HT6210", "place_name": "L\u00e9og\u00e2ne", "latitude": "18.5111", "longitude": "-72.6334"}, {"country_code": "HT", "postal_code": "HT6211", "place_name": "Trouin", "latitude": "18.3651", "longitude": "-72.6557"}, {"country_code": "HT", "postal_code": "HT6212", "place_name": "Orangers", "latitude": "18.4438", "longitude": "-72.5467"}, {"country_code": "HT", "postal_code": "HT6220", "place_name": "PetitGo\u00e2ve", "latitude": "18.4194", "longitude": "-72.9334"}, {"country_code": "HT", "postal_code": "HT6221", "place_name": "Vialet", "latitude": "18.4194", "longitude": "-72.9334"}, {"country_code": "HT", "postal_code": "HT6230", "place_name": "Grand Go\u00e2ve", "latitude": "18.4259", "longitude": "-72.7699"}, {"country_code": "HT", "postal_code": "HT6310", "place_name": "Croix-des-Bouquets", "latitude": "18.5768", "longitude": "-72.2262"}, {"country_code": "HT", "postal_code": "HT6311", "place_name": "Santo", "latitude": "18.6025", "longitude": "-72.264"}, {"country_code": "HT", "postal_code": "HT6312", "place_name": "Bon Repos", "latitude": "18.6278", "longitude": "-72.2693"}, {"country_code": "HT", "postal_code": "HT6320", "place_name": "Thomazeau", "latitude": "18.653", "longitude": "-72.0939"}, {"country_code": "HT", "postal_code": "HT6330", "place_name": "Cornillon", "latitude": "18.6755", "longitude": "-71.9527"}, {"country_code": "HT", "postal_code": "HT6330", "place_name": "Ganthier", "latitude": "18.5316", "longitude": "-72.0633"}, {"country_code": "HT", "postal_code": "HT6331", "place_name": "Fonds Parisien et Galette Bonbon", "latitude": "18.6035", "longitude": "-72.008"}, {"country_code": "HT", "postal_code": "HT6340", "place_name": "Fonds Verettes", "latitude": "18.3957", "longitude": "-71.8563"}, {"country_code": "HT", "postal_code": "HT6410", "place_name": "Arcahaie", "latitude": "18.7702", "longitude": "-72.5123"}, {"country_code": "HT", "postal_code": "HT6411", "place_name": "Saintard", "latitude": "18.8253", "longitude": "-72.5496"}, {"country_code": "HT", "postal_code": "HT6420", "place_name": "Cabaret", "latitude": "18.7358", "longitude": "-72.4193"}, {"country_code": "HT", "postal_code": "HT6421", "place_name": "Casale", "latitude": "18.7999", "longitude": "-72.3828"}, {"country_code": "HT", "postal_code": "HT6510", "place_name": "Anse \u00e0 Galets (La Gon\u00e2ve)", "latitude": "18.8345", "longitude": "-72.8664"}, {"country_code": "HT", "postal_code": "HT6520", "place_name": "Pointe \u00e0 Raquette (La Gon\u00e2ve)", "latitude": "18.8345", "longitude": "-72.8664"}, {"country_code": "HT", "postal_code": "HT8110", "place_name": "Les Cayes", "latitude": "18.1933", "longitude": "-73.746"}, {"country_code": "HT", "postal_code": "HT8120", "place_name": "Torbeck", "latitude": "18.1634", "longitude": "-73.8095"}, {"country_code": "HT", "postal_code": "HT8121", "place_name": "puits Blain", "latitude": "18.1978", "longitude": "-73.847"}, {"country_code": "HT", "postal_code": "HT8122", "place_name": "Ducis", "latitude": "18.2323", "longitude": "-73.8846"}, {"country_code": "HT", "postal_code": "HT8130", "place_name": "Chantal", "latitude": "18.2017", "longitude": "-73.8896"}, {"country_code": "HT", "postal_code": "HT8140", "place_name": "Camp Perrin", "latitude": "18.3265", "longitude": "-73.8673"}, {"country_code": "HT", "postal_code": "HT8150", "place_name": "Maniche", "latitude": "18.345", "longitude": "-73.7772"}, {"country_code": "HT", "postal_code": "HT8160", "place_name": "L\u2019\u00cfle \u00e0 Vaches", "latitude": "18.2437", "longitude": "-73.829"}, {"country_code": "HT", "postal_code": "HT8210", "place_name": "Port-Salut", "latitude": "18.077", "longitude": "-73.9173"}, {"country_code": "HT", "postal_code": "HT8220", "place_name": "Saint Jean du Sud", "latitude": "18.0761", "longitude": "-73.8125"}, {"country_code": "HT", "postal_code": "HT8230", "place_name": "Arniquet", "latitude": "18.1167", "longitude": "-73.9167"}, {"country_code": "HT", "postal_code": "HT8310", "place_name": "Aquin", "latitude": "18.2797", "longitude": "-73.3943"}, {"country_code": "HT", "postal_code": "HT8311", "place_name": "Fond-Des-Blancs", "latitude": "18.2982", "longitude": "-73.3222"}, {"country_code": "HT", "postal_code": "HT8312", "place_name": "Vieux Bourg d\u2019Aquin", "latitude": "18.2982", "longitude": "-73.3222"}, {"country_code": "HT", "postal_code": "HT8313", "place_name": "La Colline", "latitude": "18.3167", "longitude": "-73.25"}, {"country_code": "HT", "postal_code": "HT8320", "place_name": "Saint Louis du Sud", "latitude": "18.2624", "longitude": "-73.546"}, {"country_code": "HT", "postal_code": "HT8330", "place_name": "Cavaillon", "latitude": "18.2999", "longitude": "-73.6546"}, {"country_code": "HT", "postal_code": "HT8410", "place_name": "C\u00f4teaux", "latitude": "18.206", "longitude": "-74.0401"}, {"country_code": "HT", "postal_code": "HT8411", "place_name": "Damassin", "latitude": "18.2333", "longitude": "-74.0667"}, {"country_code": "HT", "postal_code": "HT8412", "place_name": "La C\u00f4te", "latitude": "18.2197", "longitude": "-74.0534"}, {"country_code": "HT", "postal_code": "HT8420", "place_name": "Port \u00e0 Piment", "latitude": "18.2496", "longitude": "-74.0971"}, {"country_code": "HT", "postal_code": "HT8430", "place_name": "Roche \u00e0 Bateau", "latitude": "18.1818", "longitude": "-74.0034"}, {"country_code": "HT", "postal_code": "HT8510", "place_name": "Chardonni\u00e8res", "latitude": "18.2748", "longitude": "-74.1661"}, {"country_code": "HT", "postal_code": "HT8511", "place_name": "Randel", "latitude": "18.309", "longitude": "-74.1009"}, {"country_code": "HT", "postal_code": "HT8520", "place_name": "Les Anglais", "latitude": "18.3054", "longitude": "-74.2197"}, {"country_code": "HT", "postal_code": "HT8530", "place_name": "Tiburon", "latitude": "18.3259", "longitude": "-74.396"}, {"country_code": "HT", "postal_code": "HT8531", "place_name": "Cahonane", "latitude": "18.3259", "longitude": "-74.396"}, {"country_code": "HT", "postal_code": "HT9110", "place_name": "Jacmel", "latitude": "18.2343", "longitude": "-72.5354"}, {"country_code": "HT", "postal_code": "HT9111", "place_name": "Marbial", "latitude": "18.3327", "longitude": "-72.4661"}, {"country_code": "HT", "postal_code": "HT9120", "place_name": "Marigot", "latitude": "18.2317", "longitude": "-72.3229"}, {"country_code": "HT", "postal_code": "HT9121", "place_name": "Seguin", "latitude": "18.2833", "longitude": "-72.3667"}, {"country_code": "HT", "postal_code": "HT9130", "place_name": "Cayes Jacmel", "latitude": "18.2311", "longitude": "-72.3954"}, {"country_code": "HT", "postal_code": "HT9140", "place_name": "La Vall\u00e9e de Jacmel", "latitude": "18.2694", "longitude": "-72.667"}, {"country_code": "HT", "postal_code": "HT9210", "place_name": "Bainet", "latitude": "18.184", "longitude": "-72.7523"}, {"country_code": "HT", "postal_code": "HT9220", "place_name": "C\u00f4tes de Fer", "latitude": "18.1887", "longitude": "-73.0029"}, {"country_code": "HT", "postal_code": "HT9310", "place_name": "Belle-Anse", "latitude": "18.2377", "longitude": "-72.0664"}, {"country_code": "HT", "postal_code": "HT9311", "place_name": "Mapou", "latitude": "18.3", "longitude": "-72.05"}, {"country_code": "HT", "postal_code": "HT9320", "place_name": "Grand Gosier", "latitude": "18.1854", "longitude": "-71.9182"}, {"country_code": "HT", "postal_code": "HT9321", "place_name": "Bodarie", "latitude": "18.2569", "longitude": "-71.8988"}, {"country_code": "HT", "postal_code": "HT9330", "place_name": "Thiotte", "latitude": "18.2438", "longitude": "-71.8416"}, {"country_code": "HT", "postal_code": "HT9340", "place_name": "Anse \u00e0 Pitre", "latitude": "18.05", "longitude": "-71.75"}, {"country_code": "HT", "postal_code": "HT9341", "place_name": "Banane", "latitude": "18.1428", "longitude": "-71.7612"}, {"country_code": "HT", "postal_code": "HT7110", "place_name": "J\u00e9r\u00e9mie", "latitude": "18.65", "longitude": "-74.1167"}, {"country_code": "HT", "postal_code": "HT7111", "place_name": "L\u00e9on", "latitude": "18.6162", "longitude": "-74.1674"}, {"country_code": "HT", "postal_code": "HT7112", "place_name": "Marfranc", "latitude": "18.5825", "longitude": "-74.2182"}, {"country_code": "HT", "postal_code": "HT7120", "place_name": "Abricots", "latitude": "18.649", "longitude": "-74.3079"}, {"country_code": "HT", "postal_code": "HT7130", "place_name": "Bonbon", "latitude": "18.6655", "longitude": "-74.2451"}, {"country_code": "HT", "postal_code": "HT7140", "place_name": "Moron", "latitude": "18.5604", "longitude": "-74.2578"}, {"country_code": "HT", "postal_code": "HT7141", "place_name": "Sources Chaudes", "latitude": "18.4839", "longitude": "-74.2867"}, {"country_code": "HT", "postal_code": "HT7150", "place_name": "Chambellan", "latitude": "18.5504", "longitude": "-74.3132"}, {"country_code": "HT", "postal_code": "HT7210", "place_name": "Anse-d\u2019Hainault", "latitude": "18.4882", "longitude": "-74.4216"}, {"country_code": "HT", "postal_code": "HT7220", "place_name": "Dame-Marie", "latitude": "18.5611", "longitude": "-74.4217"}, {"country_code": "HT", "postal_code": "HT7221", "place_name": "Lesson", "latitude": "18.6167", "longitude": "-74.3667"}, {"country_code": "HT", "postal_code": "HT7230", "place_name": "Les Irois", "latitude": "18.4049", "longitude": "-74.4528"}, {"country_code": "HT", "postal_code": "HT7231", "place_name": "Carcasse", "latitude": "18.3703", "longitude": "-74.4453"}, {"country_code": "HT", "postal_code": "HT7310", "place_name": "Corail", "latitude": "18.5677", "longitude": "-73.8894"}, {"country_code": "HT", "postal_code": "HT7320", "place_name": "Roseaux", "latitude": "18.6006", "longitude": "-74.0195"}, {"country_code": "HT", "postal_code": "HT7330", "place_name": "Beaumont", "latitude": "18.4787", "longitude": "-73.9564"}, {"country_code": "HT", "postal_code": "HT7340", "place_name": "Pestel", "latitude": "18.5413", "longitude": "-73.7952"}, {"country_code": "HT", "postal_code": "HT7410", "place_name": "Mirago\u00e2ne", "latitude": "18.446", "longitude": "-73.0896"}, {"country_code": "HT", "postal_code": "HT7411", "place_name": "Saint-Michel-du-Sud", "latitude": "18.3732", "longitude": "-73.1167"}, {"country_code": "HT", "postal_code": "HT7412", "place_name": "Paillant", "latitude": "18.4176", "longitude": "-73.1457"}, {"country_code": "HT", "postal_code": "HT7413", "place_name": "Fonds-des-N\u00e8gres", "latitude": "18.4123", "longitude": "-73.1173"}, {"country_code": "HT", "postal_code": "HT7420", "place_name": "Petite-Rivi\u00e8re-de-Nippes", "latitude": "18.4761", "longitude": "-73.2349"}, {"country_code": "HT", "postal_code": "HT7510", "place_name": "Anse-\u00e0-Veau", "latitude": "18.4863", "longitude": "-73.5382"}, {"country_code": "HT", "postal_code": "HT7520", "place_name": "Barad\u00e8res", "latitude": "18.4826", "longitude": "-73.6388"}, {"country_code": "HT", "postal_code": "HT7521", "place_name": "Grand-Boucan", "latitude": "18.5535", "longitude": "-73.5915"}, {"country_code": "HT", "postal_code": "HT7530", "place_name": "Petit-Trou-de-Nippes", "latitude": "18.5254", "longitude": "-73.5081"}, {"country_code": "HT", "postal_code": "HT7540", "place_name": "L\u2019Asile", "latitude": "18.384", "longitude": "-73.4144"}]