[{"country_code": "CR", "postal_code": "20101", "place_name": "Alajuela", "latitude": "10.0241", "longitude": "-84.2061"}, {"country_code": "CR", "postal_code": "20102", "place_name": "San Jos\u00e9", "latitude": "10.0075", "longitude": "-84.2475"}, {"country_code": "CR", "postal_code": "20103", "place_name": "Carrizal", "latitude": "10.0856", "longitude": "-84.1742"}, {"country_code": "CR", "postal_code": "20104", "place_name": "San Antonio", "latitude": "9.9894", "longitude": "-84.2443"}, {"country_code": "CR", "postal_code": "20105", "place_name": "Gu\u00e1cima", "latitude": "9.9593", "longitude": "-84.2606"}, {"country_code": "CR", "postal_code": "20106", "place_name": "San Isidro", "latitude": "10.0882", "longitude": "-84.1937"}, {"country_code": "CR", "postal_code": "20107", "place_name": "Sabanilla", "latitude": "10.0732", "longitude": "-84.2143"}, {"country_code": "CR", "postal_code": "20108", "place_name": "San Rafael", "latitude": "9.9598", "longitude": "-84.2278"}, {"country_code": "CR", "postal_code": "20109", "place_name": "R\u00edo Segundo", "latitude": "10.0003", "longitude": "-84.1951"}, {"country_code": "CR", "postal_code": "20110", "place_name": "Desamparados", "latitude": "10.0275", "longitude": "-84.185"}, {"country_code": "CR", "postal_code": "20111", "place_name": "Turr\u00facares", "latitude": "9.9441", "longitude": "-84.3253"}, {"country_code": "CR", "postal_code": "20112", "place_name": "Tambor", "latitude": "10.0281", "longitude": "-84.2573"}, {"country_code": "CR", "postal_code": "20113", "place_name": "Garita", "latitude": "9.9875", "longitude": "-84.3035"}, {"country_code": "CR", "postal_code": "20114", "place_name": "Sarapiqu\u00ed", "latitude": "10.2655", "longitude": "-84.1878"}, {"country_code": "CR", "postal_code": "20201", "place_name": "San Ram\u00f3n", "latitude": "10.0873", "longitude": "-84.4699"}, {"country_code": "CR", "postal_code": "20202", "place_name": "Santiago", "latitude": "10.0384", "longitude": "-84.5285"}, {"country_code": "CR", "postal_code": "20203", "place_name": "San Juan", "latitude": "10.1061", "longitude": "-84.4622"}, {"country_code": "CR", "postal_code": "20204", "place_name": "Piedades Norte", "latitude": "10.1473", "longitude": "-84.5373"}, {"country_code": "CR", "postal_code": "20205", "place_name": "Piedades Sur", "latitude": "10.0942", "longitude": "-84.5738"}, {"country_code": "CR", "postal_code": "20206", "place_name": "San Rafael", "latitude": "10.0267", "longitude": "-84.4748"}, {"country_code": "CR", "postal_code": "20207", "place_name": "San Isidro", "latitude": "10.0869", "longitude": "-84.4501"}, {"country_code": "CR", "postal_code": "20208", "place_name": "\u00c1ngeles", "latitude": "10.2521", "longitude": "-84.5929"}, {"country_code": "CR", "postal_code": "20209", "place_name": "Alfaro", "latitude": "10.0885", "longitude": "-84.503"}, {"country_code": "CR", "postal_code": "20210", "place_name": "Volio", "latitude": "10.1509", "longitude": "-84.4526"}, {"country_code": "CR", "postal_code": "20211", "place_name": "Concepci\u00f3n", "latitude": "10.1279", "longitude": "-84.436"}, {"country_code": "CR", "postal_code": "20212", "place_name": "Zapotal", "latitude": "10.1445", "longitude": "-84.6379"}, {"country_code": "CR", "postal_code": "20213", "place_name": "Pe\u00f1as Blancas", "latitude": "10.3787", "longitude": "-84.6787"}, {"country_code": "CR", "postal_code": "20301", "place_name": "Grecia", "latitude": "10.0697", "longitude": "-84.3131"}, {"country_code": "CR", "postal_code": "20302", "place_name": "San Isidro", "latitude": "10.1245", "longitude": "-84.2683"}, {"country_code": "CR", "postal_code": "20303", "place_name": "San Jos\u00e9", "latitude": "10.0887", "longitude": "-84.2758"}, {"country_code": "CR", "postal_code": "20304", "place_name": "San Roque", "latitude": "10.1229", "longitude": "-84.2876"}, {"country_code": "CR", "postal_code": "20305", "place_name": "Tacares", "latitude": "10.0276", "longitude": "-84.3094"}, {"country_code": "CR", "postal_code": "20306", "place_name": "R\u00edo Cuarto", "latitude": "10.4085", "longitude": "-84.2094"}, {"country_code": "CR", "postal_code": "20307", "place_name": "Puente de Piedra", "latitude": "10.0354", "longitude": "-84.3358"}, {"country_code": "CR", "postal_code": "20308", "place_name": "Bol\u00edvar", "latitude": "10.1363", "longitude": "-84.2983"}, {"country_code": "CR", "postal_code": "20401", "place_name": "San Mateo", "latitude": "9.9669", "longitude": "-84.5313"}, {"country_code": "CR", "postal_code": "20402", "place_name": "Desmonte", "latitude": "9.9656", "longitude": "-84.4766"}, {"country_code": "CR", "postal_code": "20403", "place_name": "Jes\u00fas Mar\u00eda", "latitude": "9.9452", "longitude": "-84.6097"}, {"country_code": "CR", "postal_code": "20501", "place_name": "Atenas", "latitude": "9.9808", "longitude": "-84.3696"}, {"country_code": "CR", "postal_code": "20502", "place_name": "Jes\u00fas", "latitude": "9.97", "longitude": "-84.4342"}, {"country_code": "CR", "postal_code": "20503", "place_name": "Mercedes", "latitude": "9.9867", "longitude": "-84.3994"}, {"country_code": "CR", "postal_code": "20504", "place_name": "San Isidro", "latitude": "9.9955", "longitude": "-84.4332"}, {"country_code": "CR", "postal_code": "20505", "place_name": "Concepci\u00f3n", "latitude": "9.9538", "longitude": "-84.3714"}, {"country_code": "CR", "postal_code": "20506", "place_name": "San Jos\u00e9", "latitude": "10.0146", "longitude": "-84.4042"}, {"country_code": "CR", "postal_code": "20507", "place_name": "Santa Eulalia", "latitude": "10.0149", "longitude": "-84.3753"}, {"country_code": "CR", "postal_code": "20508", "place_name": "Escobal", "latitude": "9.9442", "longitude": "-84.4241"}, {"country_code": "CR", "postal_code": "20601", "place_name": "Naranjo", "latitude": "10.101", "longitude": "-84.3908"}, {"country_code": "CR", "postal_code": "20602", "place_name": "San Miguel", "latitude": "10.0714", "longitude": "-84.395"}, {"country_code": "CR", "postal_code": "20603", "place_name": "San Jos\u00e9", "latitude": "10.1517", "longitude": "-84.4044"}, {"country_code": "CR", "postal_code": "20604", "place_name": "Cirr\u00ed Sur", "latitude": "10.1524", "longitude": "-84.3657"}, {"country_code": "CR", "postal_code": "20605", "place_name": "San Jer\u00f3nimo", "latitude": "10.1241", "longitude": "-84.355"}, {"country_code": "CR", "postal_code": "20606", "place_name": "San Juan", "latitude": "10.1198", "longitude": "-84.4155"}, {"country_code": "CR", "postal_code": "20607", "place_name": "El Rosario", "latitude": "10.0488", "longitude": "-84.3783"}, {"country_code": "CR", "postal_code": "20608", "place_name": "Palmitos", "latitude": "10.0973", "longitude": "-84.4248"}, {"country_code": "CR", "postal_code": "20701", "place_name": "Palmares", "latitude": "10.0541", "longitude": "-84.4329"}, {"country_code": "CR", "postal_code": "20702", "place_name": "Zaragoza", "latitude": "10.0375", "longitude": "-84.4438"}, {"country_code": "CR", "postal_code": "20703", "place_name": "Buenos Aires", "latitude": "10.0719", "longitude": "-84.4347"}, {"country_code": "CR", "postal_code": "20704", "place_name": "Santiago", "latitude": "10.021", "longitude": "-84.4473"}, {"country_code": "CR", "postal_code": "20705", "place_name": "Candelaria", "latitude": "10.0283", "longitude": "-84.4231"}, {"country_code": "CR", "postal_code": "20706", "place_name": "Esquipulas", "latitude": "10.0585", "longitude": "-84.4185"}, {"country_code": "CR", "postal_code": "20707", "place_name": "La Granja", "latitude": "10.0527", "longitude": "-84.4492"}, {"country_code": "CR", "postal_code": "20801", "place_name": "San Pedro", "latitude": "10.0775", "longitude": "-84.2453"}, {"country_code": "CR", "postal_code": "20802", "place_name": "San Juan", "latitude": "10.1333", "longitude": "-84.2357"}, {"country_code": "CR", "postal_code": "20803", "place_name": "San Rafael", "latitude": "10.0985", "longitude": "-84.2578"}, {"country_code": "CR", "postal_code": "20804", "place_name": "Carrillos", "latitude": "10.0363", "longitude": "-84.2732"}, {"country_code": "CR", "postal_code": "20805", "place_name": "Sabana Redonda", "latitude": "10.1427", "longitude": "-84.2144"}, {"country_code": "CR", "postal_code": "20901", "place_name": "Orotina", "latitude": "9.904", "longitude": "-84.5274"}, {"country_code": "CR", "postal_code": "20902", "place_name": "El Mastate", "latitude": "9.9164", "longitude": "-84.5593"}, {"country_code": "CR", "postal_code": "20903", "place_name": "Hacienda Vieja", "latitude": "9.9261", "longitude": "-84.4882"}, {"country_code": "CR", "postal_code": "20904", "place_name": "Coyolar", "latitude": "9.8711", "longitude": "-84.5731"}, {"country_code": "CR", "postal_code": "20905", "place_name": "La Ceiba", "latitude": "9.8975", "longitude": "-84.6268"}, {"country_code": "CR", "postal_code": "21001", "place_name": "Quesada", "latitude": "10.3262", "longitude": "-84.4126"}, {"country_code": "CR", "postal_code": "21002", "place_name": "Florencia", "latitude": "10.3936", "longitude": "-84.4892"}, {"country_code": "CR", "postal_code": "21003", "place_name": "Buenavista", "latitude": "10.2772", "longitude": "-84.4782"}, {"country_code": "CR", "postal_code": "21004", "place_name": "Aguas Zarcas", "latitude": "10.4652", "longitude": "-84.3491"}, {"country_code": "CR", "postal_code": "21005", "place_name": "Venecia", "latitude": "10.3349", "longitude": "-84.2893"}, {"country_code": "CR", "postal_code": "21006", "place_name": "Pital", "latitude": "10.5832", "longitude": "-84.2413"}, {"country_code": "CR", "postal_code": "21007", "place_name": "La Fortuna", "latitude": "10.4666", "longitude": "-84.6639"}, {"country_code": "CR", "postal_code": "21008", "place_name": "La Tigra", "latitude": "10.3501", "longitude": "-84.5882"}, {"country_code": "CR", "postal_code": "21009", "place_name": "La Palmera", "latitude": "10.3982", "longitude": "-84.3844"}, {"country_code": "CR", "postal_code": "21010", "place_name": "Venado", "latitude": "10.566", "longitude": "-84.7645"}, {"country_code": "CR", "postal_code": "21011", "place_name": "Cutris", "latitude": "10.7105", "longitude": "-84.3437"}, {"country_code": "CR", "postal_code": "21012", "place_name": "Monterrey", "latitude": "10.5647", "longitude": "-84.6325"}, {"country_code": "CR", "postal_code": "21013", "place_name": "Pocosol", "latitude": "10.7564", "longitude": "-84.4727"}, {"country_code": "CR", "postal_code": "21101", "place_name": "Zarcero", "latitude": "10.1896", "longitude": "-84.3796"}, {"country_code": "CR", "postal_code": "21102", "place_name": "Laguna", "latitude": "10.2131", "longitude": "-84.4446"}, {"country_code": "CR", "postal_code": "21103", "place_name": "Tapesco", "latitude": "10.2188", "longitude": "-84.4062"}, {"country_code": "CR", "postal_code": "21104", "place_name": "Guadalupe", "latitude": "10.1869", "longitude": "-84.4352"}, {"country_code": "CR", "postal_code": "21105", "place_name": "Palmira", "latitude": "10.2103", "longitude": "-84.349"}, {"country_code": "CR", "postal_code": "21106", "place_name": "Zapote", "latitude": "10.2435", "longitude": "-84.4519"}, {"country_code": "CR", "postal_code": "21107", "place_name": "Brisas", "latitude": "10.2424", "longitude": "-84.3873"}, {"country_code": "CR", "postal_code": "21201", "place_name": "Sarch\u00ed Norte", "latitude": "10.1403", "longitude": "-84.3273"}, {"country_code": "CR", "postal_code": "21202", "place_name": "Sarch\u00ed Sur", "latitude": "10.0772", "longitude": "-84.3438"}, {"country_code": "CR", "postal_code": "21203", "place_name": "Toro Amarillo", "latitude": "10.2218", "longitude": "-84.2864"}, {"country_code": "CR", "postal_code": "21204", "place_name": "San Pedro", "latitude": "10.1102", "longitude": "-84.3288"}, {"country_code": "CR", "postal_code": "21205", "place_name": "Rodr\u00edguez", "latitude": "10.1175", "longitude": "-84.3482"}, {"country_code": "CR", "postal_code": "21301", "place_name": "Upala", "latitude": "10.8443", "longitude": "-85.0197"}, {"country_code": "CR", "postal_code": "21302", "place_name": "Aguas Claras", "latitude": "10.8486", "longitude": "-85.2413"}, {"country_code": "CR", "postal_code": "21303", "place_name": "San Jos\u00e9 o Pizote", "latitude": "10.9617", "longitude": "-85.1734"}, {"country_code": "CR", "postal_code": "21304", "place_name": "Bijagua", "latitude": "10.7494", "longitude": "-85.0459"}, {"country_code": "CR", "postal_code": "21305", "place_name": "Delicias", "latitude": "10.9635", "longitude": "-85.0647"}, {"country_code": "CR", "postal_code": "21306", "place_name": "Dos R\u00edos", "latitude": "10.9454", "longitude": "-85.3578"}, {"country_code": "CR", "postal_code": "21307", "place_name": "Yolillal", "latitude": "10.9042", "longitude": "-84.9391"}, {"country_code": "CR", "postal_code": "21401", "place_name": "Los Chiles", "latitude": "10.9627", "longitude": "-84.6042"}, {"country_code": "CR", "postal_code": "21402", "place_name": "Ca\u00f1o Negro", "latitude": "10.9254", "longitude": "-84.81"}, {"country_code": "CR", "postal_code": "21403", "place_name": "El Amparo", "latitude": "10.8311", "longitude": "-84.6658"}, {"country_code": "CR", "postal_code": "21404", "place_name": "San Jorge", "latitude": "10.7187", "longitude": "-84.6101"}, {"country_code": "CR", "postal_code": "21501", "place_name": "San Rafael", "latitude": "10.6806", "longitude": "-84.7883"}, {"country_code": "CR", "postal_code": "21502", "place_name": "Buenavista", "latitude": "10.7759", "longitude": "-84.8158"}, {"country_code": "CR", "postal_code": "21503", "place_name": "Cote", "latitude": "10.6202", "longitude": "-84.9027"}, {"country_code": "CR", "postal_code": "21504", "place_name": "Katira", "latitude": "10.7458", "longitude": "-84.9183"}, {"country_code": "CR", "postal_code": "30101", "place_name": "Oriental", "latitude": "9.8618", "longitude": "-83.916"}, {"country_code": "CR", "postal_code": "30102", "place_name": "Occidental", "latitude": "9.8619", "longitude": "-83.9275"}, {"country_code": "CR", "postal_code": "30103", "place_name": "Carmen", "latitude": "9.8794", "longitude": "-83.9145"}, {"country_code": "CR", "postal_code": "30104", "place_name": "San Nicol\u00e1s", "latitude": "9.8953", "longitude": "-83.9403"}, {"country_code": "CR", "postal_code": "30105", "place_name": "Aguacaliente o San Francisco", "latitude": "9.7475", "longitude": "-83.8778"}, {"country_code": "CR", "postal_code": "30106", "place_name": "Guadalupe o Arenilla", "latitude": "9.8626", "longitude": "-83.961"}, {"country_code": "CR", "postal_code": "30107", "place_name": "Corralillo", "latitude": "9.789", "longitude": "-84.0508"}, {"country_code": "CR", "postal_code": "30108", "place_name": "Tierra Blanca", "latitude": "9.9258", "longitude": "-83.8918"}, {"country_code": "CR", "postal_code": "30109", "place_name": "Dulce Nombre", "latitude": "9.8116", "longitude": "-83.8864"}, {"country_code": "CR", "postal_code": "30110", "place_name": "Llano Grande", "latitude": "9.9405", "longitude": "-83.9176"}, {"country_code": "CR", "postal_code": "30111", "place_name": "Quebradilla", "latitude": "9.8492", "longitude": "-84.0012"}, {"country_code": "CR", "postal_code": "30201", "place_name": "Para\u00edso", "latitude": "9.8421", "longitude": "-83.8504"}, {"country_code": "CR", "postal_code": "30202", "place_name": "Santiago", "latitude": "9.8655", "longitude": "-83.8102"}, {"country_code": "CR", "postal_code": "30203", "place_name": "Orosi", "latitude": "9.6827", "longitude": "-83.7511"}, {"country_code": "CR", "postal_code": "30204", "place_name": "Cach\u00ed", "latitude": "9.8293", "longitude": "-83.7941"}, {"country_code": "CR", "postal_code": "30205", "place_name": "Llanos de Santa Luc\u00eda", "latitude": "9.8479", "longitude": "-83.8802"}, {"country_code": "CR", "postal_code": "30301", "place_name": "Tres R\u00edos", "latitude": "9.9077", "longitude": "-83.9885"}, {"country_code": "CR", "postal_code": "30302", "place_name": "San Diego", "latitude": "9.8929", "longitude": "-83.9956"}, {"country_code": "CR", "postal_code": "30303", "place_name": "San Juan", "latitude": "9.9116", "longitude": "-84.0063"}, {"country_code": "CR", "postal_code": "30304", "place_name": "San Rafael", "latitude": "9.9055", "longitude": "-83.9689"}, {"country_code": "CR", "postal_code": "30305", "place_name": "Concepci\u00f3n", "latitude": "9.9264", "longitude": "-83.9925"}, {"country_code": "CR", "postal_code": "30306", "place_name": "Dulce Nombre", "latitude": "9.9315", "longitude": "-83.9684"}, {"country_code": "CR", "postal_code": "30307", "place_name": "San Ram\u00f3n", "latitude": "9.938", "longitude": "-83.9899"}, {"country_code": "CR", "postal_code": "30308", "place_name": "R\u00edo Azul", "latitude": "9.8882", "longitude": "-84.02"}, {"country_code": "CR", "postal_code": "30401", "place_name": "Juan Vi\u00f1as", "latitude": "9.9017", "longitude": "-83.7465"}, {"country_code": "CR", "postal_code": "30402", "place_name": "Tucurrique", "latitude": "9.8436", "longitude": "-83.734"}, {"country_code": "CR", "postal_code": "30403", "place_name": "Pejibaye", "latitude": "9.7759", "longitude": "-83.6857"}, {"country_code": "CR", "postal_code": "30501", "place_name": "Turrialba", "latitude": "9.8872", "longitude": "-83.6861"}, {"country_code": "CR", "postal_code": "30502", "place_name": "La Suiza", "latitude": "9.7881", "longitude": "-83.6166"}, {"country_code": "CR", "postal_code": "30503", "place_name": "Peralta", "latitude": "9.9668", "longitude": "-83.6224"}, {"country_code": "CR", "postal_code": "30504", "place_name": "Santa Cruz", "latitude": "10.0086", "longitude": "-83.7555"}, {"country_code": "CR", "postal_code": "30505", "place_name": "Santa Teresita", "latitude": "9.9879", "longitude": "-83.6658"}, {"country_code": "CR", "postal_code": "30506", "place_name": "Pavones", "latitude": "9.9157", "longitude": "-83.6198"}, {"country_code": "CR", "postal_code": "30507", "place_name": "Tuis", "latitude": "9.8528", "longitude": "-83.5663"}, {"country_code": "CR", "postal_code": "30508", "place_name": "Tayutic", "latitude": "9.8083", "longitude": "-83.5477"}, {"country_code": "CR", "postal_code": "30509", "place_name": "Santa Rosa", "latitude": "9.9418", "longitude": "-83.7127"}, {"country_code": "CR", "postal_code": "30510", "place_name": "Tres Equis", "latitude": "9.9547", "longitude": "-83.5737"}, {"country_code": "CR", "postal_code": "30511", "place_name": "La Isabel", "latitude": "9.9289", "longitude": "-83.6621"}, {"country_code": "CR", "postal_code": "30512", "place_name": "Chirrip\u00f3", "latitude": "9.772", "longitude": "-83.4831"}, {"country_code": "CR", "postal_code": "30601", "place_name": "Pacayas", "latitude": "9.9397", "longitude": "-83.8191"}, {"country_code": "CR", "postal_code": "30602", "place_name": "Cervantes", "latitude": "9.8925", "longitude": "-83.804"}, {"country_code": "CR", "postal_code": "30603", "place_name": "Capellades", "latitude": "9.9555", "longitude": "-83.7929"}, {"country_code": "CR", "postal_code": "30701", "place_name": "San Rafael", "latitude": "9.8713", "longitude": "-83.8958"}, {"country_code": "CR", "postal_code": "30702", "place_name": "Cot", "latitude": "9.8893", "longitude": "-83.8697"}, {"country_code": "CR", "postal_code": "30703", "place_name": "Potrero Cerrado", "latitude": "9.9319", "longitude": "-83.8729"}, {"country_code": "CR", "postal_code": "30704", "place_name": "Cipreses", "latitude": "9.893", "longitude": "-83.8422"}, {"country_code": "CR", "postal_code": "30705", "place_name": "Santa Rosa", "latitude": "10.0453", "longitude": "-83.864"}, {"country_code": "CR", "postal_code": "30801", "place_name": "El Tejar", "latitude": "9.8437", "longitude": "-83.9475"}, {"country_code": "CR", "postal_code": "30802", "place_name": "San Isidro", "latitude": "9.7284", "longitude": "-83.9133"}, {"country_code": "CR", "postal_code": "30803", "place_name": "Tobosi", "latitude": "9.8218", "longitude": "-83.9942"}, {"country_code": "CR", "postal_code": "30804", "place_name": "Patio de Agua", "latitude": "9.7901", "longitude": "-84.0106"}, {"country_code": "CR", "postal_code": "50101", "place_name": "Liberia", "latitude": "10.5866", "longitude": "-85.4504"}, {"country_code": "CR", "postal_code": "50102", "place_name": "Ca\u00f1as Dulces", "latitude": "10.7602", "longitude": "-85.4504"}, {"country_code": "CR", "postal_code": "50103", "place_name": "Mayorga", "latitude": "10.8632", "longitude": "-85.4924"}, {"country_code": "CR", "postal_code": "50104", "place_name": "Nacascolo", "latitude": "10.7228", "longitude": "-85.6001"}, {"country_code": "CR", "postal_code": "50105", "place_name": "Curuband\u00e9", "latitude": "10.7016", "longitude": "-85.4362"}, {"country_code": "CR", "postal_code": "50201", "place_name": "Nicoya", "latitude": "10.1183", "longitude": "-85.5052"}, {"country_code": "CR", "postal_code": "50202", "place_name": "Mansi\u00f3n", "latitude": "10.1082", "longitude": "-85.3183"}, {"country_code": "CR", "postal_code": "50203", "place_name": "San Antonio", "latitude": "10.2594", "longitude": "-85.4006"}, {"country_code": "CR", "postal_code": "50204", "place_name": "Quebrada Honda", "latitude": "10.1943", "longitude": "-85.2871"}, {"country_code": "CR", "postal_code": "50205", "place_name": "S\u00e1mara", "latitude": "9.9109", "longitude": "-85.538"}, {"country_code": "CR", "postal_code": "50206", "place_name": "Nosara", "latitude": "9.9756", "longitude": "-85.6254"}, {"country_code": "CR", "postal_code": "50207", "place_name": "Bel\u00e9n de Nosarita", "latitude": "9.9932", "longitude": "-85.5154"}, {"country_code": "CR", "postal_code": "50301", "place_name": "Santa Cruz", "latitude": "10.2388", "longitude": "-85.5991"}, {"country_code": "CR", "postal_code": "50302", "place_name": "Bols\u00f3n", "latitude": "10.3485", "longitude": "-85.4534"}, {"country_code": "CR", "postal_code": "50303", "place_name": "Veintisiete de Abril", "latitude": "10.2002", "longitude": "-85.722"}, {"country_code": "CR", "postal_code": "50304", "place_name": "Tempate", "latitude": "10.3972", "longitude": "-85.7365"}, {"country_code": "CR", "postal_code": "50305", "place_name": "Cartagena", "latitude": "10.3628", "longitude": "-85.6761"}, {"country_code": "CR", "postal_code": "50306", "place_name": "Cuajiniquil", "latitude": "10.0723", "longitude": "-85.6954"}, {"country_code": "CR", "postal_code": "50307", "place_name": "Diri\u00e1", "latitude": "10.2823", "longitude": "-85.5229"}, {"country_code": "CR", "postal_code": "50308", "place_name": "Cabo Velas", "latitude": "10.3734", "longitude": "-85.8143"}, {"country_code": "CR", "postal_code": "50309", "place_name": "Tamarindo", "latitude": "10.2859", "longitude": "-85.7964"}, {"country_code": "CR", "postal_code": "50401", "place_name": "Bagaces", "latitude": "10.4655", "longitude": "-85.2828"}, {"country_code": "CR", "postal_code": "50402", "place_name": "La Fortuna", "latitude": "10.6614", "longitude": "-85.1688"}, {"country_code": "CR", "postal_code": "50403", "place_name": "Mogote", "latitude": "10.6954", "longitude": "-85.2719"}, {"country_code": "CR", "postal_code": "50404", "place_name": "R\u00edo Naranjo", "latitude": "10.6754", "longitude": "-85.106"}, {"country_code": "CR", "postal_code": "50501", "place_name": "Filadelfia", "latitude": "10.4075", "longitude": "-85.4681"}, {"country_code": "CR", "postal_code": "50502", "place_name": "Palmira", "latitude": "10.5492", "longitude": "-85.5912"}, {"country_code": "CR", "postal_code": "50503", "place_name": "Sardinal", "latitude": "10.5179", "longitude": "-85.6751"}, {"country_code": "CR", "postal_code": "50504", "place_name": "Bel\u00e9n", "latitude": "10.3974", "longitude": "-85.5921"}, {"country_code": "CR", "postal_code": "50601", "place_name": "Ca\u00f1as", "latitude": "10.4502", "longitude": "-85.0903"}, {"country_code": "CR", "postal_code": "50602", "place_name": "Palmira", "latitude": "10.5955", "longitude": "-85.0828"}, {"country_code": "CR", "postal_code": "50603", "place_name": "San Miguel", "latitude": "10.3438", "longitude": "-85.0659"}, {"country_code": "CR", "postal_code": "50604", "place_name": "Bebedero", "latitude": "10.3742", "longitude": "-85.155"}, {"country_code": "CR", "postal_code": "50605", "place_name": "Porozal", "latitude": "10.2803", "longitude": "-85.183"}, {"country_code": "CR", "postal_code": "50701", "place_name": "Las Juntas", "latitude": "10.2486", "longitude": "-84.9969"}, {"country_code": "CR", "postal_code": "50702", "place_name": "Sierra", "latitude": "10.3222", "longitude": "-84.8996"}, {"country_code": "CR", "postal_code": "50703", "place_name": "San Juan", "latitude": "10.2303", "longitude": "-84.9226"}, {"country_code": "CR", "postal_code": "50704", "place_name": "Colorado", "latitude": "10.2141", "longitude": "-85.1173"}, {"country_code": "CR", "postal_code": "50801", "place_name": "Tilar\u00e1n", "latitude": "10.4574", "longitude": "-84.9641"}, {"country_code": "CR", "postal_code": "50802", "place_name": "Quebrada Grande", "latitude": "10.3887", "longitude": "-84.8865"}, {"country_code": "CR", "postal_code": "50803", "place_name": "Tronadora", "latitude": "10.4243", "longitude": "-84.8356"}, {"country_code": "CR", "postal_code": "50804", "place_name": "Santa Rosa", "latitude": "10.5062", "longitude": "-85.0004"}, {"country_code": "CR", "postal_code": "50805", "place_name": "L\u00edbano", "latitude": "10.4033", "longitude": "-84.9862"}, {"country_code": "CR", "postal_code": "50806", "place_name": "Tierras Morenas", "latitude": "10.582", "longitude": "-84.9998"}, {"country_code": "CR", "postal_code": "50807", "place_name": "Arenal", "latitude": "10.5203", "longitude": "-84.8519"}, {"country_code": "CR", "postal_code": "50901", "place_name": "Carmona", "latitude": "9.9889", "longitude": "-85.2599"}, {"country_code": "CR", "postal_code": "50902", "place_name": "Santa Rita", "latitude": "10.0392", "longitude": "-85.2838"}, {"country_code": "CR", "postal_code": "50903", "place_name": "Zapotal", "latitude": "9.9959", "longitude": "-85.3018"}, {"country_code": "CR", "postal_code": "50904", "place_name": "San Pablo", "latitude": "10.018", "longitude": "-85.203"}, {"country_code": "CR", "postal_code": "50905", "place_name": "Porvenir", "latitude": "9.9168", "longitude": "-85.2797"}, {"country_code": "CR", "postal_code": "50906", "place_name": "Bejuco", "latitude": "9.8379", "longitude": "-85.2755"}, {"country_code": "CR", "postal_code": "51001", "place_name": "La Cruz", "latitude": "11.0704", "longitude": "-85.6213"}, {"country_code": "CR", "postal_code": "51002", "place_name": "Santa Cecilia", "latitude": "11.0489", "longitude": "-85.372"}, {"country_code": "CR", "postal_code": "51003", "place_name": "La Garita", "latitude": "11.0739", "longitude": "-85.5076"}, {"country_code": "CR", "postal_code": "51004", "place_name": "Santa Elena", "latitude": "10.8938", "longitude": "-85.6968"}, {"country_code": "CR", "postal_code": "51101", "place_name": "Hojancha", "latitude": "10.0452", "longitude": "-85.4257"}, {"country_code": "CR", "postal_code": "51102", "place_name": "Monte Romo", "latitude": "9.9645", "longitude": "-85.3892"}, {"country_code": "CR", "postal_code": "51103", "place_name": "Puerto Carrillo", "latitude": "9.9277", "longitude": "-85.4478"}, {"country_code": "CR", "postal_code": "51104", "place_name": "Huacas", "latitude": "10.0303", "longitude": "-85.3614"}, {"country_code": "CR", "postal_code": "40101", "place_name": "Heredia", "latitude": "9.9981", "longitude": "-84.117"}, {"country_code": "CR", "postal_code": "40102", "place_name": "Mercedes", "latitude": "10.0052", "longitude": "-84.1318"}, {"country_code": "CR", "postal_code": "40103", "place_name": "San Francisco", "latitude": "9.9925", "longitude": "-84.1312"}, {"country_code": "CR", "postal_code": "40104", "place_name": "Ulloa", "latitude": "9.9762", "longitude": "-84.1366"}, {"country_code": "CR", "postal_code": "40105", "place_name": "Varablanca", "latitude": "10.1654", "longitude": "-84.069"}, {"country_code": "CR", "postal_code": "40201", "place_name": "Barva", "latitude": "10.0204", "longitude": "-84.1236"}, {"country_code": "CR", "postal_code": "40202", "place_name": "San Pedro", "latitude": "10.0435", "longitude": "-84.1316"}, {"country_code": "CR", "postal_code": "40203", "place_name": "San Pablo", "latitude": "10.0421", "longitude": "-84.1145"}, {"country_code": "CR", "postal_code": "40204", "place_name": "San Roque", "latitude": "10.0153", "longitude": "-84.1367"}, {"country_code": "CR", "postal_code": "40205", "place_name": "Santa Luc\u00eda", "latitude": "10.0237", "longitude": "-84.1129"}, {"country_code": "CR", "postal_code": "40206", "place_name": "San Jos\u00e9 de la Monta\u00f1a", "latitude": "10.0955", "longitude": "-84.1106"}, {"country_code": "CR", "postal_code": "40301", "place_name": "Santo Domingo", "latitude": "9.9798", "longitude": "-84.0908"}, {"country_code": "CR", "postal_code": "40302", "place_name": "San Vicente", "latitude": "9.9899", "longitude": "-84.08"}, {"country_code": "CR", "postal_code": "40303", "place_name": "San Miguel", "latitude": "9.9812", "longitude": "-84.0549"}, {"country_code": "CR", "postal_code": "40304", "place_name": "Paracito", "latitude": "10.0004", "longitude": "-84.0273"}, {"country_code": "CR", "postal_code": "40305", "place_name": "Santo Tom\u00e1s", "latitude": "9.9795", "longitude": "-84.0763"}, {"country_code": "CR", "postal_code": "40306", "place_name": "Santa Rosa", "latitude": "9.9707", "longitude": "-84.1002"}, {"country_code": "CR", "postal_code": "40307", "place_name": "Tures", "latitude": "9.9933", "longitude": "-84.0568"}, {"country_code": "CR", "postal_code": "40308", "place_name": "Par\u00e1", "latitude": "10.0048", "longitude": "-84.0346"}, {"country_code": "CR", "postal_code": "40401", "place_name": "Santa B\u00e1rbara", "latitude": "10.0376", "longitude": "-84.1587"}, {"country_code": "CR", "postal_code": "40402", "place_name": "San Pedro", "latitude": "10.032", "longitude": "-84.1682"}, {"country_code": "CR", "postal_code": "40403", "place_name": "San Juan", "latitude": "10.0213", "longitude": "-84.159"}, {"country_code": "CR", "postal_code": "40404", "place_name": "Jes\u00fas", "latitude": "10.0573", "longitude": "-84.1426"}, {"country_code": "CR", "postal_code": "40405", "place_name": "Santo Domingo", "latitude": "10.113", "longitude": "-84.1485"}, {"country_code": "CR", "postal_code": "40406", "place_name": "Purab\u00e1", "latitude": "10.0647", "longitude": "-84.1543"}, {"country_code": "CR", "postal_code": "40501", "place_name": "San Rafael", "latitude": "10.0161", "longitude": "-84.0994"}, {"country_code": "CR", "postal_code": "40502", "place_name": "San Josecito", "latitude": "10.0113", "longitude": "-84.1113"}, {"country_code": "CR", "postal_code": "40503", "place_name": "Santiago", "latitude": "10.0068", "longitude": "-84.1008"}, {"country_code": "CR", "postal_code": "40504", "place_name": "\u00c1ngeles", "latitude": "10.06", "longitude": "-84.0874"}, {"country_code": "CR", "postal_code": "40505", "place_name": "Concepci\u00f3n", "latitude": "10.0442", "longitude": "-84.0664"}, {"country_code": "CR", "postal_code": "40601", "place_name": "San Isidro", "latitude": "10.0125", "longitude": "-84.0533"}, {"country_code": "CR", "postal_code": "40602", "place_name": "San Jos\u00e9", "latitude": "10.0293", "longitude": "-84.0275"}, {"country_code": "CR", "postal_code": "40603", "place_name": "Concepci\u00f3n", "latitude": "10.0416", "longitude": "-84.0394"}, {"country_code": "CR", "postal_code": "40604", "place_name": "San Francisco", "latitude": "10.0091", "longitude": "-84.0661"}, {"country_code": "CR", "postal_code": "40701", "place_name": "San Antonio", "latitude": "9.9782", "longitude": "-84.1861"}, {"country_code": "CR", "postal_code": "40702", "place_name": "La Ribera", "latitude": "9.9932", "longitude": "-84.1815"}, {"country_code": "CR", "postal_code": "40703", "place_name": "La Asunci\u00f3n", "latitude": "9.9778", "longitude": "-84.1669"}, {"country_code": "CR", "postal_code": "40801", "place_name": "San Joaqu\u00edn", "latitude": "10.0064", "longitude": "-84.1556"}, {"country_code": "CR", "postal_code": "40802", "place_name": "Barrantes", "latitude": "10.0137", "longitude": "-84.1518"}, {"country_code": "CR", "postal_code": "40803", "place_name": "Llorente", "latitude": "9.9983", "longitude": "-84.1612"}, {"country_code": "CR", "postal_code": "40901", "place_name": "San Pablo", "latitude": "9.9994", "longitude": "-84.0905"}, {"country_code": "CR", "postal_code": "40902", "place_name": "Rinc\u00f3n de Sabanilla", "latitude": "9.9838", "longitude": "-84.1048"}, {"country_code": "CR", "postal_code": "41001", "place_name": "Puerto Viejo", "latitude": "10.4609", "longitude": "-84.0052"}, {"country_code": "CR", "postal_code": "41002", "place_name": "La Virgen", "latitude": "10.4385", "longitude": "-84.0914"}, {"country_code": "CR", "postal_code": "41003", "place_name": "Las Horquetas", "latitude": "10.3132", "longitude": "-83.9572"}, {"country_code": "CR", "postal_code": "41004", "place_name": "Llanuras del Gaspar", "latitude": "10.6766", "longitude": "-83.8432"}, {"country_code": "CR", "postal_code": "41005", "place_name": "Cure\u00f1a", "latitude": "10.6906", "longitude": "-84.0753"}, {"country_code": "CR", "postal_code": "70101", "place_name": "Lim\u00f3n", "latitude": "9.9803", "longitude": "-83.0708"}, {"country_code": "CR", "postal_code": "70102", "place_name": "Valle La Estrella", "latitude": "9.7151", "longitude": "-83.1652"}, {"country_code": "CR", "postal_code": "70103", "place_name": "R\u00edo Blanco", "latitude": "9.9754", "longitude": "-83.1565"}, {"country_code": "CR", "postal_code": "70104", "place_name": "Matama", "latitude": "9.869", "longitude": "-83.1211"}, {"country_code": "CR", "postal_code": "70201", "place_name": "Gu\u00e1piles", "latitude": "10.1917", "longitude": "-83.8467"}, {"country_code": "CR", "postal_code": "70202", "place_name": "Jim\u00e9nez", "latitude": "10.1869", "longitude": "-83.7573"}, {"country_code": "CR", "postal_code": "70203", "place_name": "Rita", "latitude": "10.4626", "longitude": "-83.7753"}, {"country_code": "CR", "postal_code": "70204", "place_name": "Roxana", "latitude": "10.3665", "longitude": "-83.6588"}, {"country_code": "CR", "postal_code": "70205", "place_name": "Cariari", "latitude": "10.4312", "longitude": "-83.6804"}, {"country_code": "CR", "postal_code": "70206", "place_name": "Colorado", "latitude": "10.575", "longitude": "-83.5943"}, {"country_code": "CR", "postal_code": "70301", "place_name": "Siquirres", "latitude": "10.1589", "longitude": "-83.4546"}, {"country_code": "CR", "postal_code": "70302", "place_name": "Pacuarito", "latitude": "10.1031", "longitude": "-83.4211"}, {"country_code": "CR", "postal_code": "70303", "place_name": "Florida", "latitude": "10.0437", "longitude": "-83.6261"}, {"country_code": "CR", "postal_code": "70304", "place_name": "Germania", "latitude": "10.1649", "longitude": "-83.5643"}, {"country_code": "CR", "postal_code": "70305", "place_name": "El Cairo", "latitude": "10.2005", "longitude": "-83.5076"}, {"country_code": "CR", "postal_code": "70306", "place_name": "Alegr\u00eda", "latitude": "10.1168", "longitude": "-83.5913"}, {"country_code": "CR", "postal_code": "70401", "place_name": "Bratsi", "latitude": "9.6054", "longitude": "-82.9595"}, {"country_code": "CR", "postal_code": "70402", "place_name": "Sixaola", "latitude": "9.5628", "longitude": "-82.6645"}, {"country_code": "CR", "postal_code": "70403", "place_name": "Cahuita", "latitude": "9.669", "longitude": "-82.8046"}, {"country_code": "CR", "postal_code": "70404", "place_name": "Telire", "latitude": "9.4392", "longitude": "-83.1596"}, {"country_code": "CR", "postal_code": "70501", "place_name": "Matina", "latitude": "9.9618", "longitude": "-83.2933"}, {"country_code": "CR", "postal_code": "70502", "place_name": "Bat\u00e1n", "latitude": "10.0929", "longitude": "-83.3516"}, {"country_code": "CR", "postal_code": "70503", "place_name": "Carrandi", "latitude": "10.0295", "longitude": "-83.2289"}, {"country_code": "CR", "postal_code": "70601", "place_name": "Gu\u00e1cimo", "latitude": "10.175", "longitude": "-83.7034"}, {"country_code": "CR", "postal_code": "70602", "place_name": "Mercedes", "latitude": "10.1401", "longitude": "-83.6549"}, {"country_code": "CR", "postal_code": "70603", "place_name": "Pocora", "latitude": "10.134", "longitude": "-83.6222"}, {"country_code": "CR", "postal_code": "70604", "place_name": "R\u00edo Jim\u00e9nez", "latitude": "10.2613", "longitude": "-83.5624"}, {"country_code": "CR", "postal_code": "70605", "place_name": "Duacar\u00ed", "latitude": "10.3214", "longitude": "-83.6171"}, {"country_code": "CR", "postal_code": "60101", "place_name": "Puntarenas", "latitude": "9.978", "longitude": "-84.8344"}, {"country_code": "CR", "postal_code": "60102", "place_name": "Pitahaya", "latitude": "10.0432", "longitude": "-84.8304"}, {"country_code": "CR", "postal_code": "60103", "place_name": "Chomes", "latitude": "10.0951", "longitude": "-84.9103"}, {"country_code": "CR", "postal_code": "60104", "place_name": "Lepanto", "latitude": "9.9023", "longitude": "-85.1297"}, {"country_code": "CR", "postal_code": "60105", "place_name": "Paquera", "latitude": "9.8199", "longitude": "-84.9923"}, {"country_code": "CR", "postal_code": "60106", "place_name": "Manzanillo", "latitude": "10.1408", "longitude": "-85.012"}, {"country_code": "CR", "postal_code": "60107", "place_name": "Guacimal", "latitude": "10.2191", "longitude": "-84.831"}, {"country_code": "CR", "postal_code": "60108", "place_name": "Barranca", "latitude": "10.0071", "longitude": "-84.7079"}, {"country_code": "CR", "postal_code": "60109", "place_name": "Monte Verde", "latitude": "10.2914", "longitude": "-84.8248"}, {"country_code": "CR", "postal_code": "60110", "place_name": "Isla Del Coco", "latitude": "5.5287", "longitude": "-87.0614"}, {"country_code": "CR", "postal_code": "60111", "place_name": "C\u00f3bano", "latitude": "9.6951", "longitude": "-85.1247"}, {"country_code": "CR", "postal_code": "60112", "place_name": "Chacarita", "latitude": "9.9843", "longitude": "-84.769"}, {"country_code": "CR", "postal_code": "60113", "place_name": "Chira", "latitude": "10.0988", "longitude": "-85.151"}, {"country_code": "CR", "postal_code": "60114", "place_name": "Acapulco", "latitude": "10.1618", "longitude": "-84.8064"}, {"country_code": "CR", "postal_code": "60115", "place_name": "El Roble", "latitude": "9.9827", "longitude": "-84.7419"}, {"country_code": "CR", "postal_code": "60116", "place_name": "Arancibia", "latitude": "10.2312", "longitude": "-84.7184"}, {"country_code": "CR", "postal_code": "60201", "place_name": "Esp\u00edritu Santo", "latitude": "9.9682", "longitude": "-84.6977"}, {"country_code": "CR", "postal_code": "60202", "place_name": "San Juan Grande", "latitude": "9.9313", "longitude": "-84.6793"}, {"country_code": "CR", "postal_code": "60203", "place_name": "Macacona", "latitude": "10.0138", "longitude": "-84.6162"}, {"country_code": "CR", "postal_code": "60204", "place_name": "San Rafael", "latitude": "9.981", "longitude": "-84.6013"}, {"country_code": "CR", "postal_code": "60205", "place_name": "San Jer\u00f3nimo", "latitude": "10.0634", "longitude": "-84.6562"}, {"country_code": "CR", "postal_code": "60301", "place_name": "Buenos Aires", "latitude": "9.2025", "longitude": "-83.2772"}, {"country_code": "CR", "postal_code": "60302", "place_name": "Volc\u00e1n", "latitude": "9.2485", "longitude": "-83.4508"}, {"country_code": "CR", "postal_code": "60303", "place_name": "Potrero Grande", "latitude": "9.1027", "longitude": "-83.1459"}, {"country_code": "CR", "postal_code": "60304", "place_name": "Boruca", "latitude": "9.0109", "longitude": "-83.3253"}, {"country_code": "CR", "postal_code": "60305", "place_name": "Pilas", "latitude": "9.0929", "longitude": "-83.4233"}, {"country_code": "CR", "postal_code": "60306", "place_name": "Colinas", "latitude": "9.0351", "longitude": "-83.4536"}, {"country_code": "CR", "postal_code": "60307", "place_name": "Ch\u00e1nguena", "latitude": "8.8916", "longitude": "-83.1808"}, {"country_code": "CR", "postal_code": "60308", "place_name": "Biolley", "latitude": "9.0454", "longitude": "-83.0362"}, {"country_code": "CR", "postal_code": "60309", "place_name": "Brunka", "latitude": "9.2361", "longitude": "-83.3825"}, {"country_code": "CR", "postal_code": "60401", "place_name": "Miramar", "latitude": "10.1124", "longitude": "-84.7394"}, {"country_code": "CR", "postal_code": "60402", "place_name": "La Uni\u00f3n", "latitude": "10.1909", "longitude": "-84.7058"}, {"country_code": "CR", "postal_code": "60403", "place_name": "San Isidro", "latitude": "10.053", "longitude": "-84.7213"}, {"country_code": "CR", "postal_code": "60501", "place_name": "Puerto Cort\u00e9s", "latitude": "9.0226", "longitude": "-83.5767"}, {"country_code": "CR", "postal_code": "60502", "place_name": "Palmar", "latitude": "8.95", "longitude": "-83.43"}, {"country_code": "CR", "postal_code": "60503", "place_name": "Sierpe", "latitude": "8.75", "longitude": "-83.5377"}, {"country_code": "CR", "postal_code": "60504", "place_name": "Bah\u00eda Ballena", "latitude": "9.1755", "longitude": "-83.7266"}, {"country_code": "CR", "postal_code": "60505", "place_name": "Piedras Blancas", "latitude": "8.8142", "longitude": "-83.2633"}, {"country_code": "CR", "postal_code": "60601", "place_name": "Quepos", "latitude": "9.4596", "longitude": "-84.1376"}, {"country_code": "CR", "postal_code": "60602", "place_name": "Savegre", "latitude": "9.3562", "longitude": "-83.9455"}, {"country_code": "CR", "postal_code": "60603", "place_name": "Naranjito", "latitude": "9.4787", "longitude": "-84.0812"}, {"country_code": "CR", "postal_code": "60701", "place_name": "Golfito", "latitude": "8.6542", "longitude": "-83.1755"}, {"country_code": "CR", "postal_code": "60702", "place_name": "Puerto Jim\u00e9nez", "latitude": "8.5182", "longitude": "-83.4477"}, {"country_code": "CR", "postal_code": "60703", "place_name": "Guaycar\u00e1", "latitude": "8.7126", "longitude": "-83.0762"}, {"country_code": "CR", "postal_code": "60704", "place_name": "Pav\u00f3n", "latitude": "8.3834", "longitude": "-83.0968"}, {"country_code": "CR", "postal_code": "60801", "place_name": "San Vito", "latitude": "8.8653", "longitude": "-82.95"}, {"country_code": "CR", "postal_code": "60802", "place_name": "Sabalito", "latitude": "8.8165", "longitude": "-82.9015"}, {"country_code": "CR", "postal_code": "60803", "place_name": "Aguabuena", "latitude": "8.7379", "longitude": "-82.945"}, {"country_code": "CR", "postal_code": "60804", "place_name": "Limoncito", "latitude": "8.8464", "longitude": "-83.0467"}, {"country_code": "CR", "postal_code": "60805", "place_name": "Pittier", "latitude": "8.9797", "longitude": "-82.9593"}, {"country_code": "CR", "postal_code": "60901", "place_name": "Parrita", "latitude": "9.562", "longitude": "-84.317"}, {"country_code": "CR", "postal_code": "61001", "place_name": "Corredor", "latitude": "8.6242", "longitude": "-82.9438"}, {"country_code": "CR", "postal_code": "61002", "place_name": "La Cuesta", "latitude": "8.4794", "longitude": "-82.8681"}, {"country_code": "CR", "postal_code": "61003", "place_name": "Canoas", "latitude": "8.5542", "longitude": "-82.8796"}, {"country_code": "CR", "postal_code": "61004", "place_name": "Laurel", "latitude": "8.4499", "longitude": "-82.9688"}, {"country_code": "CR", "postal_code": "61101", "place_name": "Jac\u00f3", "latitude": "9.6275", "longitude": "-84.601"}, {"country_code": "CR", "postal_code": "61102", "place_name": "T\u00e1rcoles", "latitude": "9.7868", "longitude": "-84.6181"}, {"country_code": "CR", "postal_code": "10101", "place_name": "Carmen", "latitude": "9.9364", "longitude": "-84.0693"}, {"country_code": "CR", "postal_code": "10102", "place_name": "Merced", "latitude": "9.9397", "longitude": "-84.0884"}, {"country_code": "CR", "postal_code": "10103", "place_name": "Hospital", "latitude": "9.9277", "longitude": "-84.0887"}, {"country_code": "CR", "postal_code": "10104", "place_name": "Catedral", "latitude": "9.9262", "longitude": "-84.0731"}, {"country_code": "CR", "postal_code": "10105", "place_name": "Zapote", "latitude": "9.9205", "longitude": "-84.0598"}, {"country_code": "CR", "postal_code": "10106", "place_name": "San Francisco de Dos R\u00edos", "latitude": "9.9082", "longitude": "-84.0592"}, {"country_code": "CR", "postal_code": "10107", "place_name": "Uruca", "latitude": "9.9567", "longitude": "-84.1229"}, {"country_code": "CR", "postal_code": "10108", "place_name": "Mata Redonda", "latitude": "9.9351", "longitude": "-84.1073"}, {"country_code": "CR", "postal_code": "10109", "place_name": "Pavas", "latitude": "9.9499", "longitude": "-84.1366"}, {"country_code": "CR", "postal_code": "10110", "place_name": "Hatillo", "latitude": "9.9184", "longitude": "-84.1025"}, {"country_code": "CR", "postal_code": "10111", "place_name": "San Sebasti\u00e1n", "latitude": "9.9106", "longitude": "-84.0823"}, {"country_code": "CR", "postal_code": "10201", "place_name": "Escaz\u00fa", "latitude": "9.9183", "longitude": "-84.1493"}, {"country_code": "CR", "postal_code": "10202", "place_name": "San Antonio", "latitude": "9.894", "longitude": "-84.14"}, {"country_code": "CR", "postal_code": "10203", "place_name": "San Rafael", "latitude": "9.9405", "longitude": "-84.1507"}, {"country_code": "CR", "postal_code": "10301", "place_name": "Desamparados", "latitude": "9.8974", "longitude": "-84.0705"}, {"country_code": "CR", "postal_code": "10302", "place_name": "San Miguel", "latitude": "9.8393", "longitude": "-84.0517"}, {"country_code": "CR", "postal_code": "10303", "place_name": "San Juan de Dios", "latitude": "9.878", "longitude": "-84.0886"}, {"country_code": "CR", "postal_code": "10304", "place_name": "San Rafael Arriba", "latitude": "9.8759", "longitude": "-84.0735"}, {"country_code": "CR", "postal_code": "10305", "place_name": "San Antonio", "latitude": "9.899", "longitude": "-84.0464"}, {"country_code": "CR", "postal_code": "10306", "place_name": "Frailes", "latitude": "9.7546", "longitude": "-84.0651"}, {"country_code": "CR", "postal_code": "10307", "place_name": "Patarr\u00e1", "latitude": "9.8657", "longitude": "-84.025"}, {"country_code": "CR", "postal_code": "10308", "place_name": "San Crist\u00f3bal", "latitude": "9.7544", "longitude": "-83.9985"}, {"country_code": "CR", "postal_code": "10309", "place_name": "Rosario", "latitude": "9.8005", "longitude": "-84.0856"}, {"country_code": "CR", "postal_code": "10310", "place_name": "Damas", "latitude": "9.8887", "longitude": "-84.045"}, {"country_code": "CR", "postal_code": "10311", "place_name": "San Rafael Abajo", "latitude": "9.8952", "longitude": "-84.0829"}, {"country_code": "CR", "postal_code": "10312", "place_name": "Gravilias", "latitude": "9.886", "longitude": "-84.0575"}, {"country_code": "CR", "postal_code": "10313", "place_name": "Los Guido", "latitude": "9.8709", "longitude": "-84.0483"}, {"country_code": "CR", "postal_code": "10401", "place_name": "Santiago", "latitude": "9.8202", "longitude": "-84.3063"}, {"country_code": "CR", "postal_code": "10402", "place_name": "Mercedes Sur", "latitude": "9.7739", "longitude": "-84.4098"}, {"country_code": "CR", "postal_code": "10403", "place_name": "Barbacoas", "latitude": "9.8549", "longitude": "-84.3625"}, {"country_code": "CR", "postal_code": "10404", "place_name": "Grifo Alto", "latitude": "9.8774", "longitude": "-84.3949"}, {"country_code": "CR", "postal_code": "10405", "place_name": "San Rafael", "latitude": "9.8259", "longitude": "-84.2783"}, {"country_code": "CR", "postal_code": "10406", "place_name": "Candelarita", "latitude": "9.7895", "longitude": "-84.3358"}, {"country_code": "CR", "postal_code": "10407", "place_name": "Desamparaditos", "latitude": "9.8798", "longitude": "-84.3407"}, {"country_code": "CR", "postal_code": "10408", "place_name": "San Antonio", "latitude": "9.8636", "longitude": "-84.3015"}, {"country_code": "CR", "postal_code": "10409", "place_name": "Chires", "latitude": "9.6576", "longitude": "-84.4018"}, {"country_code": "CR", "postal_code": "10501", "place_name": "San Marcos", "latitude": "9.6724", "longitude": "-84.0048"}, {"country_code": "CR", "postal_code": "10502", "place_name": "San Lorenzo", "latitude": "9.5591", "longitude": "-84.0333"}, {"country_code": "CR", "postal_code": "10503", "place_name": "San Carlos", "latitude": "9.6097", "longitude": "-84.1129"}, {"country_code": "CR", "postal_code": "10601", "place_name": "Aserr\u00ed", "latitude": "9.855", "longitude": "-84.1084"}, {"country_code": "CR", "postal_code": "10602", "place_name": "Tarbaca", "latitude": "9.8228", "longitude": "-84.1179"}, {"country_code": "CR", "postal_code": "10603", "place_name": "Vuelta de Jorco", "latitude": "9.7742", "longitude": "-84.1377"}, {"country_code": "CR", "postal_code": "10604", "place_name": "San Gabriel", "latitude": "9.7861", "longitude": "-84.1101"}, {"country_code": "CR", "postal_code": "10605", "place_name": "Legua", "latitude": "9.6767", "longitude": "-84.1625"}, {"country_code": "CR", "postal_code": "10606", "place_name": "Monterrey", "latitude": "9.7568", "longitude": "-84.111"}, {"country_code": "CR", "postal_code": "10607", "place_name": "Salitrillos", "latitude": "9.8446", "longitude": "-84.0828"}, {"country_code": "CR", "postal_code": "10701", "place_name": "Col\u00f3n", "latitude": "9.9009", "longitude": "-84.256"}, {"country_code": "CR", "postal_code": "10702", "place_name": "Guayabo", "latitude": "9.8616", "longitude": "-84.2639"}, {"country_code": "CR", "postal_code": "10703", "place_name": "Tabarcia", "latitude": "9.8486", "longitude": "-84.2192"}, {"country_code": "CR", "postal_code": "10704", "place_name": "Piedras Negras", "latitude": "9.8976", "longitude": "-84.3115"}, {"country_code": "CR", "postal_code": "10705", "place_name": "Picagres", "latitude": "9.9094", "longitude": "-84.371"}, {"country_code": "CR", "postal_code": "10801", "place_name": "Guadalupe", "latitude": "9.9486", "longitude": "-84.0511"}, {"country_code": "CR", "postal_code": "10802", "place_name": "San Francisco", "latitude": "9.9417", "longitude": "-84.0728"}, {"country_code": "CR", "postal_code": "10803", "place_name": "Calle Blancos", "latitude": "9.9486", "longitude": "-84.0667"}, {"country_code": "CR", "postal_code": "10804", "place_name": "Mata de Pl\u00e1tano", "latitude": "9.9552", "longitude": "-83.9978"}, {"country_code": "CR", "postal_code": "10805", "place_name": "Ip\u00eds", "latitude": "9.9645", "longitude": "-84.0197"}, {"country_code": "CR", "postal_code": "10806", "place_name": "Rancho Redondo", "latitude": "9.9631", "longitude": "-83.9418"}, {"country_code": "CR", "postal_code": "10807", "place_name": "Purral", "latitude": "9.9593", "longitude": "-84.0181"}, {"country_code": "CR", "postal_code": "10901", "place_name": "Santa Ana", "latitude": "9.931", "longitude": "-84.1759"}, {"country_code": "CR", "postal_code": "10902", "place_name": "Salitral", "latitude": "9.8922", "longitude": "-84.1705"}, {"country_code": "CR", "postal_code": "10903", "place_name": "Pozos", "latitude": "9.9526", "longitude": "-84.1919"}, {"country_code": "CR", "postal_code": "10904", "place_name": "Uruca", "latitude": "9.9269", "longitude": "-84.1952"}, {"country_code": "CR", "postal_code": "10905", "place_name": "Piedades", "latitude": "9.9174", "longitude": "-84.208"}, {"country_code": "CR", "postal_code": "10906", "place_name": "Brasil", "latitude": "9.9388", "longitude": "-84.2289"}, {"country_code": "CR", "postal_code": "11001", "place_name": "Alajuelita", "latitude": "9.9029", "longitude": "-84.1004"}, {"country_code": "CR", "postal_code": "11002", "place_name": "San Josecito", "latitude": "9.8897", "longitude": "-84.1043"}, {"country_code": "CR", "postal_code": "11003", "place_name": "San Antonio", "latitude": "9.874", "longitude": "-84.1238"}, {"country_code": "CR", "postal_code": "11004", "place_name": "Concepci\u00f3n", "latitude": "9.8896", "longitude": "-84.093"}, {"country_code": "CR", "postal_code": "11005", "place_name": "San Felipe", "latitude": "9.9093", "longitude": "-84.1149"}, {"country_code": "CR", "postal_code": "11101", "place_name": "San Isidro", "latitude": "9.9726", "longitude": "-83.9922"}, {"country_code": "CR", "postal_code": "11102", "place_name": "San Rafael", "latitude": "9.9785", "longitude": "-83.9515"}, {"country_code": "CR", "postal_code": "11103", "place_name": "Dulce Nombre de Jes\u00fas", "latitude": "10.0889", "longitude": "-83.9798"}, {"country_code": "CR", "postal_code": "11104", "place_name": "Patalillo", "latitude": "9.9747", "longitude": "-84.0223"}, {"country_code": "CR", "postal_code": "11105", "place_name": "Cascajal", "latitude": "10.0324", "longitude": "-83.9289"}, {"country_code": "CR", "postal_code": "11201", "place_name": "San Ignacio", "latitude": "9.7993", "longitude": "-84.1632"}, {"country_code": "CR", "postal_code": "11202", "place_name": "Guaitil", "latitude": "9.7895", "longitude": "-84.2375"}, {"country_code": "CR", "postal_code": "11203", "place_name": "Palmichal", "latitude": "9.8336", "longitude": "-84.177"}, {"country_code": "CR", "postal_code": "11204", "place_name": "Cangrejal", "latitude": "9.7439", "longitude": "-84.1898"}, {"country_code": "CR", "postal_code": "11205", "place_name": "Sabanillas", "latitude": "9.702", "longitude": "-84.2647"}, {"country_code": "CR", "postal_code": "11301", "place_name": "San Juan", "latitude": "9.9634", "longitude": "-84.076"}, {"country_code": "CR", "postal_code": "11302", "place_name": "Cinco Esquinas", "latitude": "9.9465", "longitude": "-84.0823"}, {"country_code": "CR", "postal_code": "11303", "place_name": "Anselmo Llorente", "latitude": "9.9567", "longitude": "-84.0704"}, {"country_code": "CR", "postal_code": "11304", "place_name": "Le\u00f3n XIII", "latitude": "9.9599", "longitude": "-84.1007"}, {"country_code": "CR", "postal_code": "11305", "place_name": "Colima", "latitude": "9.9554", "longitude": "-84.0891"}, {"country_code": "CR", "postal_code": "11401", "place_name": "San Vicente", "latitude": "9.9636", "longitude": "-84.0486"}, {"country_code": "CR", "postal_code": "11402", "place_name": "San Jer\u00f3nimo", "latitude": "10.0313", "longitude": "-84.0055"}, {"country_code": "CR", "postal_code": "11403", "place_name": "La Trinidad", "latitude": "9.9809", "longitude": "-84.0342"}, {"country_code": "CR", "postal_code": "11501", "place_name": "San Pedro", "latitude": "9.9337", "longitude": "-84.046"}, {"country_code": "CR", "postal_code": "11502", "place_name": "Sabanilla", "latitude": "9.9442", "longitude": "-84.0319"}, {"country_code": "CR", "postal_code": "11503", "place_name": "Mercedes", "latitude": "9.9424", "longitude": "-84.0489"}, {"country_code": "CR", "postal_code": "11504", "place_name": "San Rafael", "latitude": "9.9465", "longitude": "-83.9934"}, {"country_code": "CR", "postal_code": "11601", "place_name": "San Pablo", "latitude": "9.9073", "longitude": "-84.4508"}, {"country_code": "CR", "postal_code": "11602", "place_name": "San Pedro", "latitude": "9.8751", "longitude": "-84.4491"}, {"country_code": "CR", "postal_code": "11603", "place_name": "San Juan de Mata", "latitude": "9.8242", "longitude": "-84.5248"}, {"country_code": "CR", "postal_code": "11604", "place_name": "San Luis", "latitude": "9.8354", "longitude": "-84.4664"}, {"country_code": "CR", "postal_code": "11605", "place_name": "Carara", "latitude": "9.6819", "longitude": "-84.5245"}, {"country_code": "CR", "postal_code": "11701", "place_name": "Santa Mar\u00eda", "latitude": "9.5874", "longitude": "-83.9699"}, {"country_code": "CR", "postal_code": "11702", "place_name": "Jard\u00edn", "latitude": "9.6926", "longitude": "-83.9513"}, {"country_code": "CR", "postal_code": "11703", "place_name": "Copey", "latitude": "9.5746", "longitude": "-83.8897"}, {"country_code": "CR", "postal_code": "11801", "place_name": "Curridabat", "latitude": "9.9165", "longitude": "-84.0374"}, {"country_code": "CR", "postal_code": "11802", "place_name": "Granadilla", "latitude": "9.9311", "longitude": "-84.0212"}, {"country_code": "CR", "postal_code": "11803", "place_name": "S\u00e1nchez", "latitude": "9.9146", "longitude": "-84.0179"}, {"country_code": "CR", "postal_code": "11804", "place_name": "Tirrases", "latitude": "9.9018", "longitude": "-84.033"}, {"country_code": "CR", "postal_code": "11901", "place_name": "San Isidro de El General", "latitude": "9.3215", "longitude": "-83.7195"}, {"country_code": "CR", "postal_code": "11902", "place_name": "El General", "latitude": "9.3721", "longitude": "-83.6273"}, {"country_code": "CR", "postal_code": "11903", "place_name": "Daniel Flores", "latitude": "9.3014", "longitude": "-83.6644"}, {"country_code": "CR", "postal_code": "11904", "place_name": "Rivas", "latitude": "9.4842", "longitude": "-83.6045"}, {"country_code": "CR", "postal_code": "11905", "place_name": "San Pedro", "latitude": "9.3267", "longitude": "-83.5132"}, {"country_code": "CR", "postal_code": "11906", "place_name": "Platanares", "latitude": "9.1995", "longitude": "-83.638"}, {"country_code": "CR", "postal_code": "11907", "place_name": "Pejibaye", "latitude": "9.1542", "longitude": "-83.5492"}, {"country_code": "CR", "postal_code": "11908", "place_name": "Caj\u00f3n", "latitude": "9.3312", "longitude": "-83.5859"}, {"country_code": "CR", "postal_code": "11909", "place_name": "Bar\u00fa", "latitude": "9.3199", "longitude": "-83.8181"}, {"country_code": "CR", "postal_code": "11910", "place_name": "R\u00edo Nuevo", "latitude": "9.4437", "longitude": "-83.8622"}, {"country_code": "CR", "postal_code": "11911", "place_name": "P\u00e1ramo", "latitude": "9.4984", "longitude": "-83.7561"}, {"country_code": "CR", "postal_code": "12001", "place_name": "San Pablo", "latitude": "9.6847", "longitude": "-84.0464"}, {"country_code": "CR", "postal_code": "12002", "place_name": "San Andr\u00e9s", "latitude": "9.7223", "longitude": "-84.0782"}, {"country_code": "CR", "postal_code": "12003", "place_name": "Llano Bonito", "latitude": "9.6723", "longitude": "-84.1177"}, {"country_code": "CR", "postal_code": "12004", "place_name": "San Isidro", "latitude": "9.6771", "longitude": "-84.082"}, {"country_code": "CR", "postal_code": "12005", "place_name": "Santa Cruz", "latitude": "9.7253", "longitude": "-84.0129"}, {"country_code": "CR", "postal_code": "12006", "place_name": "San Antonio", "latitude": "9.7233", "longitude": "-84.0521"}]