[{"country_code": "RE", "postal_code": "97491 CEDEX", "place_name": "Sainte-Clotilde", "latitude": "-20.8916", "longitude": "55.4787"}, {"country_code": "RE", "postal_code": "97492 CEDEX", "place_name": "Sainte-Clotilde", "latitude": "-20.8916", "longitude": "55.4787"}, {"country_code": "RE", "postal_code": "97493 CEDEX", "place_name": "Sainte-Clotilde", "latitude": "-20.8916", "longitude": "55.4787"}, {"country_code": "RE", "postal_code": "97494 CEDEX", "place_name": "Sainte-Clotilde", "latitude": "-20.8916", "longitude": "55.4787"}, {"country_code": "RE", "postal_code": "97495 CEDEX", "place_name": "Sainte-Clotilde", "latitude": "-20.8916", "longitude": "55.4787"}, {"country_code": "RE", "postal_code": "97496 CEDEX", "place_name": "Sainte-Clotilde", "latitude": "-20.8916", "longitude": "55.4787"}, {"country_code": "RE", "postal_code": "97497 CEDEX", "place_name": "Sainte-Clotilde", "latitude": "-20.8916", "longitude": "55.4787"}, {"country_code": "RE", "postal_code": "97400", "place_name": "Saint-Denis", "latitude": "-20.8823", "longitude": "55.4504"}, {"country_code": "RE", "postal_code": "97401 CEDEX", "place_name": "Saint-Denis", "latitude": "-20.8823", "longitude": "55.4504"}, {"country_code": "RE", "postal_code": "97402 CEDEX", "place_name": "Saint-Denis", "latitude": "-20.8823", "longitude": "55.4504"}, {"country_code": "RE", "postal_code": "97403 CEDEX", "place_name": "Saint-Denis", "latitude": "-20.8823", "longitude": "55.4504"}, {"country_code": "RE", "postal_code": "97404 CEDEX", "place_name": "Saint-Denis", "latitude": "-20.8823", "longitude": "55.4504"}, {"country_code": "RE", "postal_code": "97405 CEDEX", "place_name": "Saint-Denis", "latitude": "-20.8823", "longitude": "55.4504"}, {"country_code": "RE", "postal_code": "97406 CEDEX 9", "place_name": "Saint-Denis", "latitude": "-20.8823", "longitude": "55.4504"}, {"country_code": "RE", "postal_code": "97408 CEDEX 9", "place_name": "Saint-Denis", "latitude": "-20.8823", "longitude": "55.4504"}, {"country_code": "RE", "postal_code": "97409 CEDEX 9", "place_name": "Saint-Denis", "latitude": "-20.8823", "longitude": "55.4504"}, {"country_code": "RE", "postal_code": "97410", "place_name": "Saint-Pierre", "latitude": "-21.3393", "longitude": "55.4781"}, {"country_code": "RE", "postal_code": "97411", "place_name": "Saint-Paul", "latitude": "-21.0096", "longitude": "55.2707"}, {"country_code": "RE", "postal_code": "97412", "place_name": "Bras-Panon", "latitude": "-20.9967", "longitude": "55.6782"}, {"country_code": "RE", "postal_code": "97413", "place_name": "Cilaos", "latitude": "-21.1336", "longitude": "55.4719"}, {"country_code": "RE", "postal_code": "97414", "place_name": "L'Entre-Deux", "latitude": "-21.2333", "longitude": "55.4667"}, {"country_code": "RE", "postal_code": "97416", "place_name": "Saint-Leu", "latitude": "-21.1706", "longitude": "55.2882"}, {"country_code": "RE", "postal_code": "97417", "place_name": "Saint-Denis", "latitude": "-20.8823", "longitude": "55.4504"}, {"country_code": "RE", "postal_code": "97418", "place_name": "Le Tampon", "latitude": "-21.2831", "longitude": "55.518"}, {"country_code": "RE", "postal_code": "97419", "place_name": "La Possession", "latitude": "-20.9289", "longitude": "55.3351"}, {"country_code": "RE", "postal_code": "97420", "place_name": "Le Port", "latitude": "-20.9373", "longitude": "55.2919"}, {"country_code": "RE", "postal_code": "97421", "place_name": "La Rivi\u00e8re", "latitude": "-21.2595", "longitude": "55.4405"}, {"country_code": "RE", "postal_code": "97421", "place_name": "Saint-Louis", "latitude": "-21.2858", "longitude": "55.4112"}, {"country_code": "RE", "postal_code": "97422", "place_name": "Saint-Paul", "latitude": "-21.0096", "longitude": "55.2707"}, {"country_code": "RE", "postal_code": "97423", "place_name": "Saint-Paul", "latitude": "-21.0096", "longitude": "55.2707"}, {"country_code": "RE", "postal_code": "97424", "place_name": "Saint-Leu", "latitude": "-21.1706", "longitude": "55.2882"}, {"country_code": "RE", "postal_code": "97425", "place_name": "Les Avirons", "latitude": "-21.2418", "longitude": "55.3394"}, {"country_code": "RE", "postal_code": "97426", "place_name": "Trois-Bassins", "latitude": "-21.1", "longitude": "55.3"}, {"country_code": "RE", "postal_code": "97427", "place_name": "L'\u00c9tang-Sal\u00e9", "latitude": "-21.25", "longitude": "55.3833"}, {"country_code": "RE", "postal_code": "97429", "place_name": "Petite-\u00cele", "latitude": "-21.35", "longitude": "55.5667"}, {"country_code": "RE", "postal_code": "97430", "place_name": "Le Tampon", "latitude": "-21.2831", "longitude": "55.518"}, {"country_code": "RE", "postal_code": "97431", "place_name": "La Plaine-des-Palmistes", "latitude": "-21.1167", "longitude": "55.6333"}, {"country_code": "RE", "postal_code": "97432", "place_name": "Saint-Pierre", "latitude": "-21.3393", "longitude": "55.4781"}, {"country_code": "RE", "postal_code": "97433", "place_name": "Salazie", "latitude": "-21.0273", "longitude": "55.539"}, {"country_code": "RE", "postal_code": "97434", "place_name": "Saint-Paul", "latitude": "-21.0096", "longitude": "55.2707"}, {"country_code": "RE", "postal_code": "97435", "place_name": "Saint-Paul", "latitude": "-21.0096", "longitude": "55.2707"}, {"country_code": "RE", "postal_code": "97436", "place_name": "Saint-Leu", "latitude": "-21.1706", "longitude": "55.2882"}, {"country_code": "RE", "postal_code": "97437", "place_name": "Saint-Beno\u00eet", "latitude": "-21.038", "longitude": "55.7194"}, {"country_code": "RE", "postal_code": "97438", "place_name": "Sainte-Marie", "latitude": "-20.8968", "longitude": "55.5496"}, {"country_code": "RE", "postal_code": "97439", "place_name": "Sainte-Rose", "latitude": "-21.1298", "longitude": "55.7963"}, {"country_code": "RE", "postal_code": "97440", "place_name": "Saint-Andr\u00e9", "latitude": "-20.9633", "longitude": "55.6503"}, {"country_code": "RE", "postal_code": "97441", "place_name": "Sainte-Suzanne", "latitude": "-20.9061", "longitude": "55.6089"}, {"country_code": "RE", "postal_code": "97442", "place_name": "Saint-Philippe", "latitude": "-21.3585", "longitude": "55.768"}, {"country_code": "RE", "postal_code": "97445 CEDEX", "place_name": "Saint-Pierre", "latitude": "-21.3393", "longitude": "55.4781"}, {"country_code": "RE", "postal_code": "97446 CEDEX", "place_name": "Saint-Pierre", "latitude": "-21.3393", "longitude": "55.4781"}, {"country_code": "RE", "postal_code": "97447 CEDEX", "place_name": "Saint-Pierre", "latitude": "-21.3393", "longitude": "55.4781"}, {"country_code": "RE", "postal_code": "97448 CEDEX", "place_name": "Saint-Pierre", "latitude": "-21.3393", "longitude": "55.4781"}, {"country_code": "RE", "postal_code": "97449 CEDEX", "place_name": "Saint-Pierre", "latitude": "-21.3393", "longitude": "55.4781"}, {"country_code": "RE", "postal_code": "97450", "place_name": "Saint-Louis", "latitude": "-21.2858", "longitude": "55.4112"}, {"country_code": "RE", "postal_code": "97451 CEDEX", "place_name": "Saint-Pierre", "latitude": "-21.3393", "longitude": "55.4781"}, {"country_code": "RE", "postal_code": "97452 CEDEX", "place_name": "Saint-Pierre", "latitude": "-21.3393", "longitude": "55.4781"}, {"country_code": "RE", "postal_code": "97453 CEDEX", "place_name": "Saint-Pierre", "latitude": "-21.3393", "longitude": "55.4781"}, {"country_code": "RE", "postal_code": "97454 CEDEX", "place_name": "Saint-Pierre", "latitude": "-21.3393", "longitude": "55.4781"}, {"country_code": "RE", "postal_code": "97455 CEDEX", "place_name": "Saint-Pierre", "latitude": "-21.3393", "longitude": "55.4781"}, {"country_code": "RE", "postal_code": "97456 CEDEX", "place_name": "Saint-Pierre", "latitude": "-21.3393", "longitude": "55.4781"}, {"country_code": "RE", "postal_code": "97457 CEDEX", "place_name": "Saint-Pierre", "latitude": "-21.3393", "longitude": "55.4781"}, {"country_code": "RE", "postal_code": "97458 CEDEX", "place_name": "Saint-Pierre", "latitude": "-21.3393", "longitude": "55.4781"}, {"country_code": "RE", "postal_code": "97459 CEDEX", "place_name": "Saint-Pierre", "latitude": "-21.3393", "longitude": "55.4781"}, {"country_code": "RE", "postal_code": "97460", "place_name": "Saint-Paul", "latitude": "-21.0096", "longitude": "55.2707"}, {"country_code": "RE", "postal_code": "97461 CEDEX", "place_name": "Saint-Denis", "latitude": "-20.8823", "longitude": "55.4504"}, {"country_code": "RE", "postal_code": "97462 CEDEX", "place_name": "Saint-Denis", "latitude": "-20.8823", "longitude": "55.4504"}, {"country_code": "RE", "postal_code": "97463 CEDEX", "place_name": "Saint-Denis", "latitude": "-20.8823", "longitude": "55.4504"}, {"country_code": "RE", "postal_code": "97464 CEDEX", "place_name": "Saint-Denis", "latitude": "-20.8823", "longitude": "55.4504"}, {"country_code": "RE", "postal_code": "97465 CEDEX", "place_name": "Saint-Denis", "latitude": "-20.8823", "longitude": "55.4504"}, {"country_code": "RE", "postal_code": "97466 CEDEX", "place_name": "Saint-Denis", "latitude": "-20.8823", "longitude": "55.4504"}, {"country_code": "RE", "postal_code": "97467 CEDEX", "place_name": "Saint-Denis", "latitude": "-20.8823", "longitude": "55.4504"}, {"country_code": "RE", "postal_code": "97468 CEDEX", "place_name": "Saint-Denis", "latitude": "-20.8823", "longitude": "55.4504"}, {"country_code": "RE", "postal_code": "97469 CEDEX", "place_name": "Saint-Denis", "latitude": "-20.8823", "longitude": "55.4504"}, {"country_code": "RE", "postal_code": "97470", "place_name": "Saint-Beno\u00eet", "latitude": "-21.038", "longitude": "55.7194"}, {"country_code": "RE", "postal_code": "97471 CEDEX", "place_name": "Saint-Denis", "latitude": "-20.8823", "longitude": "55.4504"}, {"country_code": "RE", "postal_code": "97472 CEDEX", "place_name": "Saint-Denis", "latitude": "-20.8823", "longitude": "55.4504"}, {"country_code": "RE", "postal_code": "97473 CEDEX", "place_name": "Saint-Denis", "latitude": "-20.8823", "longitude": "55.4504"}, {"country_code": "RE", "postal_code": "97474 CEDEX", "place_name": "Saint-Denis", "latitude": "-20.8823", "longitude": "55.4504"}, {"country_code": "RE", "postal_code": "97475 CEDEX", "place_name": "Saint-Denis", "latitude": "-20.8823", "longitude": "55.4504"}, {"country_code": "RE", "postal_code": "97476 CEDEX", "place_name": "Saint-Denis", "latitude": "-20.8823", "longitude": "55.4504"}, {"country_code": "RE", "postal_code": "97477 CEDEX", "place_name": "Saint-Denis", "latitude": "-20.8823", "longitude": "55.4504"}, {"country_code": "RE", "postal_code": "97478 CEDEX", "place_name": "Saint-Denis", "latitude": "-20.8823", "longitude": "55.4504"}, {"country_code": "RE", "postal_code": "97479 CEDEX", "place_name": "Saint-Denis", "latitude": "-20.8823", "longitude": "55.4504"}, {"country_code": "RE", "postal_code": "97480", "place_name": "Saint-Joseph", "latitude": "-21.3784", "longitude": "55.6192"}, {"country_code": "RE", "postal_code": "97481 CEDEX", "place_name": "Saint-Denis", "latitude": "-20.8823", "longitude": "55.4504"}, {"country_code": "RE", "postal_code": "97482 CEDEX", "place_name": "Saint-Denis", "latitude": "-20.8823", "longitude": "55.4504"}, {"country_code": "RE", "postal_code": "97483 CEDEX", "place_name": "Saint-Denis", "latitude": "-20.8823", "longitude": "55.4504"}, {"country_code": "RE", "postal_code": "97484 CEDEX", "place_name": "Saint-Denis", "latitude": "-20.8823", "longitude": "55.4504"}, {"country_code": "RE", "postal_code": "97485 CEDEX", "place_name": "Saint-Denis", "latitude": "-20.8823", "longitude": "55.4504"}, {"country_code": "RE", "postal_code": "97486 CEDEX", "place_name": "Saint-Denis", "latitude": "-20.8823", "longitude": "55.4504"}, {"country_code": "RE", "postal_code": "97487 CEDEX", "place_name": "Saint-Denis", "latitude": "-20.8823", "longitude": "55.4504"}, {"country_code": "RE", "postal_code": "97488 CEDEX", "place_name": "Saint-Denis", "latitude": "-20.8823", "longitude": "55.4504"}, {"country_code": "RE", "postal_code": "97489 CEDEX", "place_name": "Saint-Denis", "latitude": "-20.8823", "longitude": "55.4504"}, {"country_code": "RE", "postal_code": "97490", "place_name": "Saint-Denis", "latitude": "-20.8823", "longitude": "55.4504"}, {"country_code": "RE", "postal_code": "97499 CEDEX 9", "place_name": "Saint-Denis", "latitude": "-20.8823", "longitude": "55.4504"}, {"country_code": "RE", "postal_code": "97701 CEDEX 9", "place_name": "Saint-Denis", "latitude": "-20.8823", "longitude": "55.4504"}, {"country_code": "RE", "postal_code": "97702 CEDEX 9", "place_name": "Saint-Denis", "latitude": "-20.8823", "longitude": "55.4504"}, {"country_code": "RE", "postal_code": "97703 CEDEX 9", "place_name": "Saint-Denis", "latitude": "-20.8823", "longitude": "55.4504"}, {"country_code": "RE", "postal_code": "97704 CEDEX 9", "place_name": "Saint-Denis", "latitude": "-20.8823", "longitude": "55.4504"}, {"country_code": "RE", "postal_code": "97705 CEDEX 9", "place_name": "Saint-Denis", "latitude": "-20.8823", "longitude": "55.4504"}, {"country_code": "RE", "postal_code": "97706 CEDEX 9", "place_name": "Saint-Denis", "latitude": "-20.8823", "longitude": "55.4504"}, {"country_code": "RE", "postal_code": "97707 CEDEX 9", "place_name": "Saint-Denis", "latitude": "-20.8823", "longitude": "55.4504"}, {"country_code": "RE", "postal_code": "97708 CEDEX 9", "place_name": "Saint-Denis", "latitude": "-20.8823", "longitude": "55.4504"}, {"country_code": "RE", "postal_code": "97709 CEDEX 9", "place_name": "Saint-Denis", "latitude": "-20.8823", "longitude": "55.4504"}, {"country_code": "RE", "postal_code": "97711 CEDEX 9", "place_name": "Saint-Denis", "latitude": "-20.8823", "longitude": "55.4504"}, {"country_code": "RE", "postal_code": "97712 CEDEX 9", "place_name": "Saint-Denis", "latitude": "-20.8823", "longitude": "55.4504"}, {"country_code": "RE", "postal_code": "97713 CEDEX 9", "place_name": "Saint-Denis", "latitude": "-20.8823", "longitude": "55.4504"}, {"country_code": "RE", "postal_code": "97714 CEDEX 9", "place_name": "Saint-Denis", "latitude": "-20.8823", "longitude": "55.4504"}, {"country_code": "RE", "postal_code": "97715 CEDEX 9", "place_name": "Saint-Denis", "latitude": "-20.8823", "longitude": "55.4504"}, {"country_code": "RE", "postal_code": "97716 CEDEX 9", "place_name": "Saint-Denis", "latitude": "-20.8823", "longitude": "55.4504"}, {"country_code": "RE", "postal_code": "97717 CEDEX 9", "place_name": "Saint-Denis", "latitude": "-20.8823", "longitude": "55.4504"}, {"country_code": "RE", "postal_code": "97718 CEDEX 9", "place_name": "Saint-Denis", "latitude": "-20.8823", "longitude": "55.4504"}, {"country_code": "RE", "postal_code": "97719 CEDEX 9", "place_name": "Saint-Denis", "latitude": "-20.8823", "longitude": "55.4504"}, {"country_code": "RE", "postal_code": "97743 CEDEX 9", "place_name": "Saint-Denis", "latitude": "-20.8823", "longitude": "55.4504"}, {"country_code": "RE", "postal_code": "97751 CEDEX", "place_name": "Saint-Pierre", "latitude": "-21.3393", "longitude": "55.4781"}, {"country_code": "RE", "postal_code": "97801 CEDEX 9", "place_name": "Saint-Denis", "latitude": "-20.8823", "longitude": "55.4504"}, {"country_code": "RE", "postal_code": "97802 CEDEX 9", "place_name": "Saint-Denis", "latitude": "-20.8823", "longitude": "55.4504"}, {"country_code": "RE", "postal_code": "97803 CEDEX 9", "place_name": "Saint-Denis", "latitude": "-20.8823", "longitude": "55.4504"}, {"country_code": "RE", "postal_code": "97804 CEDEX 9", "place_name": "Saint-Denis", "latitude": "-20.8823", "longitude": "55.4504"}, {"country_code": "RE", "postal_code": "97805 CEDEX 9", "place_name": "Saint-Denis", "latitude": "-20.8823", "longitude": "55.4504"}, {"country_code": "RE", "postal_code": "97806 CEDEX 9", "place_name": "Saint-Denis", "latitude": "-20.8823", "longitude": "55.4504"}, {"country_code": "RE", "postal_code": "97821 CEDEX", "place_name": "Le Port", "latitude": "-20.9373", "longitude": "55.2919"}, {"country_code": "RE", "postal_code": "97822 CEDEX", "place_name": "Le Port", "latitude": "-20.9373", "longitude": "55.2919"}, {"country_code": "RE", "postal_code": "97823 CEDEX", "place_name": "Le Port", "latitude": "-20.9373", "longitude": "55.2919"}, {"country_code": "RE", "postal_code": "97824 CEDEX", "place_name": "Le Port", "latitude": "-20.9373", "longitude": "55.2919"}, {"country_code": "RE", "postal_code": "97825 CEDEX", "place_name": "Le Port", "latitude": "-20.9373", "longitude": "55.2919"}, {"country_code": "RE", "postal_code": "97826 CEDEX", "place_name": "Le Port", "latitude": "-20.9373", "longitude": "55.2919"}, {"country_code": "RE", "postal_code": "97827 CEDEX", "place_name": "Le Port", "latitude": "-20.9373", "longitude": "55.2919"}, {"country_code": "RE", "postal_code": "97828 CEDEX", "place_name": "Le Port", "latitude": "-20.9373", "longitude": "55.2919"}, {"country_code": "RE", "postal_code": "97829 CEDEX", "place_name": "Le Port", "latitude": "-20.9373", "longitude": "55.2919"}, {"country_code": "RE", "postal_code": "97831 CEDEX", "place_name": "Le Tampon", "latitude": "-21.2831", "longitude": "55.518"}, {"country_code": "RE", "postal_code": "97832 CEDEX", "place_name": "Le Tampon", "latitude": "-21.2831", "longitude": "55.518"}, {"country_code": "RE", "postal_code": "97833 CEDEX", "place_name": "Le Tampon", "latitude": "-21.2831", "longitude": "55.518"}, {"country_code": "RE", "postal_code": "97834 CEDEX", "place_name": "Le Tampon", "latitude": "-21.2831", "longitude": "55.518"}, {"country_code": "RE", "postal_code": "97835 CEDEX", "place_name": "Le Tampon", "latitude": "-21.2831", "longitude": "55.518"}, {"country_code": "RE", "postal_code": "97836 CEDEX", "place_name": "Le Tampon", "latitude": "-21.2831", "longitude": "55.518"}, {"country_code": "RE", "postal_code": "97837 CEDEX", "place_name": "Le Tampon", "latitude": "-21.2831", "longitude": "55.518"}, {"country_code": "RE", "postal_code": "97838 CEDEX", "place_name": "Le Tampon", "latitude": "-21.2831", "longitude": "55.518"}, {"country_code": "RE", "postal_code": "97839 CEDEX", "place_name": "Le Tampon", "latitude": "-21.2831", "longitude": "55.518"}, {"country_code": "RE", "postal_code": "97851 CEDEX", "place_name": "Saint-Pierre", "latitude": "-21.3393", "longitude": "55.4781"}, {"country_code": "RE", "postal_code": "97852 CEDEX", "place_name": "Saint-Pierre", "latitude": "-21.3393", "longitude": "55.4781"}, {"country_code": "RE", "postal_code": "97853 CEDEX", "place_name": "Saint-Pierre", "latitude": "-21.3393", "longitude": "55.4781"}, {"country_code": "RE", "postal_code": "97861 CEDEX", "place_name": "Saint-Paul", "latitude": "-21.0096", "longitude": "55.2707"}, {"country_code": "RE", "postal_code": "97862 CEDEX", "place_name": "Saint-Paul", "latitude": "-21.0096", "longitude": "55.2707"}, {"country_code": "RE", "postal_code": "97863 CEDEX", "place_name": "Saint-Paul", "latitude": "-21.0096", "longitude": "55.2707"}, {"country_code": "RE", "postal_code": "97864 CEDEX", "place_name": "Saint-Paul", "latitude": "-21.0096", "longitude": "55.2707"}, {"country_code": "RE", "postal_code": "97865 CEDEX", "place_name": "Saint-Paul", "latitude": "-21.0096", "longitude": "55.2707"}, {"country_code": "RE", "postal_code": "97866 CEDEX", "place_name": "Saint-Paul", "latitude": "-21.0096", "longitude": "55.2707"}, {"country_code": "RE", "postal_code": "97867 CEDEX", "place_name": "Saint-Paul", "latitude": "-21.0096", "longitude": "55.2707"}, {"country_code": "RE", "postal_code": "97868 CEDEX", "place_name": "Saint-Paul", "latitude": "-21.0096", "longitude": "55.2707"}, {"country_code": "RE", "postal_code": "97872 CEDEX", "place_name": "Saint-Louis", "latitude": "-21.2858", "longitude": "55.4112"}, {"country_code": "RE", "postal_code": "97899 CEDEX", "place_name": "Saint-Louis", "latitude": "-21.2858", "longitude": "55.4112"}]