[{"country_code": "MT", "postal_code": "ATD", "place_name": "Attard", "latitude": "35.8917", "longitude": "14.4319"}, {"country_code": "MT", "postal_code": "BZN", "place_name": "Balzan", "latitude": "35.8972", "longitude": "14.4528"}, {"country_code": "MT", "postal_code": "BRG", "place_name": "Birgu", "latitude": "35.8861", "longitude": "14.5242"}, {"country_code": "MT", "postal_code": "BKR", "place_name": "Birkirkara", "latitude": "35.8972", "longitude": "14.4653"}, {"country_code": "MT", "postal_code": "BBG", "place_name": "Bir\u017cebbu\u0121a", "latitude": "35.8222", "longitude": "14.5228"}, {"country_code": "MT", "postal_code": "BML", "place_name": "Bormla", "latitude": "35.8806", "longitude": "14.5217"}, {"country_code": "MT", "postal_code": "DGL", "place_name": "Dingli", "latitude": "35.8597", "longitude": "14.3833"}, {"country_code": "MT", "postal_code": "FGR", "place_name": "Fgura", "latitude": "35.8728", "longitude": "14.5203"}, {"country_code": "MT", "postal_code": "FRN", "place_name": "Floriana", "latitude": "35.8917", "longitude": "14.5042"}, {"country_code": "MT", "postal_code": "FNT", "place_name": "Fontana", "latitude": "36.0375", "longitude": "14.2361"}, {"country_code": "MT", "postal_code": "GSM", "place_name": "G\u0127ajnsielem", "latitude": "36.0267", "longitude": "14.2861"}, {"country_code": "MT", "postal_code": "KMN", "place_name": "Kemmuna", "latitude": "36.0267", "longitude": "14.2861"}, {"country_code": "MT", "postal_code": "GRB", "place_name": "G\u0127arb", "latitude": "36.0681", "longitude": "14.2014"}, {"country_code": "MT", "postal_code": "GHR", "place_name": "G\u0127arg\u0127ur", "latitude": "35.9236", "longitude": "14.455"}, {"country_code": "MT", "postal_code": "GSR", "place_name": "G\u0127asri", "latitude": "36.0653", "longitude": "14.2217"}, {"country_code": "MT", "postal_code": "GXQ", "place_name": "G\u0127axaq", "latitude": "35.8458", "longitude": "14.5167"}, {"country_code": "MT", "postal_code": "GDJ", "place_name": "Gudja", "latitude": "35.8514", "longitude": "14.5033"}, {"country_code": "MT", "postal_code": "GZR", "place_name": "G\u017cira", "latitude": "35.9056", "longitude": "14.4928"}, {"country_code": "MT", "postal_code": "HMR", "place_name": "\u0126amrun", "latitude": "35.8869", "longitude": "14.4883"}, {"country_code": "MT", "postal_code": "IKL", "place_name": "Iklin", "latitude": "35.9097", "longitude": "14.4556"}, {"country_code": "MT", "postal_code": "MDN", "place_name": "Mdina", "latitude": "35.8872", "longitude": "14.4053"}, {"country_code": "MT", "postal_code": "MGR", "place_name": "M\u0121arr", "latitude": "35.9194", "longitude": "14.3639"}, {"country_code": "MT", "postal_code": "MQB", "place_name": "Mqabba", "latitude": "35.845", "longitude": "14.4675"}, {"country_code": "MT", "postal_code": "MSD", "place_name": "Msida", "latitude": "35.8986", "longitude": "14.4839"}, {"country_code": "MT", "postal_code": "MTF", "place_name": "Mtarfa", "latitude": "35.8906", "longitude": "14.3972"}, {"country_code": "MT", "postal_code": "ISL", "place_name": "Isla", "latitude": "35.8878", "longitude": "14.5169"}, {"country_code": "MT", "postal_code": "KKR", "place_name": "Kalkara", "latitude": "35.8911", "longitude": "14.5328"}, {"country_code": "MT", "postal_code": "SCM", "place_name": "Smart City", "latitude": "35.8911", "longitude": "14.5328"}, {"country_code": "MT", "postal_code": "KCM", "place_name": "Ker\u010bem", "latitude": "36.0439", "longitude": "14.2161"}, {"country_code": "MT", "postal_code": "KKP", "place_name": "Kirkop", "latitude": "35.8442", "longitude": "14.4842"}, {"country_code": "MT", "postal_code": "LJA", "place_name": "Lija", "latitude": "35.9014", "longitude": "14.4422"}, {"country_code": "MT", "postal_code": "LQA", "place_name": "Luqa", "latitude": "35.8597", "longitude": "14.4833"}, {"country_code": "MT", "postal_code": "MRS", "place_name": "Marsa", "latitude": "35.8764", "longitude": "14.4922"}, {"country_code": "MT", "postal_code": "MTP", "place_name": "MaltaPost", "latitude": "35.8764", "longitude": "14.4922"}, {"country_code": "MT", "postal_code": "MSK", "place_name": "Marsaskala", "latitude": "35.8606", "longitude": "14.5592"}, {"country_code": "MT", "postal_code": "MXK", "place_name": "Marsaxlokk", "latitude": "35.8417", "longitude": "14.5514"}, {"country_code": "MT", "postal_code": "MLH", "place_name": "Mellie\u0127a", "latitude": "35.9583", "longitude": "14.3514"}, {"country_code": "MT", "postal_code": "MST", "place_name": "Mosta", "latitude": "35.9125", "longitude": "14.4208"}, {"country_code": "MT", "postal_code": "MXR", "place_name": "Munxar", "latitude": "36.0292", "longitude": "14.2256"}, {"country_code": "MT", "postal_code": "XLN", "place_name": "Xlendi", "latitude": "36.0292", "longitude": "14.2256"}, {"country_code": "MT", "postal_code": "NDR", "place_name": "Nadur", "latitude": "36.0486", "longitude": "14.2944"}, {"country_code": "MT", "postal_code": "NXR", "place_name": "Naxxar", "latitude": "35.9333", "longitude": "14.4375"}, {"country_code": "MT", "postal_code": "PLA", "place_name": "Paola", "latitude": "35.8736", "longitude": "14.5061"}, {"country_code": "MT", "postal_code": "PBK", "place_name": "Pembroke", "latitude": "35.9306", "longitude": "14.4764"}, {"country_code": "MT", "postal_code": "PTA", "place_name": "Piet\u00e0", "latitude": "35.8925", "longitude": "14.4939"}, {"country_code": "MT", "postal_code": "QLA", "place_name": "Qala", "latitude": "36.0375", "longitude": "14.3167"}, {"country_code": "MT", "postal_code": "QRM", "place_name": "Qormi", "latitude": "35.8792", "longitude": "14.4667"}, {"country_code": "MT", "postal_code": "QRD", "place_name": "Qrendi", "latitude": "35.8319", "longitude": "14.4514"}, {"country_code": "MT", "postal_code": "RBT", "place_name": "Rabat", "latitude": "35.8826", "longitude": "14.3978"}, {"country_code": "MT", "postal_code": "VCT", "place_name": "Victoria", "latitude": "36.0453", "longitude": "14.2417"}, {"country_code": "MT", "postal_code": "SFI", "place_name": "Safi", "latitude": "35.8347", "longitude": "14.4917"}, {"country_code": "MT", "postal_code": "SGN", "place_name": "San \u0120wann", "latitude": "35.9089", "longitude": "14.475"}, {"country_code": "MT", "postal_code": "STJ", "place_name": "Saint Julians", "latitude": "35.9172", "longitude": "14.4894"}, {"country_code": "MT", "postal_code": "SLZ", "place_name": "San Lawrenz", "latitude": "36.0486", "longitude": "14.1978"}, {"country_code": "MT", "postal_code": "SLC", "place_name": "Santa Lu\u010bija", "latitude": "35.8617", "longitude": "14.5064"}, {"country_code": "MT", "postal_code": "SPB", "place_name": "Saint Paul's Bay", "latitude": "35.9375", "longitude": "14.3986"}, {"country_code": "MT", "postal_code": "SVR", "place_name": "Santa Venera", "latitude": "35.8903", "longitude": "14.4778"}, {"country_code": "MT", "postal_code": "SNT", "place_name": "Sannat", "latitude": "36.0231", "longitude": "14.2514"}, {"country_code": "MT", "postal_code": "SGW", "place_name": "Si\u0121\u0121iewi", "latitude": "35.8486", "longitude": "14.4264"}, {"country_code": "MT", "postal_code": "SLM", "place_name": "Sliema", "latitude": "35.9125", "longitude": "14.5022"}, {"country_code": "MT", "postal_code": "SWQ", "place_name": "Swieqi", "latitude": "35.9217", "longitude": "14.4694"}, {"country_code": "MT", "postal_code": "TXN", "place_name": "Tarxien", "latitude": "35.8667", "longitude": "14.5131"}, {"country_code": "MT", "postal_code": "XBX", "place_name": "Ta' Xbiex", "latitude": "35.8994", "longitude": "14.4961"}, {"country_code": "MT", "postal_code": "VLT", "place_name": "Valletta", "latitude": "35.8983", "longitude": "14.5125"}, {"country_code": "MT", "postal_code": "XRA", "place_name": "Xag\u0127ra", "latitude": "36.0542", "longitude": "14.2667"}, {"country_code": "MT", "postal_code": "XWK", "place_name": "Xewkija", "latitude": "36.0333", "longitude": "14.2611"}, {"country_code": "MT", "postal_code": "XJR", "place_name": "Xg\u0127ajra", "latitude": "35.8847", "longitude": "14.5486"}, {"country_code": "MT", "postal_code": "ZBR", "place_name": "\u017babbar", "latitude": "35.875", "longitude": "14.5417"}, {"country_code": "MT", "postal_code": "ZBG", "place_name": "\u017bebbu\u0121", "latitude": "35.8736", "longitude": "14.4361"}, {"country_code": "MT", "postal_code": "MFN", "place_name": "Marsalforn", "latitude": "36.0667", "longitude": "14.2444"}, {"country_code": "MT", "postal_code": "ZBB", "place_name": "\u017bebbu\u0121", "latitude": "36.0667", "longitude": "14.2444"}, {"country_code": "MT", "postal_code": "ZTN", "place_name": "\u017bejtun", "latitude": "35.8578", "longitude": "14.5333"}, {"country_code": "MT", "postal_code": "ZRQ", "place_name": "\u017burrieq", "latitude": "35.8222", "longitude": "14.4833"}]