[{"country_code": "MQ", "postal_code": "97200", "place_name": "Fort-de-France", "latitude": "14.6089", "longitude": "-61.0733"}, {"country_code": "MQ", "postal_code": "97201 CEDEX", "place_name": "Fort-de-France", "latitude": "14.6089", "longitude": "-61.0733"}, {"country_code": "MQ", "postal_code": "97202 CEDEX", "place_name": "Fort-de-France", "latitude": "14.6089", "longitude": "-61.0733"}, {"country_code": "MQ", "postal_code": "97203 CEDEX", "place_name": "Fort-de-France", "latitude": "14.6089", "longitude": "-61.0733"}, {"country_code": "MQ", "postal_code": "97204 CEDEX", "place_name": "Fort-de-France", "latitude": "14.6089", "longitude": "-61.0733"}, {"country_code": "MQ", "postal_code": "97205 CEDEX", "place_name": "Fort-de-France", "latitude": "14.6089", "longitude": "-61.0733"}, {"country_code": "MQ", "postal_code": "97206 CEDEX", "place_name": "Fort-de-France", "latitude": "14.6089", "longitude": "-61.0733"}, {"country_code": "MQ", "postal_code": "97207 CEDEX", "place_name": "Fort-de-France", "latitude": "14.6089", "longitude": "-61.0733"}, {"country_code": "MQ", "postal_code": "97208 CEDEX", "place_name": "Fort-de-France", "latitude": "14.6089", "longitude": "-61.0733"}, {"country_code": "MQ", "postal_code": "97209 CEDEX", "place_name": "Fort-de-France", "latitude": "14.6089", "longitude": "-61.0733"}, {"country_code": "MQ", "postal_code": "97210 CEDEX 2", "place_name": "Le Lamentin", "latitude": "14.608", "longitude": "-61.0093"}, {"country_code": "MQ", "postal_code": "97211", "place_name": "Rivi\u00e8re-Pilote", "latitude": "14.4775", "longitude": "-60.9035"}, {"country_code": "MQ", "postal_code": "97212", "place_name": "Saint-Joseph", "latitude": "14.671", "longitude": "-61.0391"}, {"country_code": "MQ", "postal_code": "97213", "place_name": "Le Gros-Morne", "latitude": "14.7", "longitude": "-61"}, {"country_code": "MQ", "postal_code": "97214", "place_name": "Le Lorrain", "latitude": "14.8329", "longitude": "-61.0567"}, {"country_code": "MQ", "postal_code": "97215", "place_name": "Rivi\u00e8re-Sal\u00e9e", "latitude": "14.5272", "longitude": "-60.9781"}, {"country_code": "MQ", "postal_code": "97216", "place_name": "L'Ajoupa-Bouillon", "latitude": "14.8167", "longitude": "-61.1167"}, {"country_code": "MQ", "postal_code": "97217", "place_name": "Les Anses-d'Arlet", "latitude": "14.4833", "longitude": "-61.0833"}, {"country_code": "MQ", "postal_code": "97218", "place_name": "Macouba", "latitude": "14.8764", "longitude": "-61.142"}, {"country_code": "MQ", "postal_code": "97218", "place_name": "Grand'Rivi\u00e8re", "latitude": "14.8735", "longitude": "-61.1795"}, {"country_code": "MQ", "postal_code": "97218", "place_name": "Basse-Pointe", "latitude": "14.8695", "longitude": "-61.115"}, {"country_code": "MQ", "postal_code": "97219 CEDEX", "place_name": "Fort-de-France", "latitude": "14.6089", "longitude": "-61.0733"}, {"country_code": "MQ", "postal_code": "97220", "place_name": "La Trinit\u00e9", "latitude": "14.7376", "longitude": "-60.9629"}, {"country_code": "MQ", "postal_code": "97221", "place_name": "Le Carbet", "latitude": "14.7103", "longitude": "-61.1824"}, {"country_code": "MQ", "postal_code": "97222", "place_name": "Bellefontaine", "latitude": "14.6731", "longitude": "-61.164"}, {"country_code": "MQ", "postal_code": "97222", "place_name": "Case-Pilote", "latitude": "14.6428", "longitude": "-61.1385"}, {"country_code": "MQ", "postal_code": "97223", "place_name": "Le Diamant", "latitude": "14.4795", "longitude": "-61.027"}, {"country_code": "MQ", "postal_code": "97224", "place_name": "Ducos", "latitude": "14.5753", "longitude": "-60.9745"}, {"country_code": "MQ", "postal_code": "97225", "place_name": "Le Marigot", "latitude": "14.8225", "longitude": "-61.0313"}, {"country_code": "MQ", "postal_code": "97226", "place_name": "Le Morne-Vert", "latitude": "14.707", "longitude": "-61.1462"}, {"country_code": "MQ", "postal_code": "97227", "place_name": "Sainte-Anne", "latitude": "14.4331", "longitude": "-60.8811"}, {"country_code": "MQ", "postal_code": "97228", "place_name": "Sainte-Luce", "latitude": "14.4673", "longitude": "-60.9271"}, {"country_code": "MQ", "postal_code": "97229", "place_name": "Les Trois-\u00celets", "latitude": "14.539", "longitude": "-61.0361"}, {"country_code": "MQ", "postal_code": "97230", "place_name": "Sainte-Marie", "latitude": "14.7839", "longitude": "-60.9927"}, {"country_code": "MQ", "postal_code": "97231", "place_name": "Le Robert", "latitude": "14.6775", "longitude": "-60.9423"}, {"country_code": "MQ", "postal_code": "97232", "place_name": "Le Lamentin", "latitude": "14.608", "longitude": "-61.0093"}, {"country_code": "MQ", "postal_code": "97233", "place_name": "Schoelcher", "latitude": "14.6177", "longitude": "-61.099"}, {"country_code": "MQ", "postal_code": "97234", "place_name": "Fort-de-France", "latitude": "14.6089", "longitude": "-61.0733"}, {"country_code": "MQ", "postal_code": "97240", "place_name": "Le Fran\u00e7ois", "latitude": "14.6156", "longitude": "-60.9031"}, {"country_code": "MQ", "postal_code": "97241 CEDEX", "place_name": "Fort-de-France", "latitude": "14.6089", "longitude": "-61.0733"}, {"country_code": "MQ", "postal_code": "97242 CEDEX", "place_name": "Fort-de-France", "latitude": "14.6089", "longitude": "-61.0733"}, {"country_code": "MQ", "postal_code": "97243 CEDEX", "place_name": "Fort-de-France", "latitude": "14.6089", "longitude": "-61.0733"}, {"country_code": "MQ", "postal_code": "97244 CEDEX", "place_name": "Fort-de-France", "latitude": "14.6089", "longitude": "-61.0733"}, {"country_code": "MQ", "postal_code": "97245 CEDEX", "place_name": "Fort-de-France", "latitude": "14.6089", "longitude": "-61.0733"}, {"country_code": "MQ", "postal_code": "97246 CEDEX", "place_name": "Fort-de-France", "latitude": "14.6089", "longitude": "-61.0733"}, {"country_code": "MQ", "postal_code": "97247 CEDEX", "place_name": "Fort-de-France", "latitude": "14.6089", "longitude": "-61.0733"}, {"country_code": "MQ", "postal_code": "97248 CEDEX", "place_name": "Fort-de-France", "latitude": "14.6089", "longitude": "-61.0733"}, {"country_code": "MQ", "postal_code": "97249 CEDEX", "place_name": "Fort-de-France", "latitude": "14.6089", "longitude": "-61.0733"}, {"country_code": "MQ", "postal_code": "97250", "place_name": "Le Pr\u00eacheur", "latitude": "14.8017", "longitude": "-61.2247"}, {"country_code": "MQ", "postal_code": "97250", "place_name": "Fonds-Saint-Denis", "latitude": "14.7333", "longitude": "-61.1333"}, {"country_code": "MQ", "postal_code": "97250", "place_name": "Saint-Pierre", "latitude": "14.7438", "longitude": "-61.1753"}, {"country_code": "MQ", "postal_code": "97251 CEDEX", "place_name": "Fort-de-France", "latitude": "14.6089", "longitude": "-61.0733"}, {"country_code": "MQ", "postal_code": "97252 CEDEX", "place_name": "Fort-de-France", "latitude": "14.6089", "longitude": "-61.0733"}, {"country_code": "MQ", "postal_code": "97253 CEDEX", "place_name": "Fort-de-France", "latitude": "14.6089", "longitude": "-61.0733"}, {"country_code": "MQ", "postal_code": "97254 CEDEX", "place_name": "Fort-de-France", "latitude": "14.6089", "longitude": "-61.0733"}, {"country_code": "MQ", "postal_code": "97255 CEDEX", "place_name": "Fort-de-France", "latitude": "14.6089", "longitude": "-61.0733"}, {"country_code": "MQ", "postal_code": "97256 CEDEX", "place_name": "Fort-de-France", "latitude": "14.6089", "longitude": "-61.0733"}, {"country_code": "MQ", "postal_code": "97257 CEDEX", "place_name": "Fort-de-France", "latitude": "14.6089", "longitude": "-61.0733"}, {"country_code": "MQ", "postal_code": "97258 CEDEX", "place_name": "Fort-de-France", "latitude": "14.6089", "longitude": "-61.0733"}, {"country_code": "MQ", "postal_code": "97259 CEDEX", "place_name": "Fort-de-France", "latitude": "14.6089", "longitude": "-61.0733"}, {"country_code": "MQ", "postal_code": "97260", "place_name": "Le Morne-Rouge", "latitude": "14.7667", "longitude": "-61.1333"}, {"country_code": "MQ", "postal_code": "97261 CEDEX", "place_name": "Fort-de-France", "latitude": "14.6089", "longitude": "-61.0733"}, {"country_code": "MQ", "postal_code": "97262 CEDEX", "place_name": "Fort-de-France", "latitude": "14.6089", "longitude": "-61.0733"}, {"country_code": "MQ", "postal_code": "97263 CEDEX", "place_name": "Fort-de-France", "latitude": "14.6089", "longitude": "-61.0733"}, {"country_code": "MQ", "postal_code": "97264 CEDEX", "place_name": "Fort-de-France", "latitude": "14.6089", "longitude": "-61.0733"}, {"country_code": "MQ", "postal_code": "97265 CEDEX", "place_name": "Fort-de-France", "latitude": "14.6089", "longitude": "-61.0733"}, {"country_code": "MQ", "postal_code": "97266 CEDEX", "place_name": "Fort-de-France", "latitude": "14.6089", "longitude": "-61.0733"}, {"country_code": "MQ", "postal_code": "97267 CEDEX", "place_name": "Fort-de-France", "latitude": "14.6089", "longitude": "-61.0733"}, {"country_code": "MQ", "postal_code": "97268 CEDEX", "place_name": "Fort-de-France", "latitude": "14.6089", "longitude": "-61.0733"}, {"country_code": "MQ", "postal_code": "97269 CEDEX", "place_name": "Fort-de-France", "latitude": "14.6089", "longitude": "-61.0733"}, {"country_code": "MQ", "postal_code": "97270", "place_name": "Saint-Esprit", "latitude": "14.55", "longitude": "-60.9333"}, {"country_code": "MQ", "postal_code": "97271 CEDEX", "place_name": "Schoelcher", "latitude": "14.6177", "longitude": "-61.099"}, {"country_code": "MQ", "postal_code": "97272 CEDEX", "place_name": "Schoelcher", "latitude": "14.6177", "longitude": "-61.099"}, {"country_code": "MQ", "postal_code": "97273 CEDEX", "place_name": "Schoelcher", "latitude": "14.6177", "longitude": "-61.099"}, {"country_code": "MQ", "postal_code": "97274 CEDEX", "place_name": "Schoelcher", "latitude": "14.6177", "longitude": "-61.099"}, {"country_code": "MQ", "postal_code": "97275 CEDEX", "place_name": "Schoelcher", "latitude": "14.6177", "longitude": "-61.099"}, {"country_code": "MQ", "postal_code": "97276 CEDEX", "place_name": "Schoelcher", "latitude": "14.6177", "longitude": "-61.099"}, {"country_code": "MQ", "postal_code": "97277 CEDEX", "place_name": "Schoelcher", "latitude": "14.6177", "longitude": "-61.099"}, {"country_code": "MQ", "postal_code": "97278 CEDEX", "place_name": "Schoelcher", "latitude": "14.6177", "longitude": "-61.099"}, {"country_code": "MQ", "postal_code": "97279 CEDEX", "place_name": "Schoelcher", "latitude": "14.6177", "longitude": "-61.099"}, {"country_code": "MQ", "postal_code": "97280", "place_name": "Le Vauclin", "latitude": "14.5452", "longitude": "-60.8388"}, {"country_code": "MQ", "postal_code": "97281 CEDEX 1", "place_name": "Le Lamentin", "latitude": "14.608", "longitude": "-61.0093"}, {"country_code": "MQ", "postal_code": "97282 CEDEX 1", "place_name": "Le Lamentin", "latitude": "14.608", "longitude": "-61.0093"}, {"country_code": "MQ", "postal_code": "97283 CEDEX 1", "place_name": "Le Lamentin", "latitude": "14.608", "longitude": "-61.0093"}, {"country_code": "MQ", "postal_code": "97284 CEDEX 2", "place_name": "Le Lamentin", "latitude": "14.608", "longitude": "-61.0093"}, {"country_code": "MQ", "postal_code": "97285 CEDEX 2", "place_name": "Le Lamentin", "latitude": "14.608", "longitude": "-61.0093"}, {"country_code": "MQ", "postal_code": "97286 CEDEX 2", "place_name": "Le Lamentin", "latitude": "14.608", "longitude": "-61.0093"}, {"country_code": "MQ", "postal_code": "97287 CEDEX 2", "place_name": "Le Lamentin", "latitude": "14.608", "longitude": "-61.0093"}, {"country_code": "MQ", "postal_code": "97288 CEDEX 2", "place_name": "Le Lamentin", "latitude": "14.608", "longitude": "-61.0093"}, {"country_code": "MQ", "postal_code": "97289 CEDEX 2", "place_name": "Le Lamentin", "latitude": "14.608", "longitude": "-61.0093"}, {"country_code": "MQ", "postal_code": "97290", "place_name": "Le Marin", "latitude": "14.4721", "longitude": "-60.8697"}, {"country_code": "MQ", "postal_code": "97291 CEDEX 2", "place_name": "Le Lamentin", "latitude": "14.608", "longitude": "-61.0093"}, {"country_code": "MQ", "postal_code": "97292 CEDEX 2", "place_name": "Le Lamentin", "latitude": "14.608", "longitude": "-61.0093"}, {"country_code": "MQ", "postal_code": "97293 CEDEX 2", "place_name": "Le Lamentin", "latitude": "14.608", "longitude": "-61.0093"}, {"country_code": "MQ", "postal_code": "97294 CEDEX 2", "place_name": "Le Lamentin", "latitude": "14.608", "longitude": "-61.0093"}, {"country_code": "MQ", "postal_code": "97295 CEDEX 2", "place_name": "Le Lamentin", "latitude": "14.608", "longitude": "-61.0093"}, {"country_code": "MQ", "postal_code": "97296 CEDEX 2", "place_name": "Le Lamentin", "latitude": "14.608", "longitude": "-61.0093"}, {"country_code": "MQ", "postal_code": "97297 CEDEX 2", "place_name": "Le Lamentin", "latitude": "14.608", "longitude": "-61.0093"}, {"country_code": "MQ", "postal_code": "97298 CEDEX 2", "place_name": "Le Lamentin", "latitude": "14.608", "longitude": "-61.0093"}, {"country_code": "MQ", "postal_code": "97299 CEDEX", "place_name": "Fort-de-France", "latitude": "14.6089", "longitude": "-61.0733"}]