[{"country_code": "FO", "postal_code": "100", "place_name": "T\u00f3rshavn", "latitude": "62.0167", "longitude": "-6.7667"}, {"country_code": "FO", "postal_code": "110", "place_name": "T\u00f3rshavn", "latitude": "62.0167", "longitude": "-6.7667"}, {"country_code": "FO", "postal_code": "160", "place_name": "Argir", "latitude": "61.9833", "longitude": "-6.75"}, {"country_code": "FO", "postal_code": "165", "place_name": "Argir", "latitude": "61.9833", "longitude": "-6.75"}, {"country_code": "FO", "postal_code": "175", "place_name": "Kirkjub\u00f8ur", "latitude": "61.95", "longitude": "-6.7833"}, {"country_code": "FO", "postal_code": "176", "place_name": "Velbastadur", "latitude": "61.9833", "longitude": "-6.8333"}, {"country_code": "FO", "postal_code": "177", "place_name": "Sydradalur, Streymoy", "latitude": "62.0167", "longitude": "-6.9"}, {"country_code": "FO", "postal_code": "178", "place_name": "Nordradalur", "latitude": "62.0333", "longitude": "-6.9167"}, {"country_code": "FO", "postal_code": "180", "place_name": "Kaldbak", "latitude": "62.05", "longitude": "-6.8167"}, {"country_code": "FO", "postal_code": "185", "place_name": "Kaldbaksbotnur", "latitude": "62.046", "longitude": "-6.7995"}, {"country_code": "FO", "postal_code": "186", "place_name": "Sund", "latitude": "62.05", "longitude": "-6.8333"}, {"country_code": "FO", "postal_code": "187", "place_name": "Hvitanes", "latitude": "62.05", "longitude": "-6.7667"}, {"country_code": "FO", "postal_code": "188", "place_name": "Hoyvik", "latitude": "62.0341", "longitude": "-6.7813"}, {"country_code": "FO", "postal_code": "210", "place_name": "Sandur", "latitude": "61.8425", "longitude": "-6.8078"}, {"country_code": "FO", "postal_code": "215", "place_name": "Sandur", "latitude": "61.8425", "longitude": "-6.8078"}, {"country_code": "FO", "postal_code": "220", "place_name": "Sk\u00e1lavik", "latitude": "61.8333", "longitude": "-6.65"}, {"country_code": "FO", "postal_code": "230", "place_name": "H\u00fasavik", "latitude": "61.8", "longitude": "-6.6667"}, {"country_code": "FO", "postal_code": "235", "place_name": "Dalur", "latitude": "61.7833", "longitude": "-6.6667"}, {"country_code": "FO", "postal_code": "236", "place_name": "Skarvanes", "latitude": "61.8", "longitude": "-6.7333"}, {"country_code": "FO", "postal_code": "240", "place_name": "Skopun", "latitude": "61.9", "longitude": "-6.8667"}, {"country_code": "FO", "postal_code": "260", "place_name": "Sk\u00favoy", "latitude": "61.7667", "longitude": "-6.8"}, {"country_code": "FO", "postal_code": "270", "place_name": "N\u00f3lsoy", "latitude": "62.0167", "longitude": "-6.6667"}, {"country_code": "FO", "postal_code": "280", "place_name": "Hestur", "latitude": "61.95", "longitude": "-6.8667"}, {"country_code": "FO", "postal_code": "285", "place_name": "Koltur", "latitude": "61.9833", "longitude": "-6.95"}, {"country_code": "FO", "postal_code": "286", "place_name": "St\u00f3ra Dimun", "latitude": "61.9667", "longitude": "-6.9083"}, {"country_code": "FO", "postal_code": "330", "place_name": "Stykkid", "latitude": "62.1167", "longitude": "-7.0333"}, {"country_code": "FO", "postal_code": "335", "place_name": "Leynar", "latitude": "62.1167", "longitude": "-7.0333"}, {"country_code": "FO", "postal_code": "336", "place_name": "Sk\u00e6llingur", "latitude": "62.1167", "longitude": "-7.0333"}, {"country_code": "FO", "postal_code": "340", "place_name": "Kvivik", "latitude": "62.1167", "longitude": "-7.0667"}, {"country_code": "FO", "postal_code": "350", "place_name": "Vestmanna", "latitude": "62.1564", "longitude": "-7.1664"}, {"country_code": "FO", "postal_code": "355", "place_name": "Vestmanna", "latitude": "62.1564", "longitude": "-7.1664"}, {"country_code": "FO", "postal_code": "358", "place_name": "V\u00e1lur", "latitude": "62.1333", "longitude": "-7.1333"}, {"country_code": "FO", "postal_code": "360", "place_name": "Sandav\u00e1gur", "latitude": "62.05", "longitude": "-7.1333"}, {"country_code": "FO", "postal_code": "370", "place_name": "Midv\u00e1gur", "latitude": "62.0511", "longitude": "-7.1939"}, {"country_code": "FO", "postal_code": "375", "place_name": "Midv\u00e1gur", "latitude": "62.0511", "longitude": "-7.1939"}, {"country_code": "FO", "postal_code": "380", "place_name": "S\u00f8rv\u00e1gur", "latitude": "62.0973", "longitude": "-7.3577"}, {"country_code": "FO", "postal_code": "385", "place_name": "Vatnsoyrar", "latitude": "62.0667", "longitude": "-7.2333"}, {"country_code": "FO", "postal_code": "386", "place_name": "B\u00f8ur", "latitude": "62.0833", "longitude": "-7.35"}, {"country_code": "FO", "postal_code": "387", "place_name": "G\u00e1sadalur", "latitude": "62.1167", "longitude": "-7.4333"}, {"country_code": "FO", "postal_code": "388", "place_name": "Mykines", "latitude": "62.1", "longitude": "-7.6333"}, {"country_code": "FO", "postal_code": "400", "place_name": "Oyrarbakki", "latitude": "62.2", "longitude": "-6.9833"}, {"country_code": "FO", "postal_code": "405", "place_name": "Oyrarbakki", "latitude": "62.2", "longitude": "-6.9833"}, {"country_code": "FO", "postal_code": "410", "place_name": "Kollafj\u00f8rdur", "latitude": "62.1167", "longitude": "-6.9"}, {"country_code": "FO", "postal_code": "415", "place_name": "Oyrareingir", "latitude": "62.1", "longitude": "-6.95"}, {"country_code": "FO", "postal_code": "416", "place_name": "Signab\u00f8ur", "latitude": "62.1", "longitude": "-6.9"}, {"country_code": "FO", "postal_code": "420", "place_name": "H\u00f3svik", "latitude": "62.15", "longitude": "-6.9333"}, {"country_code": "FO", "postal_code": "430", "place_name": "Hvalvik", "latitude": "62.1833", "longitude": "-7.0167"}, {"country_code": "FO", "postal_code": "435", "place_name": "Streymnes", "latitude": "62.2", "longitude": "-7.0167"}, {"country_code": "FO", "postal_code": "436", "place_name": "Saksun", "latitude": "62.25", "longitude": "-7.1667"}, {"country_code": "FO", "postal_code": "437", "place_name": "Nesvik", "latitude": "62.2167", "longitude": "-7.0167"}, {"country_code": "FO", "postal_code": "438", "place_name": "Langasandur", "latitude": "62.2333", "longitude": "-7.0333"}, {"country_code": "FO", "postal_code": "440", "place_name": "Haldarsvik", "latitude": "62.2833", "longitude": "-7.0833"}, {"country_code": "FO", "postal_code": "445", "place_name": "Tj\u00f8rnuvik", "latitude": "62.2833", "longitude": "-7.1333"}, {"country_code": "FO", "postal_code": "450", "place_name": "Oyri", "latitude": "62.1833", "longitude": "-6.9667"}, {"country_code": "FO", "postal_code": "460", "place_name": "Nordsk\u00e1li", "latitude": "62.2167", "longitude": "-7"}, {"country_code": "FO", "postal_code": "465", "place_name": "Svin\u00e1ir", "latitude": "62.2333", "longitude": "-7.0167"}, {"country_code": "FO", "postal_code": "466", "place_name": "Lj\u00f3s\u00e1", "latitude": "62.2667", "longitude": "-7.05"}, {"country_code": "FO", "postal_code": "470", "place_name": "Eidi", "latitude": "62.3", "longitude": "-7.0833"}, {"country_code": "FO", "postal_code": "475", "place_name": "Funningur", "latitude": "62.2833", "longitude": "-6.95"}, {"country_code": "FO", "postal_code": "476", "place_name": "Gj\u00f3gv", "latitude": "62.3167", "longitude": "-6.9333"}, {"country_code": "FO", "postal_code": "477", "place_name": "Funningsfj\u00f8rdur", "latitude": "62.2333", "longitude": "-6.9167"}, {"country_code": "FO", "postal_code": "478", "place_name": "Elduvik", "latitude": "62.2833", "longitude": "-6.9"}, {"country_code": "FO", "postal_code": "480", "place_name": "Sk\u00e1li", "latitude": "62.15", "longitude": "-6.7667"}, {"country_code": "FO", "postal_code": "485", "place_name": "Sk\u00e1lafj\u00f8rdur", "latitude": "62.2", "longitude": "-6.85"}, {"country_code": "FO", "postal_code": "490", "place_name": "Strendur", "latitude": "62.1167", "longitude": "-6.75"}, {"country_code": "FO", "postal_code": "494", "place_name": "Innan Glyvur", "latitude": "62.1333", "longitude": "-6.75"}, {"country_code": "FO", "postal_code": "495", "place_name": "Kolbanargj\u00f3gv", "latitude": "62.1", "longitude": "-6.7833"}, {"country_code": "FO", "postal_code": "496", "place_name": "Morskranes", "latitude": "62.1333", "longitude": "-6.8333"}, {"country_code": "FO", "postal_code": "497", "place_name": "Selatrad", "latitude": "62.15", "longitude": "-6.85"}, {"country_code": "FO", "postal_code": "510", "place_name": "G\u00f8ta", "latitude": "62.2", "longitude": "-6.7333"}, {"country_code": "FO", "postal_code": "511", "place_name": "G\u00f8tugj\u00f3gv", "latitude": "62.1833", "longitude": "-6.7333"}, {"country_code": "FO", "postal_code": "512", "place_name": "Nordrag\u00f8ta", "latitude": "62.2007", "longitude": "-6.7419"}, {"country_code": "FO", "postal_code": "513", "place_name": "Sydrug\u00f8ta", "latitude": "62.1833", "longitude": "-6.7333"}, {"country_code": "FO", "postal_code": "515", "place_name": "G\u00f8ta", "latitude": "62.2", "longitude": "-6.7333"}, {"country_code": "FO", "postal_code": "520", "place_name": "Leirvik", "latitude": "62.2167", "longitude": "-6.6833"}, {"country_code": "FO", "postal_code": "530", "place_name": "Fuglafj\u00f8rdur", "latitude": "62.244", "longitude": "-6.8139"}, {"country_code": "FO", "postal_code": "535", "place_name": "Fuglafj\u00f8rdur", "latitude": "62.244", "longitude": "-6.8139"}, {"country_code": "FO", "postal_code": "600", "place_name": "Saltangar\u00e1", "latitude": "62.1167", "longitude": "-6.7167"}, {"country_code": "FO", "postal_code": "610", "place_name": "Saltangar\u00e1", "latitude": "62.1167", "longitude": "-6.7167"}, {"country_code": "FO", "postal_code": "620", "place_name": "Runavik", "latitude": "62.1167", "longitude": "-6.7167"}, {"country_code": "FO", "postal_code": "625", "place_name": "Glyvrar", "latitude": "62.1333", "longitude": "-6.7167"}, {"country_code": "FO", "postal_code": "626", "place_name": "Lambareidi", "latitude": "62.1333", "longitude": "-6.7167"}, {"country_code": "FO", "postal_code": "627", "place_name": "Lambi", "latitude": "62.1333", "longitude": "-6.6833"}, {"country_code": "FO", "postal_code": "640", "place_name": "Rituvik", "latitude": "62.1", "longitude": "-6.6667"}, {"country_code": "FO", "postal_code": "645", "place_name": "\u00c6duvik", "latitude": "62.0667", "longitude": "-6.6833"}, {"country_code": "FO", "postal_code": "650", "place_name": "Toftir", "latitude": "62.1", "longitude": "-6.7333"}, {"country_code": "FO", "postal_code": "655", "place_name": "Nes, Eysturoy", "latitude": "62.0833", "longitude": "-6.7167"}, {"country_code": "FO", "postal_code": "656", "place_name": "Saltnes", "latitude": "62.1", "longitude": "-6.7333"}, {"country_code": "FO", "postal_code": "660", "place_name": "S\u00f8ldarfj\u00f8rdur", "latitude": "62.15", "longitude": "-6.7333"}, {"country_code": "FO", "postal_code": "665", "place_name": "Skipanes", "latitude": "62.1667", "longitude": "-6.75"}, {"country_code": "FO", "postal_code": "666", "place_name": "G\u00f8tueidi", "latitude": "62.1833", "longitude": "-6.7667"}, {"country_code": "FO", "postal_code": "690", "place_name": "Oyndarfj\u00f8rdur", "latitude": "62.2833", "longitude": "-6.8333"}, {"country_code": "FO", "postal_code": "695", "place_name": "Hellur", "latitude": "62.2667", "longitude": "-6.8333"}, {"country_code": "FO", "postal_code": "700", "place_name": "Klaksvik", "latitude": "62.2265", "longitude": "-6.589"}, {"country_code": "FO", "postal_code": "710", "place_name": "Klaksv\u00edk", "latitude": "62.2265", "longitude": "-6.589"}, {"country_code": "FO", "postal_code": "725", "place_name": "Nordoyri", "latitude": "62.2167", "longitude": "-6.5333"}, {"country_code": "FO", "postal_code": "726", "place_name": "\u00c1nir", "latitude": "62.25", "longitude": "-6.5667"}, {"country_code": "FO", "postal_code": "727", "place_name": "\u00c1rnafj\u00f8rdur", "latitude": "62.25", "longitude": "-6.5167"}, {"country_code": "FO", "postal_code": "730", "place_name": "Norddepil", "latitude": "62.3", "longitude": "-6.5167"}, {"country_code": "FO", "postal_code": "735", "place_name": "Depil", "latitude": "62.2833", "longitude": "-6.5167"}, {"country_code": "FO", "postal_code": "736", "place_name": "Nordtoftir", "latitude": "62.2667", "longitude": "-6.5"}, {"country_code": "FO", "postal_code": "737", "place_name": "M\u00fali", "latitude": "62.35", "longitude": "-6.5667"}, {"country_code": "FO", "postal_code": "740", "place_name": "Hvannasund", "latitude": "62.3", "longitude": "-6.5"}, {"country_code": "FO", "postal_code": "750", "place_name": "Vidareidi", "latitude": "62.3667", "longitude": "-6.5333"}, {"country_code": "FO", "postal_code": "765", "place_name": "Svinoy", "latitude": "62.2833", "longitude": "-6.3333"}, {"country_code": "FO", "postal_code": "766", "place_name": "Kirkja", "latitude": "62.3167", "longitude": "-6.3"}, {"country_code": "FO", "postal_code": "767", "place_name": "Hattarvik", "latitude": "62.3333", "longitude": "-6.25"}, {"country_code": "FO", "postal_code": "780", "place_name": "Kunoy", "latitude": "62.2833", "longitude": "-6.6667"}, {"country_code": "FO", "postal_code": "785", "place_name": "Haraldssund", "latitude": "62.2667", "longitude": "-6.6"}, {"country_code": "FO", "postal_code": "795", "place_name": "Sydradalur, Kalsoy", "latitude": "62.3222", "longitude": "-6.7389"}, {"country_code": "FO", "postal_code": "796", "place_name": "H\u00fasar", "latitude": "62.2667", "longitude": "-6.6833"}, {"country_code": "FO", "postal_code": "797", "place_name": "Mikladalur", "latitude": "62.3333", "longitude": "-6.75"}, {"country_code": "FO", "postal_code": "798", "place_name": "Tr\u00f8llanes", "latitude": "62.3667", "longitude": "-6.7833"}, {"country_code": "FO", "postal_code": "800", "place_name": "Tv\u00f8royri", "latitude": "61.5556", "longitude": "-6.8111"}, {"country_code": "FO", "postal_code": "810", "place_name": "Tv\u00f8royri", "latitude": "61.5556", "longitude": "-6.8111"}, {"country_code": "FO", "postal_code": "825", "place_name": "Frodba", "latitude": "61.55", "longitude": "-6.7667"}, {"country_code": "FO", "postal_code": "826", "place_name": "Trongisv\u00e1gur", "latitude": "61.5667", "longitude": "-6.8333"}, {"country_code": "FO", "postal_code": "827", "place_name": "\u00d8ravik", "latitude": "61.5333", "longitude": "-6.8"}, {"country_code": "FO", "postal_code": "850", "place_name": "Hvalba", "latitude": "61.6", "longitude": "-6.95"}, {"country_code": "FO", "postal_code": "860", "place_name": "Sandvik", "latitude": "61.6333", "longitude": "-6.9167"}, {"country_code": "FO", "postal_code": "870", "place_name": "F\u00e1mjin", "latitude": "61.5167", "longitude": "-6.8667"}, {"country_code": "FO", "postal_code": "900", "place_name": "V\u00e1gur", "latitude": "61.4732", "longitude": "-6.8118"}, {"country_code": "FO", "postal_code": "910", "place_name": "V\u00e1gur", "latitude": "61.4732", "longitude": "-6.8118"}, {"country_code": "FO", "postal_code": "925", "place_name": "Nes, V\u00e1gur", "latitude": "61.4389", "longitude": "-6.7444"}, {"country_code": "FO", "postal_code": "926", "place_name": "Lopra", "latitude": "61.4333", "longitude": "-6.7667"}, {"country_code": "FO", "postal_code": "927", "place_name": "Akrar", "latitude": "61.45", "longitude": "-6.75"}, {"country_code": "FO", "postal_code": "928", "place_name": "Vikarbyrgi", "latitude": "61.4333", "longitude": "-6.7167"}, {"country_code": "FO", "postal_code": "950", "place_name": "Porkeri", "latitude": "61.4833", "longitude": "-6.7333"}, {"country_code": "FO", "postal_code": "960", "place_name": "Hov", "latitude": "61.5167", "longitude": "-6.7333"}, {"country_code": "FO", "postal_code": "970", "place_name": "Sumba", "latitude": "61.4", "longitude": "-6.7"}]