[{"country_code": "GG", "postal_code": "GY1", "place_name": "St Peter Port", "latitude": "49.45", "longitude": "-2.6"}, {"country_code": "GG", "postal_code": "GY10", "place_name": "Sark", "latitude": "49.71", "longitude": "-2.2"}, {"country_code": "GG", "postal_code": "GY2", "place_name": "St Sampsons", "latitude": "49.45", "longitude": "-2.6"}, {"country_code": "GG", "postal_code": "GY2", "place_name": "Delancey", "latitude": "49.45", "longitude": "-2.6"}, {"country_code": "GG", "postal_code": "GY3", "place_name": "Vale", "latitude": "49.45", "longitude": "-2.6"}, {"country_code": "GG", "postal_code": "GY4", "place_name": "St Martin", "latitude": "49.45", "longitude": "-2.6"}, {"country_code": "GG", "postal_code": "GY5", "place_name": "Castel", "latitude": "49.45", "longitude": "-2.6"}, {"country_code": "GG", "postal_code": "GY6", "place_name": "Vale", "latitude": "49.4858", "longitude": "-2.5196"}, {"country_code": "GG", "postal_code": "GY6", "place_name": "Saint Andrew", "latitude": "49.4519", "longitude": "-2.5729"}, {"country_code": "GG", "postal_code": "GY7", "place_name": "Saint Saviour", "latitude": "49.4569", "longitude": "-2.6358"}, {"country_code": "GG", "postal_code": "GY7", "place_name": "Saint Pierre du Bois", "latitude": "49.4456", "longitude": "-2.6436"}, {"country_code": "GG", "postal_code": "GY8", "place_name": "Torteval", "latitude": "49.4333", "longitude": "-2.65"}, {"country_code": "GG", "postal_code": "GY8", "place_name": "Forest", "latitude": "49.4258", "longitude": "-2.5919"}, {"country_code": "GG", "postal_code": "GY9", "place_name": "Alderney", "latitude": "49.71", "longitude": "-2.2"}]